     2.10           OBSERVATION DATA    G (GPS)             RINEX VERSION / TYPE
goGPS                                                       PGM / RUN BY / DATE 
yamatogawa_rover                                            MARKER NAME         
                                                            OBSERVER / AGENCY   
                    u-blox                                  REC # / TYPE / VERS 
                                                            ANT # / TYPE        
 -3749928.3337  3683383.4858  3600613.9204                  APPROX POSITION XYZ 
        0.0000        0.0000        0.0000                  ANTENNA: DELTA H/E/N
     2     0                                                WAVELENGTH FACT L1/2
     4    C1    L1    S1    D1                              # / TYPES OF OBSERV 
  2010     1     6     5    57    3.0000000     GPS         TIME OF FIRST OBS   
                                                            END OF HEADER       
 10  1  6  5 57  3.0000000  0  9G02G04G05G07G10G12G13G17G23
  21128675.686 7     -7818.26327        45.000 7      2781.846 7
  20670375.121 8      1562.63228        48.000 8       211.206 8
  22611076.342 7     -8627.25627        45.000 7      2921.798 7
  24677636.928 6    -10127.20426        38.000 6      2959.586 6
  21256378.072 7     -6097.56727        47.000 7      2343.480 7
  24801661.122 6      3589.08426        40.000 6      -751.200 6
  21523203.593 7      5574.50427        44.000 7      -822.115 7
  22489854.897 7     10780.05027        45.000 7     -2663.597 7
  23989108.380 7     11009.60127        46.000 7     -2272.836 7
 10  1  6  5 57  5.0000000  0  9G02G04G05G07G10G12G13G17G23
  21127620.628 7    -13376.38327        46.000 7      2777.090 7
  20670294.256 8      1146.65228        48.000 8       204.890 8
  22609963.943 7    -14466.17727        45.000 7      2919.600 7
  24676512.558 6    -16039.48126        41.000 6      2951.914 6
  21255485.424 7    -10778.87527        43.000 7      2339.795 7
  24801945.962 5      5097.63025        35.000 5      -753.510 5
  21523520.140 7      7225.34727        45.000 7      -829.252 7
  22490870.430 7     16112.97127        42.000 7     -2669.591 7
  23989975.098 8     15561.69028        48.000 8     -2279.918 8
 10  1  6  5 57  6.0000000  0  9G02G04G05G07G10G12G13G17G23
  21127091.067 7    -16152.63027        46.000 7      2774.585 7
  20670256.355 8       942.64928        50.000 8       202.631 8
  22609409.009 7    -17384.07127        43.000 7      2919.009 7
  24675947.694 7    -18991.20327        43.000 7      2950.810 7
  21255040.269 7    -13117.49027        47.000 7      2337.360 7
  24802089.821 6      5853.73726        38.000 6      -757.592 6
  21523677.890 7      8055.86627        47.000 7      -832.253 7
  22491377.010 7     18782.15027        45.000 7     -2669.065 7
  23990408.125 7     17842.76327        47.000 7     -2282.949 7
 10  1  6  5 57  7.0000000  0  9G02G04G05G07G10G12G13G17G23
  21126562.761 7    -18926.67627        44.000 7      2773.690 7
  20670217.231 8       740.72928        50.000 8       202.249 8
  22608852.993 7    -20299.60327        45.000 7      2913.324 7
  24675385.605 6    -21941.06026        41.000 6      2950.226 6
  21254596.038 8    -15453.61928        49.000 8      2334.272 8
  24802234.728 6      6612.14626        38.000 6      -762.516 6
  21523836.582 7      8888.64027        47.000 7      -831.606 7
  22491886.225 7     21453.56327        47.000 7     -2672.921 7
  23990843.176 7     20125.80127        47.000 7     -2281.185 7
 10  1  6  5 57  8.0000000  0  9G02G04G05G07G10G12G13G17G23
  21126034.596 7    -21699.49527        44.000 7      2771.805 7
  20670179.399 8       538.32328        51.000 8       201.470 8
  22608299.960 8    -23210.91928        48.000 8      2908.488 8
  24674824.581 6    -24892.94126        40.000 6      2951.125 6
  21254152.384 8    -17786.31428        49.000 8      2330.503 8
  24802379.844 6      7375.05636        36.000 6      -765.365 6
  21523995.327 8      9719.80628        48.000 8      -831.743 8
  22492395.090 7     24127.11027        45.000 7     -2676.032 7
  23991278.018 8     22405.87228        50.000 8     -2280.709 8
 10  1  6  5 57  9.0000000  0  9G02G04G05G07G10G12G13G17G23
  21125507.233 7    -24470.17627        43.000 7      2769.572 7
  20670140.677 8       338.14928        51.000 8       199.388 8
  22607746.317 8    -26120.06128        48.000 8      2908.358 8
  24674263.434 5    -27842.63725        33.000 5      2949.150 5
  21253708.677 7    -20116.70327        46.000 7      2329.057 7
  24802525.710 6      8140.05226        40.000 6      -766.083 6
  21524154.194 7     10553.37827        44.000 7      -834.545 7
  22492903.241 7     26802.69327        44.000 7     -2675.687 7
  23991712.459 8     24688.06228        48.000 8     -2283.378 8
 10  1  6  5 57 10.0000000  0  9G02G04G05G07G10G12G13G17G23
  21124981.475 7    -27239.80327        44.000 7      2768.861 7
  20670103.456 8       140.09228        49.000 8       197.125 8
  22607192.500 7    -29029.46027        43.000 7      2908.642 7
  24673702.462 5    -30790.01925        35.000 5      2945.374 5
  21253264.674 7    -22446.70427        45.000 7      2328.877 7
  24802672.519 7      8905.03127        42.000 7      -765.738 7
  21524313.113 7     11390.14527        44.000 7      -838.022 7
  22493413.974 7     29479.18327        45.000 7     -2677.060 7
  23992146.603 7     26973.39927        46.000 7     -2286.521 7
 10  1  6  5 57 11.0000000  0  9G02G04G05G07G10G12G13G17G23
  21124455.019 7    -30008.12127        46.000 7      2769.269 7
  20670065.885 8       -56.73528        49.000 8       197.713 8
  22606638.874 7    -31937.75527        44.000 7      2908.933 7
  24673141.350 5    -33736.64935        30.000 5      2947.051 5
  21252821.840 8    -24775.51128        48.000 8      2329.478 8
  24802818.787 6      9671.30126        41.000 6      -765.828 6
  21524473.218 7     12228.31927        44.000 7      -837.301 7
  22493923.799 7     32156.47327        45.000 7     -2677.070 7
  23992581.707 7     29260.23027        47.000 7     -2285.958 7
 10  1  6  5 57 12.0000000  0  8G02G04G05G10G12G13G17G23
  21123928.389 7    -32775.80327        46.000 7      2766.624 7
  20670029.327 8      -252.27928        52.000 8       195.210 8
  22606085.248 8    -34845.08028        48.000 8      2906.841 8
  21252378.447 7    -27103.54627        47.000 7      2327.383 7
  24802964.374 6     10438.45226        41.000 6      -767.045 6
  21524632.364 7     13068.10527        47.000 7      -840.338 7
  22494433.538 8     34835.29228        49.000 8     -2679.141 8
  23993017.805 7     31548.31827        46.000 7     -2289.088 7
 10  1  6  5 57 13.0000000  0  8G02G04G05G10G12G13G17G23
  21123402.230 7    -35542.15927        47.000 7      2766.355 7
  20669992.629 8      -446.58928        52.000 8       194.094 8
  22605533.158 8    -37751.22428        48.000 8      2905.917 8
  21251936.433 7    -29430.05027        47.000 7      2326.129 7
  24803110.851 6     11206.91326        40.000 6      -768.728 6
  21524791.825 8     13909.47928        48.000 8      -841.635 8
  22494943.765 8     37515.23428        49.000 8     -2680.205 8
  23993453.921 7     33837.52927        46.000 7     -2289.676 7
 10  1  6  5 57 14.0000000  0  8G02G04G05G10G12G13G17G23
  21122875.967 7    -38307.20927        47.000 7      2764.307 7
  20669956.158 8      -639.45328        52.000 8       191.941 8
  22604980.702 7    -40656.05827        47.000 7      2903.852 7
  21251493.896 7    -31755.19227        46.000 7      2324.178 7
  24803256.368 6     11976.80226        40.000 6      -771.228 6
  21524952.576 8     14752.60028        48.000 8      -843.971 8
  22495454.009 8     40196.45428        49.000 8     -2682.009 8
  23993889.653 7     36128.22627        46.000 7     -2291.197 7
 10  1  6  5 57 15.0000000  0  9G02G04G05G07G10G12G13G17G23
  21122349.877 7    -41070.94227        46.000 7      2763.034 7
  20669919.548 8      -830.87728        52.000 8       191.022 8
  22604427.792 7    -43559.53827        47.000 7      2902.718 7
  24670903.901 5    -45509.49835        35.000 5      2941.283 5
  21251051.306 7    -34078.84727        45.000 7      2323.250 7
  24803403.648 6     12748.09126        40.000 6      -770.969 6
  21525113.851 7     15597.47927        45.000 7      -844.919 7
  22495964.585 8     42879.09328        49.000 8     -2683.085 8
  23994326.589 7     38420.25027        46.000 7     -2292.489 7
 10  1  6  5 57 16.0000000  0  9G02G04G05G07G10G12G13G17G23
  21121824.469 7    -43833.68427        46.000 7      2761.127 7
  20669883.531 8     -1021.19528        52.000 8       188.608 8
  22603875.702 7    -46461.69827        46.000 7      2900.943 7
  24670339.910 5    -48450.09325        33.000 5      2940.214 5
  21250610.164 8    -36401.16628        48.000 8      2320.881 8
  24803551.347 7     13520.85127        42.000 7      -774.240 7
  21525275.318 8     16443.55628        49.000 8      -848.588 8
  22496475.423 7     45562.97827        47.000 7     -2685.431 7
  23994762.007 7     40713.23527        46.000 7     -2295.133 7
 10  1  6  5 57 17.0000000  0  9G02G04G05G07G10G12G13G17G23
  21121299.043 7    -46595.13627        45.000 7      2761.397 7
  20669847.287 8     -1210.03528        48.000 8       188.334 8
  22603323.455 7    -49362.87527        44.000 7      2900.894 7
  24669779.967 5    -51389.46925        35.000 5      2938.106 5
  21250167.889 7    -38722.17327        46.000 7      2320.719 7
  24803699.569 7     14294.62527        42.000 7      -774.354 7
  21525437.360 7     17291.60927        46.000 7      -848.661 7
  22496986.923 7     48248.07027        45.000 7     -2684.774 7
  23995197.773 7     43007.60227        47.000 7     -2294.599 7
 10  1  6  5 57 18.0000000  0  9G02G04G05G07G10G12G13G17G23
  21120773.756 7    -49355.82227        45.000 7      2761.261 7
  20669811.444 8     -1398.01728        51.000 8       188.258 8
  22602771.452 7    -52263.04727        47.000 7      2900.698 7
  24669220.548 5    -54327.90325        32.000 5      2937.490 5
  21249725.683 7    -41042.37627        45.000 7      2320.467 7
  24803847.390 7     15069.58627        42.000 7      -774.427 7
  21525599.892 7     18140.64327        45.000 7      -848.747 7
  22497498.825 8     50934.02528        48.000 8     -2685.445 8
  23995634.291 7     45303.11627        46.000 7     -2294.779 7
 10  1  6  5 57 19.0000000  0  9G02G04G05G07G10G12G13G17G23
  21120248.924 7    -52115.50707        45.000 7      2759.452 7
  20669775.549 8     -1585.30708        52.000 8       186.213 8
  22602220.130 7    -55162.27007        47.000 7      2898.885 7
  24668665.038 5    -57265.43225        32.000 5      2936.532 5
  21249285.274 7    -43361.92507        46.000 7      2318.212 7
  24803995.158 6     15845.08506        40.000 6      -776.632 6
  21525761.743 7     18991.23007        45.000 7      -851.298 7
  22498010.274 8     53620.51508        48.000 8     -2687.217 8
  23996071.715 7     47599.25807        46.000 7     -2297.988 7
 10  1  6  5 57 20.0000000  0  9G02G04G05G07G10G12G13G17G23
  21119723.096 8    -54874.82408        48.000 8      2759.095 8
  20669739.846 8     -1771.62908        50.000 8       185.385 8
  22601668.598 8    -58061.19208        48.000 8      2898.918 8
  24668105.025 5    -60202.66825        33.000 5      2938.112 5
  21248844.569 8    -45680.50408        48.000 8      2318.422 8
  24804142.107 6     16621.48606        39.000 6      -776.874 6
  21525923.227 8     19842.64708        49.000 8      -852.203 8
  22498520.396 7     56307.74207        47.000 7     -2687.662 7
  23996508.965 7     49896.46707        45.000 7     -2296.929 7
 10  1  6  5 57 21.0000000  0  9G02G04G05G07G10G12G13G17G23
  21119197.269 7    -57633.93907        46.000 7      2760.480 7
  20669704.369 8     -1957.66008        52.000 8       186.796 8
  22601117.171 8    -60959.65608        48.000 8      2899.977 8
  24667545.624 5    -63139.90825        33.000 5      2937.589 5
  21248402.974 8    -47998.55908        48.000 8      2319.158 8
  24804289.945 6     17398.42206        39.000 6      -775.396 6
  21526085.270 8     20694.48708        49.000 8      -851.099 8
  22499030.745 7     58995.47307        47.000 7     -2687.190 7
  23996946.233 7     52193.56107        46.000 7     -2296.576 7
 10  1  6  5 57 22.0000000  0  9G02G04G05G07G10G12G13G17G23
  21118672.750 7    -60392.11907        47.000 7      2757.142 7
  20669669.469 8     -2142.58008        51.000 8       183.944 8
  22600565.849 8    -63857.18608        48.000 8      2896.660 8
  24666986.240 5    -66076.14825        32.000 5      2935.077 5
  21247962.722 8    -50315.57708        48.000 8      2316.258 8
  24804437.835 6     18176.42206        38.000 6      -778.993 6
  21526247.783 8     21547.74408        49.000 8      -854.344 8
  22499542.124 7     61684.22007        46.000 7     -2689.870 7
  23997383.274 7     54491.85807        45.000 7     -2299.220 7
 10  1  6  5 57 23.0000000  0  9G02G04G05G07G10G12G13G17G23
  21118148.214 7    -63149.79507        46.000 7      2757.053 7
  20669634.324 8     -2326.93808        52.000 8       184.183 8
  22600014.893 8    -66754.11708        48.000 8      2895.480 8
  24666427.065 5    -69012.05525        35.000 5      2935.455 5
  21247521.633 7    -52631.89407        46.000 7      2315.024 7
  24804585.098 6     18955.04506        38.000 6      -781.049 6
  21526410.611 8     22401.79208        48.000 8      -853.618 8
  22500053.782 7     64373.51507        47.000 7     -2689.416 7
  23997820.489 7     56790.55507        45.000 7     -2298.049 7
 10  1  6  5 57 24.0000000  0  9G02G04G05G07G10G12G13G17G23
  21117623.189 7    -65906.28907        45.000 7      2756.463 7
  20669598.883 8     -2510.08008        49.000 8       182.537 8
  22599464.095 8    -69649.84708        48.000 8      2895.214 8
  24665868.885 4    -71946.91034        29.000 4      2931.615 4
  21247080.997 7    -54946.84807        44.000 7      2314.831 7
  24804733.268 6     19734.99906        38.000 6      -780.621 6
  21526573.247 7     23257.45807        43.000 7      -855.081 7
  22500566.277 7     67064.00007        47.000 7     -2691.301 7
  23998258.158 7     59090.37807        44.000 7     -2300.217 7
 10  1  6  5 57 25.0000000  0  9G02G04G05G07G10G12G13G17G23
  21117098.182 7    -68661.61507        46.000 7      2755.510 7
  20669563.668 7     -2691.74807        47.000 7       181.751 7
  22598913.104 8    -72544.36508        48.000 8      2894.706 8
  24665310.443 4    -74880.39834        28.000 4      2934.526 4
  21246640.397 7    -57260.52707        47.000 7      2314.147 7
  24804882.170 6     20516.21106        39.000 6      -781.276 6
  21526736.721 7     24114.84907        44.000 7      -857.894 7
  22501079.889 7     69755.83107        47.000 7     -2691.768 7
  23998695.390 7     61391.72307        44.000 7     -2301.787 7
 10  1  6  5 57 26.0000000  0  9G02G04G05G07G10G12G13G17G23
  21116574.274 7    -71416.12507        46.000 7      2755.035 7
  20669528.995 8     -2872.46308        48.000 8       180.788 8
  22598362.375 8    -75438.03008        48.000 8      2894.090 8
  24664752.420 4    -77812.93534        27.000 4      2932.180 4
  21246200.721 7    -59573.31507        46.000 7      2313.466 7
  24805030.933 6     21298.42606        39.000 6      -782.197 6
  21526900.491 7     24973.46307        43.000 7      -858.347 7
  22501592.594 8     72448.58108        48.000 8     -2692.529 8
  23999133.478 7     63694.06207        44.000 7     -2302.243 7
 10  1  6  5 57 27.0000000  0  9G02G04G05G07G10G12G13G17G23
  21116050.279 7    -74169.57907        47.000 7      2752.652 7
  20669493.937 7     -3051.98507        43.000 7       177.895 7
  22597811.577 8    -78330.58508        48.000 8      2891.337 8
  24664189.999 4    -80744.64334        26.000 4      2931.149 4
  21245760.522 8    -61884.79708        48.000 8      2310.122 8
  24805179.958 6     22081.83606        38.000 6      -784.438 6
  21527064.558 8     25833.49008        48.000 8      -861.505 8
  22502105.543 7     75142.41007        44.000 7     -2695.108 7
  23999572.107 7     65997.41807        43.000 7     -2305.665 7
 10  1  6  5 57 28.0000000  0 10G02G04G05G07G08G10G12G13G17G23
  21115526.738 7    -76922.23007        44.000 7      2752.436 7
  20669459.089 7     -3230.44407        46.000 7       177.581 7
  22597261.057 8    -81222.45008        48.000 8      2891.188 8
  24663631.889 5    -83675.27935        32.000 5      2930.307 5
  25798184.599 4    -90455.41934        29.000 4      3185.928 4
  21245320.602 7    -64195.56807        47.000 7      2309.940 7
  24805328.756 6     22866.03006        39.000 6      -785.830 6
  21527228.713 7     26695.03607        44.000 7      -861.155 7
  22502618.318 7     77837.25707        45.000 7     -2695.117 7
  24000010.945 7     68302.19907        44.000 7     -2304.733 7
 10  1  6  5 57 29.0000000  0 10G02G04G05G07G08G10G12G13G17G23
  21115003.301 7    -79674.70907        45.000 7      2751.176 7
  20669426.963 8     -3408.61708        48.000 8       177.200 8
  22596710.450 8    -84114.02508        50.000 8      2890.540 8
  24663076.606 6    -86605.91036        37.000 6      2930.631 6
  25797580.350 5    -93642.24535        30.000 5      3185.458 5
  21244881.258 7    -66505.88607        46.000 7      2309.128 7
  24805477.607 6     23650.53606        38.000 6      -786.233 6
  21527391.663 7     27557.04807        42.000 7      -862.469 7
  22503130.360 7     80532.32307        44.000 7     -2695.659 7
  24000450.184 7     70607.01607        46.000 7     -2305.357 7
 10  1  6  5 57 30.0000000  0  9G02G04G05G07G10G12G13G17G23
  21114478.538 7    -82425.90607        46.000 7      2750.812 7
  20669394.610 8     -3585.45508        50.000 8       176.591 8
  22596160.629 8    -87004.29608        48.000 8      2889.792 8
  24662518.827 5    -89535.41825        35.000 5      2929.314 5
  21244441.704 7    -68814.84707        47.000 7      2308.363 7
  24805626.405 6     24436.60906        39.000 6      -786.673 6
  21527554.072 7     28420.63307        43.000 7      -864.261 7
  22503642.716 7     83228.48007        47.000 7     -2696.632 7
  24000888.953 7     72913.21007        46.000 7     -2306.350 7
 10  1  6  5 57 31.0000000  0  9G02G04G05G07G10G12G13G17G23
  21113954.874 7    -85176.08307        46.000 7      2748.976 7
  20669360.862 8     -3761.27808        51.000 8       174.786 8
  22595610.842 8    -89893.37408        48.000 8      2888.054 8
  24661962.758 5    -92464.34325        35.000 5      2927.762 5
  21244002.552 8    -71122.49608        49.000 8      2306.532 8
  24805776.180 6     25224.01706        39.000 6      -787.794 6
  21527716.446 7     29285.38907        43.000 7      -865.767 7
  22504155.804 7     85925.72707        47.000 7     -2698.398 7
  24001328.070 7     75220.25407        44.000 7     -2308.312 7
 10  1  6  5 57 32.0000000  0  9G02G04G05G07G10G12G13G17G23
  21113430.949 7    -87925.29107        44.000 7      2749.581 7
  20669327.671 8     -3935.87008        51.000 8       175.076 8
  22595061.510 7    -92781.48207        47.000 7      2888.043 7
  24661400.495 5    -95391.91625        34.000 5      2928.591 5
  21243564.255 8    -73429.05108        50.000 8      2306.491 8
  24805925.903 6     26012.40106        40.000 6      -788.251 6
  21527880.932 7     30151.80507        43.000 7      -866.051 7
  22504669.469 8     88624.20208        48.000 8     -2698.107 8
  24001767.658 7     77528.52007        44.000 7     -2307.528 7
 10  1  6  5 57 33.0000000  0  9G02G04G05G07G10G12G13G17G23
  21112907.303 7    -90674.34607        45.000 7      2748.521 7
  20669294.289 8     -4110.29008        51.000 8       174.057 8
  22594511.583 8    -95669.22608        49.000 8      2886.942 8
  24660847.358 5    -98319.59325        33.000 5      2928.932 5
  21243125.975 8    -75735.18308        50.000 8      2305.597 8
  24806076.917 6     26801.21406        40.000 6      -789.441 6
  21528046.308 7     31018.56407        45.000 7      -867.796 7
  22505182.750 7     91322.85507        47.000 7     -2698.793 7
  24002206.688 7     79836.81807        43.000 7     -2308.784 7
 10  1  6  5 57 34.0000000  0  9G02G04G05G07G10G12G13G17G23
  21112386.361 7    -93422.45707        45.000 7      2748.188 7
  20669261.343 8     -4283.86608        50.000 8       172.774 8
  22593963.210 8    -98556.19208        49.000 8      2886.861 8
  24660287.136 4   -101246.79934        29.000 4      2923.737 4
  21242687.033 8    -78040.39508        48.000 8      2305.355 8
  24806228.490 6     27590.90206        40.000 6      -790.650 6
  21528211.648 7     31886.65407        42.000 7      -868.816 7
  22505696.362 7     94022.22507        46.000 7     -2700.146 7
  24002646.608 7     82145.92707        43.000 7     -2309.755 7
 10  1  6  5 57 35.0000000  0  9G02G04G05G07G10G12G13G17G23
  21111863.815 7    -96170.57307        46.000 7      2747.874 7
  20669227.402 8     -4457.07508        48.000 8       173.113 8
  22593414.069 7   -101442.79107        45.000 7      2886.266 7
  24659735.273 5   -104173.73935        34.000 5      2926.207 5
  21242248.003 8    -80345.21108        49.000 8      2304.279 8
  24806379.312 6     28381.20306        41.000 6      -790.031 6
  21528378.787 8     32755.03808        51.000 8      -869.138 8
  22506209.451 7     96722.05207        46.000 7     -2700.032 7
  24003086.825 7     84455.35107        47.000 7     -2309.955 7
 10  1  6  5 57 36.0000000  0  8G02G04G05G10G12G13G17G23
  21111341.181 7    -98917.87007        46.000 7      2746.917 7
  20669194.282 7     -4629.31707        47.000 7       170.928 7
  22592864.998 7   -104328.73907        46.000 7      2885.359 7
  21241809.688 8    -82649.21808        50.000 8      2303.373 8
  24806530.378 7     29172.10407        42.000 7      -791.520 7
  21528545.366 8     33624.96908        51.000 8      -870.643 8
  22506723.604 7     99422.70907        46.000 7     -2701.612 7
  24003526.536 7     86765.85207        47.000 7     -2310.610 7
 10  1  6  5 57 37.0000000  0  9G02G04G05G07G10G12G13G17G23
  21110818.529 7   -101664.35507        47.000 7      2746.568 7
  20669162.104 8     -4800.68508        48.000 8       170.614 8
  22592315.578 7   -107213.81207        46.000 7      2885.261 7
  24658620.762 5   -110024.49135        30.000 5      2925.496 5
  21241370.867 8    -84952.31508        49.000 8      2303.057 8
  24806680.555 6     29963.99506        37.000 6      -791.373 6
  21528711.091 8     34495.97908        50.000 8      -871.772 8
  22507237.757 7    102124.05907        46.000 7     -2702.090 7
  24003965.984 8     89077.15408        48.000 8     -2311.544 8
 10  1  6  5 57 38.0000000  0  9G02G04G05G07G10G12G13G17G23
  21110295.581 7   -104409.64907        47.000 7      2745.146 7
  20669129.629 8     -4970.49508        48.000 8       169.869 8
  22591766.490 7   -110097.77807        45.000 7      2883.859 7
  24658064.484 5   -112948.47735        34.000 5      2923.117 5
  21240933.024 8    -87254.08208        50.000 8      2301.381 8
  24806830.958 6     30757.11106        37.000 6      -794.276 6
  21528877.025 8     35368.77808        50.000 8      -872.572 8
  22507750.881 7    104826.83807        44.000 7     -2702.624 7
  24004406.358 8     91389.84008        48.000 8     -2312.802 8
 10  1  6  5 57 39.0000000  0  9G02G04G05G07G10G12G13G17G23
  21109773.802 8   -107154.01708        48.000 8      2744.643 8
  20669096.979 7     -5139.41207        47.000 7       169.089 7
  22591217.296 7   -112980.73907        45.000 7      2882.972 7
  24657507.386 5   -115871.51335        33.000 5      2922.626 5
  21240495.181 8    -89554.78108        50.000 8      2300.908 8
  24806981.274 6     31551.32506        38.000 6      -793.470 6
  21529043.099 8     36242.81808        50.000 8      -874.131 8
  22508264.545 7    107530.63207        45.000 7     -2703.486 7
  24004846.313 8     93703.49708        48.000 8     -2313.354 8
 10  1  6  5 57 40.0000000  0  9G02G04G05G07G10G12G13G17G23
  21109251.936 7   -109898.12607        46.000 7      2745.240 7
  20669064.592 8     -5307.83408        50.000 8       169.275 8
  22590668.487 7   -115863.50507        45.000 7      2884.213 7
  24656954.633 6   -118794.40136        36.000 6      2922.968 6
  21240057.337 8    -91855.16908        49.000 8      2301.420 8
  24807132.271 6     32345.81006        40.000 6      -792.959 6
  21529210.063 8     37117.64508        49.000 8      -874.554 8
  22508778.489 7    110234.64507        45.000 7     -2702.902 7
  24005286.756 8     96017.60908        48.000 8     -2313.642 8
 10  1  6  5 57 41.0000000  0  9G02G04G05G07G10G12G13G17G23
  21108729.302 7   -112642.68107        45.000 7      2743.519 7
  20669033.339 8     -5476.59008        50.000 8       167.759 8
  22590120.131 7   -118746.61907        47.000 7      2882.631 7
  24656397.953 5   -121717.78725        35.000 5      2922.249 5
  21239619.476 8    -94155.80908        49.000 8      2300.249 8
  24807284.106 6     33140.10106        38.000 6      -795.623 6
  21529375.857 8     37992.43408        49.000 8      -876.046 8
  22509292.747 7    112938.22807        45.000 7     -2704.917 7
  24005727.252 7     98331.43307        46.000 7     -2314.614 7
 10  1  6  5 57 42.0000000  0  9G02G04G05G07G10G12G13G17G23
  21108206.842 7   -115385.46207        43.000 7      2742.420 7
  20669002.068 8     -5643.50008        51.000 8       166.625 8
  22589571.811 7   -121627.92907        47.000 7      2881.085 7
  24655839.494 5   -124639.53025        34.000 5      2920.947 5
  21239182.261 7    -96454.58507        46.000 7      2298.540 7
  24807435.486 6     33936.25506        37.000 6      -797.878 6
  21529542.594 8     38869.31808        48.000 8      -877.422 8
  22509807.755 7    115643.65707        43.000 7     -2705.879 7
  24006167.574 7    100647.00307        46.000 7     -2315.872 7
 10  1  6  5 57 43.0000000  0  9G02G04G05G07G10G12G13G17G23
  21107684.453 7   -118127.41407        45.000 7      2740.254 7
  20668971.094 8     -5809.45608        50.000 8       164.061 8
  22589024.153 8   -124508.22808        48.000 8      2878.717 8
  24655283.827 5   -127560.45025        34.000 5      2919.854 5
  21238744.959 8    -98752.22308        48.000 8      2295.635 8
  24807586.814 6     34733.55306        37.000 6      -799.727 6
  21529709.121 8     39747.39208        49.000 8      -879.872 8
  22510322.362 7    118350.15307        43.000 7     -2707.397 7
  24006608.820 7    102963.44407        46.000 7     -2318.281 7
 10  1  6  5 57 44.0000000  0  9G02G04G05G07G10G12G13G17G23
  21107162.883 7   -120868.50707        45.000 7      2740.531 7
  20668940.085 8     -5974.40708        51.000 8       164.272 8
  22588475.745 8   -127387.67408        48.000 8      2878.698 8
  24654727.549 5   -130480.57525        35.000 5      2919.190 5
  21238308.476 7   -101048.91407        47.000 7      2295.615 7
  24807739.015 6     35531.71406        37.000 6      -799.215 6
  21529876.294 8     40626.77108        48.000 8      -880.242 8
  22510837.824 7    121057.51107        45.000 7     -2708.253 7
  24007049.228 7    105280.81807        45.000 7     -2318.203 7
 10  1  6  5 57 45.0000000  0  9G02G04G05G07G10G12G13G17G23
  21106641.575 7   -123609.58307        44.000 7      2741.509 7
  20668909.076 8     -6139.21908        52.000 8       165.649 8
  22587927.843 8   -130267.09808        48.000 8      2880.366 8
  24654171.812 5   -133400.71125        34.000 5      2921.882 5
  21237871.593 7   -103345.49007        47.000 7      2297.432 7
  24807889.855 6     36330.02206        36.000 6      -798.011 6
  21530042.979 7     41506.58807        47.000 7      -879.134 7
  22511353.094 7    123764.91407        45.000 7     -2706.735 7
  24007489.951 7    107598.32107        45.000 7     -2316.484 7
 10  1  6  5 57 46.0000000  0  9G02G04G05G07G10G12G13G17G23
  21106120.302 7   -126349.93207        43.000 7      2740.275 7
  20668877.630 8     -6303.18708        52.000 8       164.120 8
  22587379.627 7   -133145.64407        47.000 7      2878.960 7
  24653617.157 5   -136320.18025        35.000 5      2919.352 5
  21237434.587 7   -105641.06207        47.000 7      2295.772 7
  24808042.021 6     37129.34806        37.000 6      -799.010 6
  21530209.698 7     42387.46607        46.000 7      -881.350 7
  22511868.766 7    126473.16807        46.000 7     -2708.405 7
  24007931.128 7    109916.57507        45.000 7     -2318.140 7
 10  1  6  5 57 47.0000000  0  9G02G04G05G07G10G12G13G17G23
  21105599.326 7   -129089.27107        43.000 7      2738.906 7
  20668846.447 8     -6466.02508        52.000 8       162.470 8
  22586832.266 8   -136023.26008        48.000 8      2877.384 8
  24653060.809 5   -139238.66425        34.000 5      2918.976 5
  21236998.244 7   -107935.60307        46.000 7      2293.971 7
  24808194.431 6     37929.69406        36.000 6      -801.104 6
  21530377.133 7     43269.82807        46.000 7      -883.558 7
  22512385.030 7    129182.46707        46.000 7     -2709.705 7
  24008372.286 7    112235.97807        45.000 7     -2319.125 7
 10  1  6  5 57 48.0000000  0  8G02G04G05G07G10G13G17G23
  21105078.315 7   -131827.76707        43.000 7      2738.667 7
  20668816.066 8     -6627.81808        52.000 8       160.908 8
  22586283.806 7   -138899.97707        46.000 7      2876.500 7
  24652504.461 5   -142156.21125        33.000 5      2917.751 5
  21236561.936 7   -110229.17907        47.000 7      2292.917 7
  21530545.580 7     44153.53707        43.000 7      -884.681 7
  22512901.644 7    131892.66007        45.000 7     -2710.894 7
  24008813.620 7    114556.45407        43.000 7     -2320.423 7
 10  1  6  5 57 49.0000000  0  9G02G04G05G07G10G12G13G17G23
  21104557.007 7   -134565.35207        43.000 7      2737.432 7
  20668785.772 8     -6788.66808        52.000 8       160.938 8
  22585736.497 7   -141775.56407        46.000 7      2875.612 7
  24651949.335 5   -145073.16905        35.000 5      2916.669 5
  21236125.227 7   -112521.51307        45.000 7      2292.030 7
  24808499.060 6     39533.50106        36.000 6      -802.808 6
  21530714.079 7     45038.33007        45.000 7      -885.305 7
  22513417.839 7    134603.90507        46.000 7     -2710.942 7
  24009255.128 7    116877.62307        45.000 7     -2321.167 7
 10  1  6  5 57 50.0000000  0  9G02G04G05G07G10G12G13G17G23
  21104035.577 7   -137302.40107        42.000 7      2736.302 7
  20668755.095 8     -6948.87908        52.000 8       159.636 8
  22585189.625 7   -144650.51307        44.000 7      2874.596 7
  24651395.220 6   -147989.62706        36.000 6      2915.906 6
  21235688.326 7   -114813.16507        47.000 7      2290.476 7
  24808652.395 6     40336.79006        40.000 6      -804.947 6
  21530882.771 7     45924.00507        45.000 7      -886.546 7
  22513935.046 8    137315.70208        48.000 8     -2712.184 8
  24009696.130 7    119199.41507        46.000 7     -2322.412 7
 10  1  6  5 57 51.0000000  0  9G02G04G05G07G10G12G13G17G23
  21103514.287 7   -140038.91407        42.000 7      2737.010 7
  20668725.133 8     -7108.43608        52.000 8       159.777 8
  22584642.648 7   -147525.04507        45.000 7      2874.760 7
  24650841.525 6   -150905.62806        36.000 6      2915.959 6
  21235252.210 7   -117104.22907        47.000 7      2291.843 7
  24808806.183 6     41140.57506        41.000 6      -804.118 6
  21531051.026 7     46810.70007        46.000 7      -886.601 7
  22514451.188 8    140027.95708        48.000 8     -2711.994 8
  24010138.632 7    121521.94307        47.000 7     -2322.357 7
 10  1  6  5 57 52.0000000  0  9G02G04G05G07G10G12G13G17G23
  21102992.962 7   -142774.96307        42.000 7      2735.900 7
  20668694.473 8     -7267.18708        52.000 8       158.229 8
  22584095.426 7   -150399.13207        44.000 7      2873.520 7
  24650287.481 6   -153820.88206        36.000 6      2913.990 6
  21234816.304 8   -119394.74108        48.000 8      2289.978 8
  24808959.344 6     41945.08606        38.000 6      -805.038 6
  21531220.485 7     47698.52207        47.000 7      -888.748 7
  22514967.418 7    142740.95407        47.000 7     -2713.239 7
  24010580.786 7    123845.30407        46.000 7     -2323.973 7
 10  1  6  5 57 53.0000000  0  8G02G04G05G07G10G13G17G23
  21102472.596 7   -145510.15407        43.000 7      2737.414 7
  20668664.895 8     -7425.10008        52.000 8       159.577 8
  22583549.112 7   -153272.26407        46.000 7      2874.622 7
  24649733.523 6   -156735.52206        37.000 6      2916.172 6
  21234380.223 8   -121684.25708        49.000 8      2290.937 8
  21531390.467 7     48587.39407        47.000 7      -887.209 7
  22515483.526 7    145454.76607        47.000 7     -2712.062 7
  24011023.044 7    126169.36407        45.000 7     -2322.397 7
 10  1  6  5 57 54.0000000  0  9G02G04G05G07G10G12G13G17G23
  21101952.318 7   -148244.54007        45.000 7      2733.877 7
  20668635.351 8     -7581.98708        52.000 8       155.975 8
  22583002.345 7   -156144.52707        45.000 7      2872.027 7
  24649179.985 6   -159649.29806        36.000 6      2912.519 6
  21233945.067 8   -123972.77608        49.000 8      2287.945 8
  24809268.021 7     43557.75637        42.000 7      -806.661 7
  21531560.764 7     49477.62407        47.000 7      -891.340 7
  22516000.314 7    148169.49307        47.000 7     -2715.350 7
  24011465.215 7    128494.46307        45.000 7     -2325.844 7
 10  1  6  5 57 55.0000000  0  9G02G04G05G07G10G12G13G17G23
  21101431.708 7   -150978.88307        46.000 7      2734.487 7
  20668605.128 8     -7738.58308        48.000 8       156.810 8
  22582455.420 7   -159016.81507        44.000 7      2872.537 7
  24648624.928 6   -162562.88906        36.000 6      2913.267 6
  21233509.143 8   -126261.18108        50.000 8      2288.441 8
  24809418.267 6     44363.95936        40.000 6      -806.304 6
  21531730.607 8     50368.50608        49.000 8      -890.911 8
  22516516.858 7    150884.38007        46.000 7     -2715.459 7
  24011907.229 7    130819.91007        42.000 7     -2325.706 7
 10  1  6  5 57 56.0000000  0  9G02G04G05G07G10G12G13G17G23
  21100911.412 7   -153712.55307        45.000 7      2732.772 7
  20668575.340 7     -7894.58307        47.000 7       155.502 7
  22581908.722 7   -161888.27007        43.000 7      2870.147 7
  24648070.273 6   -165476.04306        36.000 6      2913.411 6
  21233073.952 8   -128548.65608        50.000 8      2286.469 8
  24809577.064 6     45171.32226        41.000 6      -808.151 6
  21531900.712 8     51260.13908        50.000 8      -891.805 8
  22517033.210 7    153599.99707        45.000 7     -2716.272 7
  24012348.336 7    133145.77607        43.000 7     -2325.131 7
 10  1  6  5 57 57.0000000  0  9G02G04G05G07G10G12G13G17G23
  21100392.478 7   -156445.20507        46.000 7      2732.076 7
  20668545.605 8     -8049.59608        51.000 8       154.645 8
  22581363.228 7   -164758.58607        46.000 7      2869.884 7
  24647516.264 6   -168388.61106        36.000 6      2911.374 6
  21232639.860 8   -130834.95008        51.000 8      2285.520 8
  24809728.515 7     45979.87327        42.000 7      -808.949 7
  21532070.450 8     52153.03408        48.000 8      -893.541 8
  22517549.824 7    156316.50107        47.000 7     -2717.268 7
  24012791.467 7    135472.55507        43.000 7     -2327.968 7
 10  1  6  5 57 58.0000000  0  9G02G04G05G07G10G12G13G17G23
  21099872.636 7   -159177.56007        46.000 7      2733.214 7
  20668516.376 8     -8203.90808        49.000 8       154.202 8
  22580817.298 7   -167628.73307        46.000 7      2870.579 7
  24646962.534 6   -171300.47706        38.000 6      2912.171 6
  21232205.647 8   -133120.89508        50.000 8      2286.401 8
  24809882.251 6     46788.69726        38.000 6      -808.086 6
  21532240.084 8     53046.94208        48.000 8      -894.037 8
  22518066.507 7    159033.57507        44.000 7     -2716.319 7
  24013234.371 7    137800.07007        44.000 7     -2327.903 7
 10  1  6  5 57 59.0000000  0  9G02G04G05G07G10G12G13G17G23
  21099353.056 7   -161909.30907        46.000 7      2729.818 7
  20668487.845 8     -8357.34808        48.000 8       151.535 8
  22580270.688 7   -170498.32507        45.000 7      2868.226 7
  24646409.623 6   -174211.41706        41.000 6      2909.706 6
  21231770.019 8   -135406.10908        48.000 8      2284.172 8
  24810034.068 6     47598.29826        37.000 6      -810.519 6
  21532410.904 8     53942.11808        50.000 8      -897.629 8
  22518582.458 7    161751.38207        43.000 7     -2718.087 7
  24013678.043 7    140128.52607        45.000 7     -2331.357 7
 10  1  6  5 58  0.0000000  0  9G02G04G05G07G10G12G13G17G23
  21098834.226 7   -164639.97207        46.000 7      2730.592 7
  20668457.446 8     -8509.09508        48.000 8       150.254 8
  22579724.374 7   -173368.49307        45.000 7      2869.528 7
  24645855.335 6   -177120.96306        41.000 6      2907.853 6
  21231334.951 8   -137691.41508        48.000 8      2284.266 8
  24810188.084 5     48407.30725        35.000 5      -809.398 5
  21532581.235 8     54839.94008        50.000 8      -898.839 8
  22519100.799 7    164468.78607        47.000 7     -2718.604 7
  24014122.186 7    142460.08907        46.000 7     -2332.989 7
 10  1  6  5 58  1.0000000  0  9G02G04G05G07G10G12G13G17G23
  21098315.483 7   -167370.32107        46.000 7      2729.444 7
  20668427.990 8     -8659.43508        50.000 8       150.224 8
  22579178.862 7   -176238.73307        45.000 7      2869.389 7
  24645301.884 7   -180028.31307        43.000 7      2909.260 7
  21230899.864 8   -139976.48408        48.000 8      2284.583 8
  24810341.925 6     49216.30326        36.000 6      -809.333 6
  21532753.504 7     55739.82807        47.000 7      -899.481 7
  22519618.739 8    167187.71608        48.000 8     -2717.742 8
  24014567.323 8    144793.10808        49.000 8     -2332.792 8
 10  1  6  5 58  2.0000000  0  9G02G04G05G07G10G12G13G17G23
  21097796.234 7   -170100.50807        47.000 7      2729.792 7
  20668399.442 8     -8809.59808        49.000 8       149.770 8
  22578632.636 7   -179108.60007        43.000 7      2869.636 7
  24644749.759 7   -182935.69107        45.000 7      2907.655 7
  21230465.546 8   -142261.13808        48.000 8      2284.112 8
  24810495.853 6     50025.70726        36.000 6      -812.602 6
  21532924.150 8     56640.08708        49.000 8      -900.727 8
  22520136.731 7    169906.81007        46.000 7     -2719.610 7
  24015011.658 8    147126.23508        48.000 8     -2333.224 8
 10  1  6  5 58  3.0000000  0  9G02G04G05G07G10G12G13G17G23
  21097277.352 8   -172829.76508        48.000 8      2729.318 8
  20668371.818 8     -8958.97008        51.000 8       148.878 8
  22578086.706 7   -181977.66507        43.000 7      2868.038 7
  24644196.360 7   -185843.02507        43.000 7      2905.781 7
  21230030.913 8   -144544.86308        49.000 8      2283.541 8
  24810649.938 6     50836.14236        36.000 6      -812.382 6
  21533095.964 8     57541.38408        48.000 8      -901.638 8
  22520654.217 7    172626.16907        47.000 7     -2720.924 7
  24015454.457 6    149460.27306        39.000 6     -2333.964 6
 10  1  6  5 58  4.0000000  0  9G02G04G05G07G10G12G13G17G23
  21096757.109 7   -175558.83207        45.000 7      2727.784 7
  20668343.811 8     -9107.75608        49.000 8       147.687 8
  22577541.299 7   -184846.55607        44.000 7      2868.553 7
  24643643.066 7   -188749.42307        44.000 7      2906.153 7
  21229596.804 8   -146828.26908        50.000 8      2282.503 8
  24810805.158 6     51646.73626        36.000 6      -810.877 6
  21533267.866 7     58443.63907        47.000 7      -903.650 7
  22521171.110 7    175346.39107        47.000 7     -2719.291 7
  24015898.391 7    151794.88007        42.000 7     -2336.378 7
 10  1  6  5 58  5.0000000  0 10G02G04G05G07G08G10G12G13G17G23
  21096237.686 7   -178286.98407        46.000 7      2726.955 7
  20668315.088 8     -9255.55008        49.000 8       146.923 8
  22576995.264 7   -187714.33507        45.000 7      2866.990 7
  24643090.156 6   -191654.98506        41.000 6      2904.448 6
  25775788.850 4   -208138.05934        28.000 4      3172.042 4
  21229162.678 8   -149110.56208        49.000 8      2281.061 8
  24810960.989 6     52458.45026        37.000 6      -813.702 6
  21533439.838 8     59347.16108        50.000 8      -904.437 8
  22521689.521 8    178067.54908        48.000 8     -2721.418 8
  24016343.197 6    154130.33906        38.000 6     -2337.107 6
 10  1  6  5 58  6.0000000  0  9G02G04G05G07G10G12G13G17G23
  21095718.716 7   -181014.99407        45.000 7      2728.188 7
  20668286.801 8     -9403.21508        50.000 8       146.953 8
  22576448.776 7   -190582.37907        42.000 7      2867.176 7
  24642537.385 7   -194561.08107        43.000 7      2903.762 7
  21228727.539 8   -151392.85008        49.000 8      2281.885 8
  24811115.231 6     53270.29426        38.000 6      -812.539 6
  21533611.444 7     60251.11407        46.000 7      -905.452 7
  22522207.042 7    180788.05407        47.000 7     -2721.743 7
  24016786.781 6    156466.04006        38.000 6     -2335.584 6
 10  1  6  5 58  7.0000000  0 10G02G04G05G07G08G10G12G13G17G23
  21095199.433 7   -183742.49807        44.000 7      2727.512 7
  20668259.456 8     -9549.85008        50.000 8       146.738 8
  22575902.514 7   -193449.84507        43.000 7      2866.240 7
  24641984.562 7   -197465.94207        44.000 7      2904.563 7
  25774584.663 4   -214493.57834        27.000 4      3176.181 4
  21228293.761 8   -153674.46308        50.000 8      2281.335 8
  24811269.491 6     54082.51026        38.000 6      -813.120 6
  21533783.974 7     61156.48607        45.000 7      -905.810 7
  22522725.122 7    183509.72307        46.000 7     -2722.215 7
  24017231.971 6    158803.09106        41.000 6     -2337.095 6
 10  1  6  5 58  8.0000000  0  9G02G04G05G07G10G12G13G17G23
  21094680.638 7   -186469.40507        44.000 7      2725.106 7
  20668231.396 8     -9695.80308        50.000 8       144.265 8
  22575356.881 7   -196316.30007        42.000 7      2866.532 7
  24641431.303 7   -200370.04607        42.000 7      2903.164 7
  21227860.281 8   -155955.09308        51.000 8      2279.880 8
  24811423.960 6     54895.79726        40.000 6      -815.283 6
  21533955.527 7     62062.65707        45.000 7      -907.913 7
  22523242.818 7    186232.53507        46.000 7     -2723.585 7
  24017676.900 6    161140.72836        41.000 6     -2338.165 6
 10  1  6  5 58  9.0000000  0  9G02G04G05G07G10G12G13G17G23
  21094161.354 6   -189195.09406        41.000 6      2725.408 6
  20668203.214 8     -9840.76008        48.000 8       142.944 8
  22574811.579 6   -199181.55306        40.000 6      2863.778 6
  24640879.248 7   -203273.97707        42.000 7      2901.054 7
  21227426.311 8   -158234.51708        48.000 8      2278.387 8
  24811579.581 7     55710.41327        43.000 7      -816.014 7
  21534129.035 8     62970.17208        48.000 8      -909.849 8
  22523761.229 7    188955.65007        46.000 7     -2725.273 7
  24018122.177 6    163479.02936        37.000 6     -2339.622 6
 10  1  6  5 58 10.0000000  0  9G02G04G05G07G10G12G13G17G23
  21093642.402 7   -191920.57907        46.000 7      2725.550 7
  20668175.625 8     -9985.21108        51.000 8       143.856 8
  22574265.823 7   -202047.09107        43.000 7      2865.104 7
  24640325.884 6   -206177.30206        41.000 6      2901.783 6
  21226992.097 8   -160513.72008        50.000 8      2279.310 8
  24811734.347 6     56525.19926        41.000 6      -815.021 6
  21534302.054 7     63878.47107        46.000 7      -909.884 7
  22524279.203 7    191679.20907        46.000 7     -2724.609 7
  24018567.855 6    165818.02326        38.000 6     -2337.322 6
 10  1  6  5 58 11.0000000  0  9G02G04G05G07G10G12G13G17G23
  21093124.043 7   -194646.24607        47.000 7      2725.077 7
  20668148.264 8    -10129.60008        48.000 8       143.953 8
  22573721.324 7   -204912.08907        43.000 7      2864.652 7
  24639773.218 6   -209080.32306        38.000 6      2904.583 6
  21226558.407 8   -162792.70408        49.000 8      2278.772 8
  24811889.707 7     57340.03727        44.000 7      -815.316 7
  21534475.788 7     64787.15007        47.000 7      -908.948 7
  22524798.435 7    194403.51707        46.000 7     -2723.995 7
  24019012.801 7    168156.49737        45.000 7     -2341.315 7
 10  1  6  5 58 12.0000000  0  9G02G04G05G07G10G12G13G17G23
  21092605.911 7   -197371.04107        46.000 7      2723.394 7
  20668121.547 8    -10272.95408        50.000 8       142.283 8
  22573176.424 7   -207776.53807        45.000 7      2862.936 7
  24639220.936 6   -211982.72306        36.000 6      2899.785 6
  21226124.560 8   -165070.77008        50.000 8      2276.314 8
  24812044.874 7     58155.95927        44.000 7      -817.527 7
  21534648.807 8     65697.03808        49.000 8      -911.524 8
  22525317.108 7    197128.35507        47.000 7     -2726.523 7
  24019458.043 7    170496.31127        44.000 7     -2341.211 7
 10  1  6  5 58 13.0000000  0  9G02G04G05G07G10G12G13G17G23
  21092088.792 7   -200094.84707        46.000 7      2723.249 7
  20668093.732 8    -10415.59308        50.000 8       141.047 8
  22572632.378 6   -210639.96606        41.000 6      2864.099 6
  24638668.934 6   -214884.93006        40.000 6      2900.494 6
  21225691.986 8   -167347.81408        50.000 8      2276.925 8
  24812200.478 7     58972.83507        44.000 7      -817.911 7
  21534821.529 8     66607.99808        49.000 8      -912.631 8
  22525835.344 8    199853.40808        48.000 8     -2726.342 8
  24019903.478 7    172837.00727        42.000 7     -2340.579 7
 10  1  6  5 58 14.0000000  0  9G02G04G05G07G10G12G13G17G23
  21091569.927 7   -202818.72407        47.000 7      2724.038 7
  20668066.335 8    -10557.75608        49.000 8       142.585 8
  22572087.722 7   -213503.34007        43.000 7      2864.578 7
  24638118.222 6   -217786.41306        38.000 6      2902.214 6
  21225258.785 8   -169624.63708        51.000 8      2276.646 8
  24812356.500 6     59789.92706        40.000 6      -817.165 6
  21534995.141 7     67519.67007        47.000 7      -912.157 7
  22526354.174 7    202579.41307        45.000 7     -2724.237 7
  24020349.505 7    175177.76827        45.000 7     -2341.232 7
 10  1  6  5 58 15.0000000  0 10G02G04G05G07G08G10G12G13G17G23
  21091051.638 7   -205541.59707        47.000 7      2723.081 7
  20668040.491 8    -10698.98808        49.000 8       141.527 8
  22571542.804 7   -216365.27607        47.000 7      2862.185 7
  24637566.219 5   -220687.36505        35.000 5      2903.306 5
  25769751.912 4   -239894.59534        27.000 4      3175.433 4
  21224825.077 8   -171900.03708        50.000 8      2275.958 8
  24812511.877 6     60608.49206        41.000 6      -818.469 6
  21535168.806 7     68432.34307        47.000 7      -912.427 7
  22526873.196 7    205306.64807        46.000 7     -2726.129 7
  24020794.870 7    177519.16527        46.000 7     -2340.899 7
 10  1  6  5 58 16.0000000  0 10G02G04G05G07G08G10G12G13G17G23
  21090533.838 7   -208263.35407        46.000 7      2722.559 7
  20668013.181 8    -10839.03308        49.000 8       139.511 8
  22570999.561 7   -219226.64407        47.000 7      2862.050 7
  24637014.426 6   -223587.39936        41.000 6      2899.506 6
  25769148.780 5   -243070.03035        33.000 5      3174.117 5
  21224393.027 8   -174174.65008        50.000 8      2274.701 8
  24812667.951 6     61427.81006        41.000 6      -817.288 6
  21535342.261 7     69346.76707        46.000 7      -915.229 7
  22527393.195 7    208034.11307        47.000 7     -2728.442 7
  24021241.211 7    179862.23327        46.000 7     -2342.627 7
 10  1  6  5 58 17.0000000  0 10G02G04G05G07G08G10G12G13G17G23
  21090015.409 7   -210985.35907        46.000 7      2721.116 7
  20667986.744 8    -10978.65408        51.000 8       139.508 8
  22570455.149 7   -222088.46807        42.000 7      2862.704 7
  24636462.423 6   -226486.47936        40.000 6      2898.548 6
  25768535.492 4   -246245.00034        29.000 4      3176.284 4
  21223959.721 8   -176449.41808        50.000 8      2275.398 8
  24812823.066 6     62246.68806        40.000 6      -818.496 6
  21535516.990 8     70262.05308        48.000 8      -914.964 8
  22527910.315 7    210761.92607        46.000 7     -2727.533 7
  24021686.000 6    182205.96926        39.000 6     -2343.909 6
 10  1  6  5 58 18.0000000  0 10G02G04G05G07G08G10G12G13G17G23
  21089497.731 7   -213706.60607        47.000 7      2720.818 7
  20667960.586 8    -11117.57908        50.000 8       139.655 8
  22569909.952 7   -224949.19707        46.000 7      2860.987 7
  24635910.613 6   -229385.45126        36.000 6      2900.319 6
  25767928.818 4   -249419.58334        29.000 4      3174.248 4
  21223526.467 7   -178723.23407        47.000 7      2274.217 7
  24812979.246 7     63066.49907        43.000 7      -819.608 7
  21535691.580 8     71178.14208        49.000 8      -915.966 8
  22528429.528 7    213490.72007        43.000 7     -2726.566 7
  24022132.010 6    184549.86026        39.000 6     -2343.434 6
 10  1  6  5 58 19.0000000  0 10G02G04G05G07G08G10G12G13G17G23
  21088980.053 7   -216427.31207        47.000 7      2721.354 7
  20667934.149 8    -11255.85508        51.000 8       138.986 8
  22569365.645 7   -227809.45707        42.000 7      2861.309 7
  24635358.680 6   -232283.73926        38.000 6      2900.604 6
  25767323.767 5   -252594.23335        33.000 5      3174.278 5
  21223094.504 8   -180996.36208        51.000 8      2274.167 8
  24813136.211 7     63887.16907        44.000 7      -819.911 7
  21535866.239 8     72095.18808        48.000 8      -916.186 8
  22528949.266 7    216220.05807        45.000 7     -2728.437 7
  24022578.962 7    186894.06107        45.000 7     -2344.084 7
 10  1  6  5 58 20.0000000  0 10G02G04G05G07G08G10G12G13G17G23
  21088462.113 8   -219147.89708        48.000 8      2719.370 8
  20667907.904 8    -11393.96408        48.000 8       137.619 8
  22568821.251 7   -230669.43807        43.000 7      2858.533 7
  24634808.370 6   -235182.30826        41.000 6      2898.558 6
  25766720.338 5   -255768.90235        33.000 5      3174.800 5
  21222661.948 8   -183269.15508        48.000 8      2271.722 8
  24813292.739 7     64708.23007        43.000 7      -821.602 7
  21536040.724 8     73012.64608        49.000 8      -918.479 8
  22529469.265 7    218949.42807        46.000 7     -2731.160 7
  24023025.077 6    189238.77206        40.000 6     -2347.424 6
 10  1  6  5 58 21.0000000  0 10G02G04G05G07G08G10G12G13G17G23
  21087944.993 8   -221867.34108        48.000 8      2718.818 8
  20667881.240 7    -11530.93807        47.000 7       136.016 7
  22568277.886 7   -233527.93207        45.000 7      2859.017 7
  24634258.880 7   -238078.24437        42.000 7      2897.002 7
  25766114.187 5   -258943.31635        32.000 5      3174.870 5
  21222229.846 8   -185540.42908        50.000 8      2271.427 8
  24813450.140 7     65530.62007        44.000 7      -822.669 7
  21536214.650 7     73931.46707        46.000 7      -919.372 7
  22529989.002 7    221680.14207        45.000 7     -2729.597 7
  24023471.925 7    191584.65607        44.000 7     -2346.506 7
 10  1  6  5 58 22.0000000  0 10G02G04G05G07G08G10G12G13G17G23
  21087426.879 7   -224587.36207        45.000 7      2717.114 7
  20667855.728 8    -11668.08908        48.000 8       135.077 8
  22567733.893 7   -236387.14607        46.000 7      2856.689 7
  24633705.952 5   -240975.62335        34.000 5      2897.000 5
  25765511.718 5   -262118.04935        35.000 5      3173.785 5
  21221798.145 8   -187812.34908        50.000 8      2268.955 8
  24813605.901 7     66352.55807        43.000 7      -824.935 7
  21536389.867 7     74850.39907        47.000 7      -921.744 7
  22530508.390 6    224410.66506        40.000 6     -2732.645 6
  24023917.830 6    193930.43936        41.000 6     -2346.619 6
 10  1  6  5 58 23.0000000  0 10G02G04G05G07G08G10G12G13G17G23
  21086908.904 7   -227306.66007        45.000 7      2720.201 7
  20667829.657 8    -11804.42008        50.000 8       136.394 8
  22567189.725 8   -239245.71408        49.000 8      2858.285 8
  24633150.843 6   -243872.80436        37.000 6      2895.136 6
  25764910.995 6   -265292.92126        38.000 6      3174.080 6
  21221365.344 8   -190083.40508        49.000 8      2271.302 8
  24813762.098 6     67175.13406        41.000 6      -823.926 6
  21536565.556 8     75770.48108        49.000 8      -920.477 8
  22531027.691 7    227141.60107        42.000 7     -2733.714 7
  24024364.259 6    196277.11036        37.000 6     -2345.892 6
 10  1  6  5 58 24.0000000  0 10G02G04G05G07G08G10G12G13G17G23
  21086391.941 7   -230025.50807        43.000 7      2718.892 7
  20667803.255 7    -11940.79807        47.000 7       136.152 7
  22566646.064 8   -242103.24408        50.000 8      2856.520 8
  24632601.702 6   -246770.35936        39.000 6      2897.565 6
  25764302.261 6   -268468.24126        37.000 6      3175.819 6
  21220933.364 8   -192353.46008        48.000 8      2269.295 8
  24813919.935 6     67998.95006        40.000 6      -825.124 6
  21536739.465 7     76690.44907        46.000 7      -918.967 7
  22531547.743 7    229873.60337        42.000 7     -2731.337 7
  24024810.165 6    198623.11826        41.000 6     -2345.052 6
 10  1  6  5 58 25.0000000  0 10G02G04G05G07G08G10G12G13G17G23
  21085875.938 7   -232742.81907        45.000 7      2715.424 7
  20667777.132 7    -12076.65707        46.000 7       133.560 7
  22566102.978 7   -244958.11607        46.000 7      2852.972 7
  24632049.822 4   -249668.91334        27.000 4      2902.250 4
  25763697.716 6   -271644.13726        38.000 6      3176.566 6
  21220502.047 7   -194621.29007        45.000 7      2265.326 7
  24814077.929 6     68825.61006        37.000 6      -829.179 6
  21536915.677 7     77610.62107        46.000 7      -921.298 7
  22532067.742 6    232605.98426        39.000 6     -2733.572 6
  24025256.576 7    200968.49527        42.000 7     -2346.198 7
 10  1  6  5 58 26.0000000  0 10G02G04G05G07G08G10G12G13G17G23
  21085359.360 8   -235457.84408        50.000 8      2713.399 8
  20667752.144 7    -12210.89407        47.000 7       133.247 7
  22565560.503 7   -247810.98407        47.000 7      2851.206 7
  24631495.341 6   -252566.86036        37.000 6      2899.181 6
  25763091.583 6   -274819.96026        37.000 6      3177.387 6
  21220071.341 8   -196886.72808        48.000 8      2264.413 8
  24814234.545 7     69654.84607        42.000 7      -830.307 7
  21537090.703 8     78532.68408        49.000 8      -922.569 8
  22532587.339 7    235338.91127        43.000 7     -2733.677 7
  24025703.302 6    203316.04426        37.000 6     -2348.173 6
 10  1  6  5 58 27.0000000  0 10G02G04G05G07G08G10G12G13G17G23
  21084842.327 8   -238171.33708        50.000 8      2712.755 8
  20667726.649 7    -12344.83607        46.000 7       133.307 7
  22565018.080 8   -250661.64708        50.000 8      2849.913 8
  24630945.432 6   -255465.84926        41.000 6      2897.579 6
  25762484.786 6   -277996.71236        37.000 6      3183.084 6
  21219640.059 8   -199150.39408        49.000 8      2261.823 8
  24814392.312 7     70486.64307        46.000 7      -831.738 7
  21537266.148 8     79454.90208        49.000 8      -923.248 8
  22533107.007 7    238072.25637        42.000 7     -2733.723 7
  24026150.237 7    205663.37427        42.000 7     -2347.807 7
 10  1  6  5 58 28.0000000  0 10G02G04G05G07G08G10G12G13G17G23
  21084326.080 8   -240884.35608        51.000 8      2713.399 8
  20667701.102 7    -12478.28107        47.000 7       133.167 7
  22564475.850 8   -253511.56708        49.000 8      2850.324 8
  24630394.389 5   -258364.65835        34.000 5      2899.680 5
  25761882.300 5   -281173.47035        35.000 5      3180.275 5
  21219209.649 8   -201413.12608        49.000 8      2263.380 8
  24814550.167 7     71319.35707        46.000 7      -832.357 7
  21537442.011 7     80377.87007        47.000 7      -922.949 7
  22533627.721 7    240805.94427        44.000 7     -2733.356 7
  24026598.079 7    208011.40927        46.000 7     -2347.033 7
 10  1  6  5 58 29.0000000  0 10G02G04G05G07G08G10G12G13G17G23
  21083810.286 8   -243596.93008        50.000 8      2712.341 8
  20667675.712 8    -12611.02608        49.000 8       133.487 8
  22563933.288 8   -256361.67608        48.000 8      2850.429 8
  24629842.736 6   -261262.82036        41.000 6      2899.038 6
  25761278.226 6   -284350.99536        37.000 6      3176.830 6
  21218779.240 8   -203675.82808        48.000 8      2262.144 8
  24814708.580 7     72152.00807        42.000 7      -832.632 7
  21537618.694 8     81302.08208        48.000 8      -924.226 8
  22534148.069 6    243539.33526        41.000 6     -2733.630 6
  24027045.119 7    210360.38627        43.000 7     -2347.028 7
 10  1  6  5 58 30.0000000  0 10G02G04G05G07G08G10G12G13G17G23
  21083293.550 8   -246309.18708        49.000 8      2712.737 8
  20667650.391 7    -12743.30807        47.000 7       132.035 7
  22563390.830 7   -259211.46707        46.000 7      2850.470 7
  24629291.431 7   -264160.85927        45.000 7      2896.299 7
  25760673.925 6   -287528.34326        39.000 6      3176.418 6
  21218348.359 8   -205938.01208        49.000 8      2262.558 8
  24814867.569 6     72985.07106        40.000 6      -832.512 6
  21537794.366 7     82226.95107        45.000 7      -924.953 7
  22534667.719 6    246273.20926        38.000 6     -2736.012 6
  24027491.827 8    212709.66628        48.000 8     -2350.215 8
 10  1  6  5 58 31.0000000  0 10G02G04G05G07G08G10G12G13G17G23
  21082777.931 7   -249021.32407        46.000 7      2713.712 7
  20667625.577 8    -12875.40908        50.000 8       133.580 8
  22562848.774 7   -262060.71307        47.000 7      2851.554 7
  24628740.161 7   -267058.85827        44.000 7      2898.767 7
  25760070.060 6   -290705.81336        38.000 6      3179.080 6
  21217918.281 8   -208199.79008        50.000 8      2264.329 8
  24815026.104 7     73818.69407        42.000 7      -831.384 7
  21537969.287 7     83152.15607        42.000 7      -923.459 7
  22535188.015 6    249007.63136        41.000 6     -2732.019 6
  24027939.390 7    215058.55207        45.000 7     -2347.198 7
 10  1  6  5 58 32.0000000  0 10G02G04G05G07G08G10G12G13G17G23
  21082261.527 8   -251733.66108        49.000 8      2709.885 8
  20667600.274 8    -13007.21008        48.000 8       130.447 8
  22562306.631 7   -264910.26507        47.000 7      2846.078 7
  24628189.083 7   -269956.36927        42.000 7      2896.708 7
  25759465.619 6   -293883.26336        37.000 6      3174.743 6
  21217487.068 7   -210461.64707        47.000 7      2258.831 7
  24815184.709 5     74652.10605        34.000 5      -838.612 5
  21538145.569 7     84078.08307        44.000 7      -926.933 7
  22535708.956 7    251742.40927        42.000 7     -2737.141 7
  24028385.540 6    217408.09006        37.000 6     -2351.961 6
 10  1  6  5 58 33.0000000  0 10G02G04G05G07G08G10G12G13G17G23
  21081745.925 8   -254444.53908        48.000 8      2711.807 8
  20667575.635 8    -13137.95208        50.000 8       130.572 8
  22561764.452 7   -267758.12407        45.000 7      2848.368 7
  24627637.953 7   -272853.45227        44.000 7      2897.093 7
  25758860.795 6   -297060.47426        38.000 6      3177.929 6
  21217056.746 8   -212721.80808        49.000 8      2260.549 8
  24815343.925 6     75487.47006        41.000 6      -835.440 6
  21538321.921 7     85005.01707        42.000 7      -926.852 7
  22536229.025 7    254477.93537        42.000 7     -2737.523 7
  24028833.120 7    219758.50307        46.000 7     -2350.647 7
 10  1  6  5 58 34.0000000  0 10G02G04G05G07G08G10G12G13G17G23
  21081229.905 7   -257154.93907        46.000 7      2709.841 7
  20667551.466 8    -13268.05508        49.000 8       129.890 8
  22561223.025 7   -270605.32007        46.000 7      2847.422 7
  24627086.544 7   -275750.23727        44.000 7      2895.863 7
  25758255.848 6   -300237.75636        37.000 6      3177.157 6
  21216627.663 8   -214981.28708        49.000 8      2259.158 8
  24815503.734 7     76323.47507        43.000 7      -835.018 7
  21538498.430 7     85932.92507        44.000 7      -928.637 7
  22536749.618 6    257213.95626        40.000 6     -2735.168 6
  24029280.527 6    222109.67906        39.000 6     -2351.408 6
 10  1  6  5 58 35.0000000  0 10G02G04G05G07G08G10G12G13G17G23
  21080714.356 7   -259864.88907        46.000 7      2709.453 7
  20667526.844 8    -13397.54808        51.000 8       128.250 8
  22560680.916 8   -273452.70108        48.000 8      2845.069 8
  24626535.553 7   -278646.26927        43.000 7      2895.753 7
  25757651.565 5   -303414.95735        35.000 5      3176.578 5
  21216198.073 8   -217240.63008        49.000 8      2258.307 8
  24815662.514 6     77159.33736        39.000 6      -840.133 6
  21538675.183 7     86862.05107        43.000 7      -929.870 7
  22537270.489 7    259950.40527        45.000 7     -2737.705 7
  24029727.636 6    224461.58806        39.000 6     -2352.292 6
 10  1  6  5 58 36.0000000  0 10G02G04G05G07G08G10G12G13G17G23
  21080198.440 7   -262574.44207        42.000 7      2708.720 7
  20667502.117 8    -13526.10108        50.000 8       128.592 8
  22560139.628 7   -276299.28407        47.000 7      2845.653 7
  24625984.562 7   -281541.34727        43.000 7      2894.849 7
  25757046.880 5   -306591.48035        35.000 5      3180.698 5
  21215768.222 8   -219499.03908        48.000 8      2258.190 8
  24815823.195 4     77996.18234        28.000 4      -835.222 4
  21538851.901 7     87792.20207        42.000 7      -929.808 7
  22537792.146 7    262688.04627        43.000 7     -2738.201 7
  24030175.444 7    226814.24807        44.000 7     -2351.702 7
 10  1  6  5 58 37.0000000  0 10G02G04G05G07G08G10G12G13G17G23
  21079682.577 8   -265283.65308        48.000 8      2708.993 8
  20667478.018 8    -13654.88808        50.000 8       127.979 8
  22559597.833 8   -279145.59208        48.000 8      2846.798 8
  24625433.292 7   -284437.42727        42.000 7      2894.625 7
  25756441.793 5   -309769.39735        33.000 5      3177.562 5
  21215338.057 8   -221757.22408        49.000 8      2257.984 8
  24815982.027 7     78833.19137        44.000 7      -836.217 7
  21539028.864 7     88722.56407        46.000 7      -931.622 7
  22538312.512 6    265425.12926        38.000 6     -2739.003 6
  24030623.181 7    229166.72407        42.000 7     -2353.713 7
 10  1  6  5 58 38.0000000  0 10G02G04G05G07G08G10G12G13G17G23
  21079167.656 7   -267992.55807        47.000 7      2709.313 7
  20667453.152 8    -13783.14608        50.000 8       128.393 8
  22559056.406 7   -281991.72607        46.000 7      2846.634 7
  24624882.058 7   -287333.07527        43.000 7      2896.206 7
  25755837.318 5   -312947.45325        35.000 5      3179.430 5
  21214908.607 8   -224015.06008        48.000 8      2257.204 8
  24816138.939 6     79670.78636        38.000 6      -839.911 6
  21539206.228 7     89653.71307        43.000 7      -932.838 7
  22538833.156 7    268161.95727        43.000 7     -2739.947 7
  24031070.640 7    231520.31737        42.000 7     -2353.161 7
 10  1  6  5 58 39.0000000  0 10G02G04G05G07G08G10G12G13G17G23
  21078652.630 8   -270701.74808        49.000 8      2710.212 8
  20667429.000 8    -13911.28008        50.000 8       128.978 8
  22558513.931 7   -284837.99607        47.000 7      2847.095 7
  24624331.207 7   -290228.60527        42.000 7      2897.642 7
  25755232.546 6   -316125.62826        36.000 6      3178.369 6
  21214479.122 8   -226272.91108        49.000 8      2258.259 8
  24816300.371 6     80508.05836        41.000 6      -837.627 6
  21539383.958 7     90585.24007        46.000 7      -930.661 7
  22539354.202 6    270899.48626        41.000 6     -2735.089 6
  24031518.796 6    233873.53926        41.000 6     -2353.357 6
 10  1  6  5 58 40.0000000  0 10G02G04G05G07G08G10G12G13G17G23
  21078136.522 7   -273410.40807        47.000 7      2707.553 7
  20667404.937 8    -14039.15208        51.000 8       127.146 8
  22557972.258 7   -287683.62207        47.000 7      2844.267 7
  24623779.972 6   -293124.32726        41.000 6      2893.857 6
  25754627.756 5   -319304.37835        32.000 5      3179.025 5
  21214049.690 8   -228530.11008        49.000 8      2256.454 8
  24816460.809 5     81346.45335        33.000 5      -836.395 5
  21539561.130 7     91517.27807        44.000 7      -933.718 7
  22539875.091 7    273636.82127        42.000 7     -2740.708 7
  24031966.307 5    236226.75435        34.000 5     -2354.344 5
 10  1  6  5 58 41.0000000  0 10G02G04G05G07G08G10G12G13G17G23
  21077621.706 8   -276118.12108        48.000 8      2707.783 8
  20667380.576 8    -14165.99808        51.000 8       128.104 8
  22557431.127 7   -290528.26107        47.000 7      2845.304 7
  24623229.068 6   -296019.31426        41.000 6      2895.250 6
  25754022.705 6   -322482.86436        36.000 6      3174.005 6
  21213619.821 8   -230786.15208        48.000 8      2258.457 8
  24816618.018 6     82185.06436        40.000 6      -840.052 6
  21539739.297 7     92450.36007        43.000 7      -933.277 7
  22540395.858 7    276375.09227        44.000 7     -2734.269 7
  24032414.725 8    238581.27528        48.000 8     -2354.675 8
 10  1  6  5 58 42.0000000  0 10G02G04G05G07G08G10G12G13G17G23
  21077105.947 7   -278825.54807        47.000 7      2707.611 7
  20667355.901 8    -14292.51008        49.000 8       125.762 8
  22556890.153 7   -293372.61707        44.000 7      2844.801 7
  24622678.270 6   -298914.27426        39.000 6      2893.619 6
  25753418.107 6   -325661.27036        37.000 6      3175.418 6
  21213190.685 7   -233041.90507        47.000 7      2256.453 7
  24816775.733 4     83025.90634        28.000 4      -838.202 4
  21539916.138 6     93384.28906        40.000 6      -935.126 6
  22540917.515 7    279113.57437        46.000 7     -2739.329 7
  24032863.248 6    240935.98326        41.000 6     -2354.795 6
 10  1  6  5 58 43.0000000  0 10G02G04G05G07G08G10G12G13G17G23
  21076590.782 8   -281532.51508        49.000 8      2706.089 8
  20667332.675 8    -14418.04108        48.000 8       123.941 8
  22556348.655 7   -296216.88907        47.000 7      2843.105 7
  24622127.541 6   -301807.85436        39.000 6      2892.172 6
  25752813.474 5   -328839.10525        34.000 5      3180.386 5
  21212762.125 8   -235297.25208        49.000 8      2253.479 8
  24816935.507 6     83865.28236        38.000 6      -842.141 6
  21540094.025 7     94319.67307        46.000 7      -936.539 7
  22541439.154 6    281853.15226        40.000 6     -2741.039 6
  24033311.265 7    243291.64627        47.000 7     -2355.736 7
 10  1  6  5 58 44.0000000  0 10G02G04G05G07G08G10G12G13G17G23
  21076076.262 8   -284239.23008        50.000 8      2706.565 8
  20667308.768 8    -14542.87008        49.000 8       124.927 8
  22555807.524 7   -299060.26507        47.000 7      2843.205 7
  24621577.178 6   -304700.59126        40.000 6      2894.394 6
  25752209.383 5   -332016.27135        34.000 5      3178.646 5
  21212332.641 8   -237551.90208        49.000 8      2253.518 8
  24817098.614 5     84705.86535        32.000 5      -838.184 5
  21540272.576 7     95255.74207        42.000 7      -934.871 7
  22541960.759 8    284593.74128        48.000 8     -2741.633 8
  24033759.753 6    245647.71126        41.000 6     -2354.283 6
 10  1  6  5 58 45.0000000  0 10G02G04G05G07G08G10G12G13G17G23
  21075560.521 8   -286946.46108        50.000 8      2706.806 8
  20667284.809 6    -14667.51306        38.000 6       124.016 6
  22555265.817 8   -301903.75708        50.000 8      2842.358 8
  24621026.659 5   -307592.36425        31.000 5      2891.524 5
  25751605.413 6   -335192.23626        36.000 6      3174.499 6
  21211902.842 7   -239806.34307        46.000 7      2253.580 7
  24817258.772 6     85545.97636        38.000 6      -840.681 6
  21540450.341 7     96192.32107        47.000 7      -937.056 7
  22542482.799 6    287336.16926        41.000 6     -2742.967 6
  24034207.805 7    248003.42127        44.000 7     -2355.548 7
 10  1  6  5 58 46.0000000  0 10G02G04G05G07G08G10G12G13G17G23
  21075044.955 7   -289653.46907        47.000 7      2706.188 7
  20667260.711 7    -14792.05207        43.000 7       122.076 7
  22554726.169 7   -304744.70307        46.000 7      2839.911 7
  24620476.645 6   -310484.14326        38.000 6      2892.771 6
  25751002.054 5   -338367.17425        33.000 5      3172.834 5
  21211474.107 7   -242058.79507        46.000 7      2250.479 7
  24817418.895 7     86388.71837        42.000 7      -844.436 7
  21540628.979 7     97128.23007        47.000 7      -936.008 7
  22543005.189 7    290080.53937        43.000 7     -2743.688 7
  24034655.229 6    250357.17026        41.000 6     -2353.265 6
 10  1  6  5 58 47.0000000  0 10G02G04G05G07G08G10G12G13G17G23
  21074530.034 7   -292359.70107        44.000 7      2705.773 7
  20667236.874 7    -14915.74607        47.000 7       124.427 7
  22554185.439 7   -307583.86007        45.000 7      2839.541 7
  24619926.702 6   -313374.66926        38.000 6      2890.206 6
  25750398.713 4   -341540.49334        28.000 4      3172.729 4
  21211046.036 8   -244309.61108        50.000 8      2251.689 8
  24817576.244 7     87232.97437        42.000 7      -843.398 7
  21540807.390 7     98064.88907        47.000 7      -936.792 7
  22543528.155 7    292827.47027        46.000 7     -2746.909 7
  24035103.158 7    252711.24527        46.000 7     -2353.544 7
 10  1  6  5 58 48.0000000  0 10G02G04G05G07G08G10G12G13G17G23
  21074015.374 7   -295065.49707        44.000 7      2705.025 7
  20667214.467 7    -15039.03007        46.000 7       122.626 7
  22553645.250 8   -310422.46808        48.000 8      2838.284 8
  24619376.374 6   -316265.35526        38.000 6      2890.577 6
  25749796.035 5   -344714.44635        33.000 5      3174.444 5
  21210618.523 8   -246559.82808        49.000 8      2250.298 8
  24817736.960 7     88077.92727        43.000 7      -844.972 7
  21540985.138 7     99002.19807        47.000 7      -937.565 7
  22544051.923 7    295574.47127        47.000 7     -2747.923 7
  24035551.751 7    255065.42027        46.000 7     -2354.266 7
 10  1  6  5 58 49.0000000  0 10G02G04G05G07G08G10G12G13G17G23
  21073500.628 8   -297771.38308        49.000 8      2706.624 8
  20667189.636 7    -15162.42007        43.000 7       124.330 7
  22553104.764 7   -313261.16107        46.000 7      2839.163 7
  24618826.099 6   -319156.41826        39.000 6      2890.931 6
  25749192.013 4   -347888.88234        29.000 4      3174.074 4
  21210190.242 8   -248810.09308        48.000 8      2250.645 8
  24817903.034 7     88923.08827        43.000 7      -844.683 7
  21541164.090 8     99939.61608        50.000 8      -936.954 8
  22544573.981 8    298321.32028        48.000 8     -2746.922 8
  24035999.890 7    257419.07607        46.000 7     -2353.857 7
 10  1  6  5 58 50.0000000  0 10G02G04G05G07G08G10G12G13G17G23
  21072985.777 8   -300476.99508        49.000 8      2705.140 8
  20667166.479 7    -15284.92207        47.000 7       122.338 7
  22552564.069 7   -316099.20807        47.000 7      2836.894 7
  24618275.876 7   -322046.48327        42.000 7      2890.363 7
  25748588.445 4   -351062.48034        28.000 4      3176.499 4
  21209761.927 7   -251059.53907        45.000 7      2247.914 7
  24818057.399 6     89768.84936        37.000 6      -846.545 6
  21541343.059 8    100878.02908        50.000 8      -938.880 8
  22545096.772 7    301069.49827        46.000 7     -2747.745 7
  24036447.889 7    259773.61407        45.000 7     -2354.790 7
 10  1  6  5 58 51.0000000  0 10G02G04G05G07G08G10G12G13G17G23
  21072471.187 7   -303181.46707        47.000 7      2704.269 7
  20667144.126 7    -15406.88507        44.000 7       122.106 7
  22552024.456 7   -318936.32207        44.000 7      2837.521 7
  24617726.526 7   -324936.17627        43.000 7      2889.194 7
  25747984.528 4   -354236.14134        27.000 4      3173.905 4
  21209334.117 8   -253307.96708        48.000 8      2248.181 8
  24818218.307 4     90615.91134        29.000 4      -846.886 4
  21541521.959 8    101817.44708        48.000 8      -940.324 8
  22545620.174 7    303818.18627        46.000 7     -2748.221 7
  24036895.941 7    262129.07107        47.000 7     -2355.954 7
 10  1  6  5 58 52.0000000  0  9G02G04G05G07G10G12G13G17G23
  21071956.650 8   -305885.78408        51.000 8      2703.706 8
  20667120.899 7    -15528.00007        46.000 7       121.363 7
  22551485.157 7   -321773.05607        47.000 7      2836.172 7
  24617177.053 6   -327825.36126        41.000 6      2889.013 6
  21208906.133 7   -255555.98207        45.000 7      2247.248 7
  24818383.125 6     91462.76636        37.000 6      -848.129 6
  21541701.243 8    102757.77208        50.000 8      -941.194 8
  22546142.843 7    306567.19627        46.000 7     -2749.969 7
  24037344.569 7    264484.98707        46.000 7     -2356.394 7
 10  1  6  5 58 53.0000000  0  9G02G04G05G07G10G12G13G17G23
  21071442.218 7   -308589.47207        47.000 7      2704.444 7
  20667097.987 7    -15648.74807        46.000 7       120.552 7
  22550944.689 7   -324609.52207        43.000 7      2836.603 7
  24616626.115 6   -330714.31626        40.000 6      2888.438 6
  21208478.324 8   -257803.45508        50.000 8      2247.861 8
  24818544.155 6     92310.74436        37.000 6      -847.052 6
  21541879.776 8    103699.10908        48.000 8      -941.562 8
  22546666.350 7    309316.53727        46.000 7     -2749.274 7
  24037792.987 8    266841.82308        48.000 8     -2356.699 8
 10  1  6  5 58 54.0000000  0  9G02G04G05G07G10G12G13G17G23
  21070927.401 8   -311293.31808        49.000 8      2705.083 8
  20667074.395 7    -15769.12807        45.000 7       123.527 7
  22550405.303 7   -327445.72807        47.000 7      2837.576 7
  24616076.625 6   -333602.83126        41.000 6      2890.870 6
  21208050.916 8   -260050.75808        49.000 8      2248.550 8
  24818705.709 7     93158.54127        44.000 7      -848.006 7
  21542059.024 8    104640.81508        49.000 8      -940.638 8
  22547189.141 7    312066.52027        45.000 7     -2747.728 7
  24038241.719 8    269198.40808        48.000 8     -2355.855 8
 10  1  6  5 58 55.0000000  0  9G02G04G05G07G10G12G13G17G23
  21070412.812 8   -313997.58908        48.000 8      2704.208 8
  20667051.482 7    -15890.13307        44.000 7       118.911 7
  22549865.585 7   -330282.25007        47.000 7      2836.187 7
  24615526.403 7   -336492.09307        43.000 7      2888.830 7
  21207622.495 7   -262298.15307        47.000 7      2246.512 7
  24818866.531 7     94006.31927        42.000 7      -848.863 7
  21542238.360 8    105582.25308        49.000 8      -943.045 8
  22547712.193 6    314815.60406        41.000 6     -2749.706 6
  24038689.893 8    271554.45908        48.000 8     -2358.157 8
 10  1  6  5 58 56.0000000  0  9G02G04G05G07G10G12G13G17G23
  21069897.193 6   -316700.90106        39.000 6      2704.097 6
  20667029.879 8    -16009.67408        49.000 8       118.985 8
  22549326.129 7   -333117.93307        47.000 7      2835.053 7
  24614977.820 7   -339380.23107        44.000 7      2887.891 7
  21207195.349 8   -264544.65108        49.000 8      2246.381 8
  24819027.736 6     94854.89926        41.000 6      -849.505 6
  21542417.993 8    106525.35808        49.000 8      -943.107 8
  22548235.665 6    317565.92506        41.000 6     -2750.983 6
  24039138.643 7    273911.98807        47.000 7     -2357.045 7
 10  1  6  5 58 57.0000000  0  9G02G04G05G07G10G12G13G17G23
  21069382.219 7   -319404.48207        47.000 7      2701.978 7
  20667006.409 7    -16129.57807        46.000 7       117.890 7
  22548786.446 7   -335953.51607        47.000 7      2834.210 7
  24614428.313 7   -342268.90907        45.000 7      2888.308 7
  21206766.806 6   -266790.99006        38.000 6      2241.790 6
  24819188.854 6     95703.92226        37.000 6      -851.179 6
  21542597.084 7    107468.26107        47.000 7      -945.060 7
  22548758.997 6    320316.22406        41.000 6     -2750.118 6
  24039587.376 7    276269.20007        45.000 7     -2358.151 7
 10  1  6  5 58 58.0000000  0  9G02G04G05G07G10G12G13G17G23
  21068867.263 7   -322107.11237        45.000 7      2702.361 7
  20666984.212 8    -16248.52808        48.000 8       119.910 8
  22548247.078 8   -338788.46508        49.000 8      2835.922 8
  24613878.613 7   -345156.81407        45.000 7      2888.471 7
  21206339.555 7   -269036.57707        46.000 7      2246.806 7
  24819350.757 6     96553.56026        40.000 6      -849.683 6
  21542776.508 7    108412.53707        47.000 7      -944.075 7
  22549283.114 7    323067.17807        47.000 7     -2749.750 7
  24040036.911 8    278627.10808        48.000 8     -2358.629 8
 10  1  6  5 58 59.0000000  0  9G02G04G05G07G10G12G13G17G23
  21068354.960 7   -324809.06737        45.000 7      2700.811 7
  20666961.701 8    -16366.38108        49.000 8       117.050 8
  22547708.477 8   -341622.40808        48.000 8      2833.005 8
  24613329.385 7   -348043.76907        45.000 7      2885.263 7
  21205912.740 8   -271281.02108        48.000 8      2244.445 8
  24819512.555 6     97404.27426        41.000 6      -853.154 6
  21542956.140 7    109358.10307        46.000 7      -946.907 7
  22549807.127 7    325819.34207        46.000 7     -2753.400 7
  24040485.643 7    280986.04707        45.000 7     -2359.854 7
 10  1  6  5 59  0.0000000  0  9G02G04G05G07G10G12G13G17G23
  21067841.383 7   -327510.54727        47.000 7      2701.197 7
  20666939.365 8    -16483.90508        48.000 8       116.374 8
  22547169.125 7   -344456.06407        47.000 7      2832.632 7
  24612780.105 7   -350930.64807        44.000 7      2885.697 7
  21205485.943 7   -273525.07807        47.000 7      2242.971 7
  24819673.690 6     98255.32226        41.000 6      -851.615 6
  21543136.540 7    110304.30307        43.000 7      -946.663 7
  22550330.599 7    328571.64507        43.000 7     -2754.142 7
  24040933.852 7    283345.29107        44.000 7     -2359.558 7
 10  1  6  5 59  1.0000000  0  9G02G04G05G07G10G12G13G17G23
  21067327.735 8   -330211.93328        48.000 8      2701.377 8
  20666917.273 7    -16601.08107        45.000 7       117.379 7
  22546629.791 8   -347289.79008        48.000 8      2833.432 8
  24612230.772 7   -353817.02107        46.000 7      2886.363 7
  21205059.285 7   -275769.06607        45.000 7      2243.471 7
  24819836.134 6     99106.43006        39.000 6      -850.871 6
  21543316.627 7    111251.31807        46.000 7      -946.697 7
  22550854.123 6    331324.20006        40.000 6     -2753.685 6
  24041383.422 7    285705.18007        42.000 7     -2359.162 7
 10  1  6  5 59  2.0000000  0  9G02G04G05G07G10G12G13G17G23
  21066813.338 8   -332913.41028        48.000 8      2700.755 8
  20666894.343 7    -16717.83807        46.000 7       116.528 7
  22546090.789 8   -350123.33708        49.000 8      2832.966 8
  24611681.369 7   -356702.89907        46.000 7      2886.200 7
  21204632.313 7   -278012.79507        44.000 7      2242.353 7
  24819998.561 6     99957.79106        38.000 6      -850.565 6
  21543496.922 8    112198.97308        48.000 8      -947.431 8
  22551377.367 7    334077.37307        42.000 7     -2753.961 7
  24041832.137 7    288064.98207        42.000 7     -2360.246 7
 10  1  6  5 59  3.0000000  0  9G02G04G05G07G10G12G13G17G23
  21066298.033 7   -335614.12327        44.000 7      2701.650 7
  20666871.501 7    -16833.92207        46.000 7       116.580 7
  22545551.577 8   -352956.06008        49.000 8      2832.717 8
  24611133.083 7   -359588.51407        46.000 7      2885.052 7
  21204205.795 7   -280255.61507        46.000 7      2242.997 7
  24820160.761 6    100810.02506        38.000 6      -854.072 6
  21543678.143 7    113147.42407        47.000 7      -948.734 7
  22551902.008 7    336831.23907        45.000 7     -2754.436 7
  24042281.131 6    290425.47906        40.000 6     -2360.746 6
 10  1  6  5 59  4.0000000  0 10G02G04G05G07G08G10G12G13G17G23
  21065785.206 7   -338313.42627        46.000 7      2700.057 7
  20666850.630 8    -16948.68008        50.000 8       115.040 8
  22545012.784 8   -355787.36408        48.000 8      2830.887 8
  24610584.361 7   -362473.32707        42.000 7      2885.797 7
  25740205.203 5   -395478.21335        30.000 5      3173.959 5
  21203779.207 8   -282496.91208        48.000 8      2241.132 8
  24820323.449 7    101663.62207        43.000 7      -852.289 7
  21543858.386 7    114097.49207        45.000 7      -949.648 7
  22552426.806 7    339585.91207        46.000 7     -2754.653 7
  24042730.893 6    292787.23606        41.000 6     -2361.252 6
 10  1  6  5 59  5.0000000  0 10G02G04G05G07G08G10G12G13G17G23
  21065271.768 7   -341012.59127        47.000 7      2698.437 7
  20666828.521 7    -17063.28107        43.000 7       113.494 7
  22544473.799 8   -358618.42108        49.000 8      2830.958 8
  24610034.819 7   -365357.96107        45.000 7      2884.421 7
  25739590.642 4   -398652.12234        26.000 4      3175.797 4
  21203352.724 7   -284737.90607        46.000 7      2241.420 7
  24820486.696 7    102517.77007        44.000 7      -853.089 7
  21544039.659 8    115047.99208        49.000 8      -951.935 8
  22552950.539 7    342340.98407        44.000 7     -2755.293 7
  24043179.817 6    295149.35806        41.000 6     -2362.537 6
 10  1  6  5 59  6.0000000  0 10G02G04G05G07G08G10G12G13G17G23
  21064756.969 7   -343710.92027        42.000 7      2697.601 7
  20666807.424 7    -17176.50407        47.000 7       114.239 7
  22543935.425 8   -361448.52308        49.000 8      2829.219 8
  24609485.957 7   -368241.31507        45.000 7      2883.557 7
  25738979.378 4   -401825.67834        27.000 4      3172.841 4
  21202926.642 8   -286977.84908        48.000 8      2239.352 8
  24820649.140 7    103372.76107        45.000 7      -855.986 7
  21544220.373 7    116000.01707        45.000 7      -952.548 7
  22553474.709 7    345097.31007        46.000 7     -2756.452 7
  24043630.033 7    297512.20607        43.000 7     -2363.317 7
 10  1  6  5 59  7.0000000  0  9G02G04G05G07G10G12G13G17G23
  21064243.235 8   -346408.72608        48.000 8      2696.200 8
  20666786.257 8    -17289.68008        48.000 8       112.951 8
  22543397.453 8   -364277.77008        49.000 8      2828.731 8
  24608937.462 6   -371124.96206        41.000 6      2882.475 6
  21202501.031 7   -289217.00807        47.000 7      2238.018 7
  24820811.933 6    104228.93906        41.000 6      -857.400 6
  21544401.611 8    116952.38108        48.000 8      -953.967 8
  22554000.048 7    347854.06907        44.000 7     -2758.333 7
  24044080.091 7    299875.46507        42.000 7     -2364.452 7
 10  1  6  5 59  8.0000000  0  9G02G04G05G07G10G12G13G17G23
  21063731.978 7   -349106.06307        47.000 7      2696.211 7
  20666764.514 8    -17402.13508        49.000 8       112.143 8
  22542858.782 8   -367106.84608        49.000 8      2828.774 8
  24608389.403 7   -374008.45807        45.000 7      2883.206 7
  21202075.019 8   -291455.65208        50.000 8      2238.086 8
  24820975.215 7    105085.25107        45.000 7      -857.753 7
  21544582.849 7    117905.70207        44.000 7      -952.777 7
  22554523.834 7    350610.63307        46.000 7     -2757.070 7
  24044529.068 7    302239.61237        42.000 7     -2363.325 7
 10  1  6  5 59  9.0000000  0 10G02G04G05G07G08G10G12G13G17G23
  21063219.326 8   -351803.02208        49.000 8      2697.567 8
  20666742.980 7    -17514.05207        47.000 7       110.752 7
  22542319.954 8   -369935.88908        49.000 8      2828.716 8
  24607841.117 7   -376891.33107        46.000 7      2882.081 7
  25737160.489 4   -411345.68134        27.000 4      3174.315 4
  21201648.884 8   -293694.13808        48.000 8      2238.677 8
  24821138.165 7    105941.95207        44.000 7      -856.155 7
  21544764.279 8    118859.97308        49.000 8      -954.196 8
  22555048.492 7    353367.56707        44.000 7     -2757.292 7
  24044978.568 7    304604.26327        44.000 7     -2364.248 7
 10  1  6  5 59 10.0000000  0 10G02G04G05G07G08G10G12G13G17G23
  21062705.120 7   -354499.51807        44.000 7      2694.927 7
  20666722.022 7    -17624.82407        47.000 7       110.047 7
  22541781.999 8   -372764.22608        48.000 8      2828.875 8
  24607292.517 7   -379772.83307        46.000 7      2881.829 7
  25736549.069 4   -414518.52534        26.000 4      3177.122 4
  21201222.768 7   -295931.87707        47.000 7      2237.208 7
  24821301.220 7    106799.12307        44.000 7      -856.111 7
  21544946.215 8    119815.75908        48.000 8      -956.604 8
  22555572.958 7    356125.87907        45.000 7     -2758.385 7
  24045428.941 7    306969.86127        44.000 7     -2366.167 7
 10  1  6  5 59 11.0000000  0  9G02G04G05G07G10G12G13G17G23
  21062192.573 7   -357195.61007        47.000 7      2696.052 7
  20666700.942 7    -17735.47707        47.000 7       110.044 7
  22541243.520 7   -375591.95607        47.000 7      2827.663 7
  24606743.621 7   -382654.35607        47.000 7      2880.417 7
  21200797.157 7   -298168.91307        46.000 7      2237.678 7
  24821465.025 7    107657.05107        43.000 7      -856.448 7
  21545128.570 8    120771.93308        49.000 8      -957.114 8
  22556097.773 7    358884.50007        45.000 7     -2758.268 7
  24045879.331 7    309335.57627        43.000 7     -2367.121 7
 10  1  6  5 59 12.0000000  0 10G02G04G05G07G08G10G12G13G17G23
  21061679.205 7   -359891.16107        44.000 7      2693.664 7
  20666680.264 8    -17845.50508        48.000 8       109.104 8
  22540705.198 7   -378419.43207        47.000 7      2826.771 7
  24606195.527 7   -385535.98207        47.000 7      2880.873 7
  25735325.355 4   -420864.87834        26.000 4      3175.816 4
  21200371.057 7   -300405.62207        47.000 7      2236.540 7
  24821628.080 7    108515.28707        44.000 7      -859.026 7
  21545310.593 8    121728.98808        48.000 8      -956.932 8
  22556623.147 7    361643.09307        43.000 7     -2759.190 7
  24046329.599 7    311701.60427        43.000 7     -2365.154 7
 10  1  6  5 59 13.0000000  0  9G02G04G05G07G10G12G13G17G23
  21061166.866 8   -362586.44108        50.000 8      2695.530 8
  20666659.481 7    -17954.99007        47.000 7       108.638 7
  22540167.976 8   -381246.44408        48.000 8      2827.552 8
  24605647.660 7   -388416.59007        45.000 7      2881.400 7
  21199945.883 8   -302641.62808        49.000 8      2236.224 8
  24821792.304 7    109374.28407        44.000 7      -858.478 7
  21545492.250 7    122686.68607        47.000 7      -958.563 7
  22557148.434 8    364402.61308        49.000 8     -2759.378 8
  24046779.448 7    314068.66527        45.000 7     -2366.899 7
 10  1  6  5 59 14.0000000  0 10G02G04G05G07G08G10G12G13G17G23
  21060653.551 7   -365281.58107        43.000 7      2694.108 7
  20666638.139 7    -18063.91707        46.000 7       108.832 7
  22539629.445 8   -384073.10808        48.000 8      2826.338 8
  24605099.967 8   -391296.83308        48.000 8      2880.135 8
  25734107.504 4   -427213.57934        26.000 4      3174.615 4
  21199520.220 8   -304877.28808        49.000 8      2235.295 8
  24821955.097 7    110233.36607        42.000 7      -861.851 7
  21545675.024 8    123645.40608        48.000 8      -959.363 8
  22557673.214 7    367162.61607        44.000 7     -2759.487 7
  24047229.821 7    316435.73427        47.000 7     -2367.723 7
 10  1  6  5 59 15.0000000  0  9G02G04G05G07G10G12G13G17G23
  21060140.235 5   -367976.41605        35.000 5      2693.537 5
  20666617.583 8    -18172.57208        48.000 8       108.916 8
  22539091.227 7   -386899.77107        47.000 7      2826.015 7
  24604551.629 7   -394177.20607        42.000 7      2881.226 7
  21199095.272 8   -307112.76608        49.000 8      2234.749 8
  24822118.710 6    111092.81706        41.000 6      -859.633 6
  21545857.029 7    124604.60107        45.000 7      -959.839 7
  22558198.727 8    369922.60608        48.000 8     -2761.194 8
  24047680.664 7    318803.30427        46.000 7     -2367.480 7
 10  1  6  5 59 16.0000000  0  9G02G04G05G07G10G12G13G17G23
  21059627.199 7   -370670.85407        46.000 7      2693.162 7
  20666597.620 8    -18280.44408        49.000 8       107.839 8
  22538553.377 7   -389725.97107        47.000 7      2825.417 7
  24604003.710 7   -397056.66707        43.000 7      2879.406 7
  21198669.958 8   -309347.64908        48.000 8      2233.904 8
  24822282.079 6    111952.66506        39.000 6      -861.147 6
  21546040.361 7    125564.97707        47.000 7      -960.971 7
  22558723.473 8    372683.25908        50.000 8     -2761.318 8
  24048130.915 7    321171.59327        44.000 7     -2367.196 7
 10  1  6  5 59 17.0000000  0 10G02G04G05G07G08G10G12G13G17G23
  21059113.377 7   -373365.19107        42.000 7      2693.430 7
  20666576.679 7    -18388.47007        47.000 7       107.834 7
  22538016.329 7   -392551.72307        46.000 7      2823.908 7
  24603455.720 6   -399936.62506        38.000 6      2882.290 6
  25732289.418 4   -436732.34934        26.000 4      3175.627 4
  21198244.172 7   -311582.15807        47.000 7      2233.899 7
  24822446.495 7    112813.11707        43.000 7      -862.406 7
  21546223.309 7    126525.28507        47.000 7      -961.685 7
  22559249.161 7    375443.96607        43.000 7     -2762.549 7
  24048582.317 7    323539.52827        46.000 7     -2369.855 7
 10  1  6  5 59 18.0000000  0 10G02G04G05G07G08G10G12G13G17G23
  21058600.916 7   -376058.87507        44.000 7      2693.855 7
  20666556.001 8    -18495.82808        48.000 8       107.594 8
  22537479.159 7   -395376.97607        47.000 7      2825.798 7
  24602907.714 6   -402816.17806        40.000 6      2880.577 6
  25731684.786 4   -439906.83234        28.000 4      3175.105 4
  21197819.644 7   -313815.97007        46.000 7      2234.568 7
  24822610.492 7    113674.16707        43.000 7      -859.523 7
  21546406.624 7    127486.64307        47.000 7      -962.181 7
  22559774.377 7    378205.26507        45.000 7     -2760.264 7
  24049032.201 7    325908.23827        42.000 7     -2369.362 7
 10  1  6  5 59 19.0000000  0 10G02G04G05G07G08G10G12G13G17G23
  21058089.538 7   -378752.16007        42.000 7      2692.643 7
  20666536.317 7    -18602.56607        47.000 7       106.295 7
  22536941.779 8   -398201.61008        48.000 8      2823.120 8
  24602359.393 6   -405695.51536        36.000 6      2877.744 6
  25731078.233 4   -443079.48034        29.000 4      3175.784 4
  21197394.643 8   -316049.16108        49.000 8      2231.806 8
  24822774.123 7    114535.86707        44.000 7      -864.740 7
  21546589.904 7    128448.76107        46.000 7      -962.542 7
  22560299.978 7    380966.95107        47.000 7     -2764.037 7
  24049482.871 7    328276.78207        44.000 7     -2368.734 7
 10  1  6  5 59 20.0000000  0  9G02G04G05G07G10G12G13G17G23
  21057576.885 7   -381445.04107        47.000 7      2692.567 7
  20666515.586 7    -18708.79907        46.000 7       104.423 7
  22536404.505 8   -401025.96508        50.000 8      2823.282 8
  24601811.910 7   -408574.19227        42.000 7      2875.965 7
  21196970.324 7   -318281.81307        47.000 7      2231.328 7
  24822938.172 6    115398.00406        41.000 6      -863.529 6
  21546772.922 7    129411.73507        47.000 7      -963.882 7
  22560826.224 7    383729.08007        47.000 7     -2764.092 7
  24049934.535 7    330646.49807        44.000 7     -2369.314 7
 10  1  6  5 59 21.0000000  0  9G02G04G05G07G10G12G13G17G23
  21057064.704 7   -384137.10407        42.000 7      2691.575 7
  20666495.833 8    -18814.33508        48.000 8       104.793 8
  22535867.335 8   -403849.28208        49.000 8      2823.087 8
  24601263.833 7   -411452.66227        42.000 7      2878.061 7
  21196544.853 7   -320513.47007        47.000 7      2231.015 7
  24823102.414 6    116261.37906        40.000 6      -862.578 6
  21546955.992 7    130375.57507        44.000 7      -963.616 7
  22561352.767 7    386491.86007        43.000 7     -2760.670 7
  24050384.471 6    333016.67806        39.000 6     -2370.983 6
 10  1  6  5 59 22.0000000  0 10G02G04G05G07G08G10G12G13G17G23
  21056552.523 7   -386829.70707        43.000 7      2690.635 7
  20666475.870 8    -18920.08108        49.000 8       103.769 8
  22535330.060 8   -406673.20608        49.000 8      2822.301 8
  24600715.879 7   -414331.34527        42.000 7      2877.693 7
  25729269.082 4   -452600.74434        26.000 4      3173.450 4
  21196120.097 7   -322745.57907        47.000 7      2228.552 7
  24823266.324 6    117124.19506        38.000 6      -862.334 6
  21547139.411 8    131339.52508        48.000 8      -965.566 8
  22561878.263 7    389254.27807        42.000 7     -2763.311 7
  24050835.891 7    335386.56407        42.000 7     -2370.315 7
 10  1  6  5 59 23.0000000  0  9G02G04G05G07G10G12G13G17G23
  21056040.167 6   -389521.11906        41.000 6      2693.101 6
  20666455.854 8    -19024.63608        48.000 8       105.100 8
  22534792.855 8   -409495.75308        50.000 8      2822.357 8
  24600168.379 6   -417209.09026        39.000 6      2877.105 6
  21195695.673 8   -324976.30208        49.000 8      2229.755 8
  24823430.495 6    117988.29506        38.000 6      -865.356 6
  21547323.336 7    132304.90407        47.000 7      -963.696 7
  22562404.108 7    392018.30407        43.000 7     -2764.855 7
  24051287.764 7    337757.55107        44.000 7     -2370.527 7
 10  1  6  5 59 24.0000000  0 10G02G04G05G07G08G10G12G13G17G23
  21055527.200 7   -392212.39307        44.000 7      2691.427 7
  20666435.804 8    -19128.83208        48.000 8       103.430 8
  22534255.702 8   -412318.18808        48.000 8      2821.968 8
  24599620.546 7   -420086.42627        43.000 7      2877.766 7
  25728061.440 4   -458949.13634        26.000 4      3172.608 4
  21195271.423 8   -327206.78508        48.000 8      2231.414 8
  24823594.580 6    118852.83136        41.000 6      -863.156 6
  21547507.262 7    133270.87607        46.000 7      -965.760 7
  22562930.214 7    394782.12207        45.000 7     -2764.653 7
  24051738.817 7    340128.99807        44.000 7     -2370.404 7
 10  1  6  5 59 25.0000000  0 10G02G04G05G07G08G10G12G13G17G23
  21055015.403 7   -394903.49407        45.000 7      2690.423 7
  20666415.876 8    -19232.61908        48.000 8       102.428 8
  22533718.986 8   -415140.45908        49.000 8      2822.819 8
  24599073.412 7   -422963.56227        46.000 7      2876.338 7
  25727456.336 5   -462123.41635        32.000 5      3174.958 5
  21194847.226 8   -329436.93608        49.000 8      2230.096 8
  24823760.025 7    119717.49927        44.000 7      -863.140 7
  21547690.716 7    134237.71907        47.000 7      -967.336 7
  22563456.792 7    397546.31207        46.000 7     -2763.890 7
  24052189.905 7    342500.91007        45.000 7     -2372.193 7
 10  1  6  5 59 26.0000000  0 10G02G04G05G07G08G10G12G13G17G23
  21054502.942 6   -397594.53606        37.000 6      2688.112 6
  20666396.122 7    -19336.26207        47.000 7       103.276 7
  22533181.449 8   -417962.72308        48.000 8      2820.726 8
  24598525.580 7   -425840.90227        44.000 7      2877.800 7
  25726850.115 4   -465297.48734        27.000 4      3177.431 4
  21194422.959 8   -331666.99508        48.000 8      2228.949 8
  24823925.000 6    120582.09326        41.000 6      -865.556 6
  21547875.322 8    135204.71308        48.000 8      -968.284 8
  22563982.515 7    400310.69207        45.000 7     -2765.064 7
  24052641.290 7    344872.56107        46.000 7     -2371.878 7
 10  1  6  5 59 27.0000000  0 10G02G04G05G07G08G10G12G13G17G23
  21053991.110 7   -400284.99807        43.000 7      2691.159 7
  20666376.316 8    -19439.31908        48.000 8       102.872 8
  22532644.663 8   -420784.02308        48.000 8      2821.016 8
  24597978.970 7   -428717.51327        46.000 7      2876.753 7
  25726245.675 4   -468471.02234        28.000 4      3173.458 4
  21193998.482 8   -333896.02508        50.000 8      2228.954 8
  24824090.288 6    121448.03826        41.000 6      -865.105 6
  21548059.491 7    136172.68307        47.000 7      -967.311 7
  22564507.976 7    403075.91807        44.000 7     -2764.867 7
  24053093.059 7    347244.91307        46.000 7     -2372.377 7
 10  1  6  5 59 28.0000000  0 10G02G04G05G07G08G10G12G13G17G23
  21053480.202 7   -402974.57407        46.000 7      2688.178 7
  20666357.383 8    -19541.58008        49.000 8       100.409 8
  22532107.755 8   -423604.26408        48.000 8      2819.411 8
  24597431.382 7   -431594.08627        43.000 7      2875.230 7
  25725638.460 4   -471644.83534        28.000 4      3172.803 4
  21193574.965 8   -336124.04208        50.000 8      2227.145 8
  24824254.966 7    122314.92627        43.000 7      -869.229 7
  21548243.765 8    137141.53808        49.000 8      -970.451 8
  22565033.733 6    405842.30036        39.000 6     -2773.620 6
  24053544.758 7    349617.61807        46.000 7     -2373.296 7
 10  1  6  5 59 29.0000000  0 10G02G04G05G07G08G10G12G13G17G23
  21052968.161 7   -405663.64907        42.000 7      2687.990 7
  20666337.611 8    -19643.14408        49.000 8       100.800 8
  22531571.300 8   -426423.86908        48.000 8      2819.512 8
  24596883.724 7   -434469.86227        43.000 7      2875.565 7
  25725034.944 4   -474818.22434        27.000 4      3174.064 4
  21193150.541 8   -338351.30308        50.000 8      2227.091 8
  24824419.661 7    123182.66327        43.000 7      -866.867 7
  21548427.673 7    138111.30007        45.000 7      -971.787 7
  22565560.468 6    408608.81136        39.000 6     -2767.293 6
  24053995.410 7    351991.11507        44.000 7     -2373.477 7
 10  1  6  5 59 30.0000000  0  9G02G04G05G07G10G12G13G17G23
  21052456.468 6   -408352.22106        41.000 6      2688.504 6
  20666318.416 7    -19743.98407        45.000 7       101.348 7
  22531034.636 7   -429243.06507        47.000 7      2819.237 7
  24596336.119 7   -437345.05627        44.000 7      2875.149 7
  21192726.710 8   -340577.93608        50.000 8      2226.769 8
  24824584.723 7    124050.73227        45.000 7      -868.934 7
  21548612.401 8    139082.07808        48.000 8      -971.771 8
  22566088.512 7    411375.97627        42.000 7     -2766.118 7
  24054447.353 7    354365.15407        45.000 7     -2374.737 7
 10  1  6  5 59 31.0000000  0 10G02G04G05G07G08G10G12G13G17G23
  21051946.014 7   -411040.77207        44.000 7      2687.227 7
  20666299.186 8    -19844.69008        48.000 8        98.659 8
  22530498.217 8   -432061.97608        48.000 8      2818.035 8
  24595789.177 7   -440219.91907        43.000 7      2874.075 7
  25723828.697 5   -481163.95935        31.000 5      3173.409 5
  21192303.333 8   -342804.38408        49.000 8      2224.942 8
  24824749.296 7    124919.31507        42.000 7      -868.504 7
  21548797.339 7    140053.22807        46.000 7      -973.664 7
  22566615.264 7    414143.73127        43.000 7     -2769.334 7
  24054899.523 7    356739.35607        45.000 7     -2375.212 7
 10  1  6  5 59 32.0000000  0  9G02G04G05G07G10G12G13G17G23
  21051434.967 7   -413728.16407        43.000 7      2690.735 7
  20666280.794 8    -19944.09408        49.000 8       100.245 8
  22529962.041 7   -434879.85807        47.000 7      2819.677 7
  24595242.200 7   -443093.97707        45.000 7      2875.580 7
  21191879.921 8   -345029.54208        50.000 8      2225.457 8
  24824914.462 7    125788.96507        42.000 7      -869.870 7
  21548982.608 8    141026.03008        49.000 8      -970.958 8
  22567142.418 7    416912.36027        42.000 7     -2768.326 7
  24055351.798 7    359114.68907        45.000 7     -2375.393 7
 10  1  6  5 59 33.0000000  0  9G02G04G05G07G10G12G13G17G23
  21050922.873 7   -416415.43707        44.000 7      2687.440 7
  20666261.878 7    -20043.16507        46.000 7        97.984 7
  22529425.569 7   -437698.00907        45.000 7      2817.495 7
  24594695.868 7   -445967.90307        46.000 7      2873.288 7
  21191456.858 8   -347254.79708        50.000 8      2225.080 8
  24825080.937 7    126658.43407        45.000 7      -869.380 7
  21549167.824 8    141999.43408        48.000 8      -974.823 8
  22567668.332 7    419680.79027        43.000 7     -2771.108 7
  24055803.444 7    361490.50307        44.000 7     -2375.832 7
 10  1  6  5 59 34.0000000  0  9G02G04G05G07G10G12G13G17G23
  21050411.006 6   -419103.19606        41.000 6      2685.465 6
  20666243.241 8    -20141.88708        51.000 8        97.690 8
  22528889.900 8   -440516.91008        48.000 8      2818.502 8
  24594149.432 6   -448841.01906        38.000 6      2871.534 6
  21191033.149 8   -349480.49408        48.000 8      2224.770 8
  24825246.784 6    127527.29406        40.000 6      -868.897 6
  21549353.756 7    142974.00107        45.000 7      -975.594 7
  22568194.666 8    422449.00228        48.000 8     -2769.609 8
  24056255.283 7    363867.54007        43.000 7     -2379.210 7
 10  1  6  5 59 35.0000000  0 10G02G04G05G07G08G10G12G13G17G23
  21049899.627 7   -421790.62207        43.000 7      2688.279 7
  20666223.941 7    -20239.20807        47.000 7        97.356 7
  22528352.346 7   -443336.48307        44.000 7      2819.172 7
  24593604.392 5   -451712.81035        35.000 5      2871.912 5
  25721410.342 5   -493855.96235        34.000 5      3171.378 5
  21190608.533 8   -351706.60008        48.000 8      2225.782 8
  24825411.741 7    128395.20707        44.000 7      -867.622 7
  21549540.160 7    143950.49407        45.000 7      -975.984 7
  22568720.441 7    425218.59637        45.000 7     -2770.086 7
  24056707.732 7    366245.81607        45.000 7     -2378.043 7
 10  1  6  5 59 36.0000000  0 10G02G04G05G07G08G10G12G13G17G23
  21049388.144 7   -424479.46207        45.000 7      2689.186 7
  20666207.258 8    -20335.97508        50.000 8        95.792 8
  22527815.996 7   -446157.43607        46.000 7      2821.629 7
  24593056.019 7   -454581.83437        45.000 7      2867.521 7
  25720804.749 5   -497025.89435        34.000 5      3170.072 5
  21190185.435 7   -353933.72707        47.000 7      2227.491 7
  24825576.925 7    129261.32007        46.000 7      -865.269 7
  21549726.336 7    144928.17607        44.000 7      -977.374 7
  22569247.891 8    427989.26928        49.000 8     -2770.354 8
  24057160.844 5    368624.85105        33.000 5     -2381.430 5
 10  1  6  5 59 37.0000000  0 10G02G04G05G07G08G10G12G13G17G23
  21048876.852 7   -427168.00107        47.000 7      2688.152 7
  20666188.604 8    -20431.82708        52.000 8        95.205 8
  22527279.297 7   -448978.58807        46.000 7      2821.208 7
  24592510.246 7   -457449.54237        43.000 7      2865.037 7
  25720200.117 6   -500195.06236        36.000 6      3167.898 6
  21189762.058 8   -356160.81308        49.000 8      2226.609 8
  24825741.812 7    130127.21207        45.000 7      -866.086 7
  21549911.919 6    145907.18506        41.000 6      -980.683 6
  22569775.551 7    430760.87127        47.000 7     -2772.146 7
  24057616.016 5    371005.48335        33.000 5     -2383.057 5
 10  1  6  5 59 38.0000000  0 10G02G04G05G07G08G10G12G13G17G23
  21048365.666 8   -429856.90908        48.000 8      2687.784 8
  20666170.334 7    -20527.42607        47.000 7        94.436 7
  22526742.476 7   -451799.66707        46.000 7      2819.958 7
  24591965.677 7   -460316.37127        46.000 7      2867.590 7
  25719598.049 5   -503363.92425        33.000 5      3168.448 5
  21189338.297 7   -358387.78307        45.000 7      2226.283 7
  24825906.472 6    130993.12306        40.000 6      -864.198 6
  21550098.130 7    146886.89307        47.000 7      -980.145 7
  22570303.298 8    433533.08328        49.000 8     -2771.826 8
  24058070.978 4    373384.71034        29.000 4     -2375.625 4
 10  1  6  5 59 39.0000000  0 10G02G04G05G07G08G10G12G13G17G23
  21047853.345 7   -432545.21807        47.000 7      2689.942 7
  20666152.116 8    -20621.94808        49.000 8        96.190 8
  22526205.603 8   -454620.82208        48.000 8      2822.169 8
  24591419.503 7   -463182.36437        43.000 7      2866.735 7
  25718995.615 6   -506532.62726        38.000 6      3171.153 6
  21188914.518 7   -360614.51107        47.000 7      2227.305 7
  24826071.010 6    131858.94406        37.000 6      -864.446 6
  21550285.336 7    147867.92707        46.000 7      -978.934 7
  22570831.167 8    436305.78928        48.000 8     -2772.638 8
  24058523.828 5    375764.80035        33.000 5     -2380.407 5
 10  1  6  5 59 40.0000000  0 10G02G04G05G07G08G10G12G13G17G23
  21047341.914 7   -435233.90707        45.000 7      2687.630 7
  20666134.386 8    -20716.75508        50.000 8        94.069 8
  22525668.747 7   -457442.13507        47.000 7      2821.753 7
  24590874.131 6   -466048.70536        38.000 6      2864.764 6
  25718393.391 6   -509701.97126        37.000 6      3166.829 6
  21188490.303 8   -362841.32408        49.000 8      2226.864 8
  24826235.967 6    132724.72036        41.000 6      -868.245 6
  21550472.088 7    148849.02907        44.000 7      -983.096 7
  22571359.210 8    439078.34328        48.000 8     -2773.567 8
  24058978.825 5    378146.35435        32.000 5     -2383.146 5
 10  1  6  5 59 41.0000000  0 10G02G04G05G07G08G10G12G13G17G23
  21046829.855 8   -437921.42108        48.000 8      2688.099 8
  20666116.203 8    -20810.63808        50.000 8        93.720 8
  22525131.978 7   -460262.15207        44.000 7      2820.347 7
  24590327.625 6   -468914.41336        40.000 6      2864.953 6
  25717790.974 5   -512870.97435        32.000 5      3170.027 5
  21188067.240 8   -365066.82708        49.000 8      2225.670 8
  24826400.924 6    133591.88226        38.000 6      -865.619 6
  21550658.213 7    149831.24207        44.000 7      -982.411 7
  22571886.626 7    441851.91827        47.000 7     -2774.014 7
  24059433.665 4    380527.36934        28.000 4     -2380.000 4
 10  1  6  5 59 42.0000000  0  9G02G04G05G07G08G10G12G13G17
  21046319.122 8   -440608.41408        48.000 8      2685.032 8
  20666098.718 8    -20903.82408        48.000 8        92.033 8
  22524595.576 8   -463081.24608        48.000 8      2817.600 8
  24589784.347 6   -471779.45026        41.000 6      2863.300 6
  25717182.904 5   -516039.70725        35.000 5      3170.566 5
  21187643.235 7   -367291.39207        46.000 7      2223.269 7
  24826566.177 5    134460.45125        33.000 5      -868.284 5
  21550845.087 7    150814.31907        46.000 7      -984.499 7
  22572414.931 8    444626.22928        48.000 8     -2774.965 8
 10  1  6  5 59 43.0000000  0 10G02G04G05G07G08G10G12G13G17G23
  21045807.726 7   -443294.68707        46.000 7      2686.732 7
  20666080.343 8    -20996.17608        48.000 8        93.993 8
  22524059.523 7   -465900.01307        47.000 7      2817.720 7
  24589238.958 6   -474644.26126        38.000 6      2865.437 6
  25716582.809 5   -519209.00635        31.000 5      3167.755 5
  21187219.858 8   -369515.39208        48.000 8      2223.158 8
  24826731.396 5    135329.11935        35.000 5      -869.372 5
  21551033.218 7    151798.53637        42.000 7      -982.966 7
  22572942.608 8    447400.18708        48.000 8     -2774.578 8
  24060339.209 6    385294.36036        36.000 6     -2381.544 6
 10  1  6  5 59 44.0000000  0 10G02G04G05G07G08G10G12G13G17G23
  21045296.870 7   -445980.41207        47.000 7      2687.421 7
  20666063.626 8    -21087.76008        49.000 8        92.449 8
  22523522.876 8   -468718.08408        48.000 8      2818.434 8
  24588693.360 7   -477508.08127        45.000 7      2862.985 7
  25715979.607 5   -522376.96535        30.000 5      3167.543 5
  21186797.458 8   -371738.63408        48.000 8      2223.121 8
  24826896.213 5    136198.76135        32.000 5      -866.786 5
  21551220.267 7    152783.93727        42.000 7      -983.507 7
  22573470.390 7    450175.84107        45.000 7     -2774.817 7
  24060790.734 6    387677.87836        38.000 6     -2383.886 6
 10  1  6  5 59 45.0000000  0  9G02G04G05G07G08G10G13G17G23
  21044785.178 8   -448666.15908        48.000 8      2686.209 8
  20666046.280 8    -21179.34908        51.000 8        92.226 8
  22522986.177 6   -471536.14806        41.000 6      2819.196 6
  24588148.634 6   -480372.20736        39.000 6      2858.249 6
  25715376.807 5   -525546.01935        34.000 5      3168.718 5
  21186373.819 8   -373961.70908        48.000 8      2223.914 8
  21551407.979 6    153769.57926        40.000 6      -984.126 6
  22573998.102 7    452951.55707        44.000 7     -2775.475 7
  24061245.260 4    390061.61934        28.000 4     -2384.015 4
 10  1  6  5 59 46.0000000  0 10G02G04G05G07G08G10G12G13G17G23
  21044274.654 8   -451351.93308        48.000 8      2685.175 8
  20666028.568 8    -21270.65208        50.000 8        90.535 8
  22522450.630 8   -474354.14908        48.000 8      2817.146 8
  24587604.344 6   -483236.24536        39.000 6      2860.120 6
  25714773.535 5   -528715.25435        33.000 5      3168.177 5
  21185951.419 8   -376184.63208        50.000 8      2222.317 8
  24827226.511 5    137938.62235        33.000 5      -869.628 5
  21551596.546 7    154755.61127        44.000 7      -986.779 7
  22574526.809 7    455727.07607        43.000 7     -2776.659 7
  24061698.965 4    392445.29134        28.000 4     -2383.523 4
 10  1  6  5 59 47.0000000  0 10G02G04G05G07G08G10G12G13G17G23
  21043764.131 7   -454037.17807        46.000 7      2685.447 7
  20666010.996 8    -21361.20608        49.000 8        91.666 8
  22521914.315 8   -477171.49308        48.000 8      2816.755 8
  24587059.775 6   -486099.43936        39.000 6      2863.724 6
  25714171.363 5   -531883.63435        33.000 5      3174.537 5
  21185527.815 7   -378406.87907        47.000 7      2221.476 7
  24827390.735 4    138808.96734        28.000 4      -870.328 4
  21551784.450 6    155742.65126        40.000 6      -985.608 6
  22575054.817 7    458503.58407        42.000 7     -2775.437 7
  24062152.688 6    394829.19136        36.000 6     -2383.632 6
 10  1  6  5 59 48.0000000  0 10G02G04G05G07G08G10G12G13G17G23
  21043252.682 7   -456721.88107        45.000 7      2682.735 7
  20665994.191 8    -21451.18408        50.000 8        89.781 8
  22521378.332 7   -479988.63007        47.000 7      2817.124 7
  24586514.508 6   -488962.71736        38.000 6      2863.006 6
  25713567.743 4   -535052.62834        27.000 4      3164.039 4
  21185104.507 8   -380628.69508        49.000 8      2221.176 8
  24827558.676 6    139679.91736        36.000 6      -870.753 6
  21551972.196 7    156730.70327        45.000 7      -988.648 7
  22575582.948 7    461280.13707        43.000 7     -2777.169 7
  24062606.464 5    397214.05535        34.000 5     -2385.520 5
 10  1  6  5 59 49.0000000  0  9G02G04G05G07G08G10G13G17G23
  21042742.176 8   -459406.28408        49.000 8      2685.704 8
  20665977.788 8    -21540.82708        49.000 8        89.969 8
  22520842.017 8   -482804.95608        48.000 8      2818.044 8
  24585969.730 6   -491825.54136        36.000 6      2862.390 6
  25712965.623 5   -538220.56035        32.000 5      3169.282 5
  21184682.840 8   -382849.78108        51.000 8      2222.072 8
  21552159.699 7    157719.19427        44.000 7      -989.577 7
  22576110.870 7    464057.59507        42.000 7     -2775.832 7
  24063056.959 6    399599.20036        39.000 6     -2385.302 6
 10  1  6  5 59 50.0000000  0  9G02G04G05G07G08G10G13G17G23
  21042230.693 8   -462090.63008        48.000 8      2682.907 8
  20665960.634 8    -21630.20808        51.000 8        88.008 8
  22520305.859 7   -485621.23107        47.000 7      2815.007 7
  24585425.004 7   -494687.98227        42.000 7      2861.365 7
  25712362.648 5   -541390.53535        32.000 5      3168.507 5
  21184260.231 7   -385070.63107        47.000 7      2219.485 7
  21552347.917 6    158708.21826        41.000 6      -990.263 6
  22576639.925 7    466835.22607        44.000 7     -2777.743 7
  24063515.969 5    401984.01635        34.000 5     -2389.416 5
 10  1  6  5 59 51.0000000  0 10G02G04G05G07G08G10G12G13G17G23
  21041720.029 7   -464774.70607        46.000 7      2683.369 7
  20665944.231 8    -21719.14608        49.000 8        90.013 8
  22519770.905 7   -488437.14207        46.000 7      2814.600 7
  24584879.807 6   -497550.20736        40.000 6      2862.371 6
  25711759.673 5   -544559.53535        35.000 5      3170.864 5
  21183838.250 7   -387291.11207        47.000 7      2218.826 7
  24828059.689 4    142296.08034        28.000 4      -874.404 4
  21552536.502 7    159697.76727        42.000 7      -988.401 7
  22577168.353 7    469612.97807        45.000 7     -2778.944 7
  24063966.028 6    404370.05036        40.000 6     -2386.111 6
 10  1  6  5 59 52.0000000  0  9G02G04G05G07G08G10G13G17G23
  21041208.948 7   -467457.20607        46.000 7      2681.143 7
  20665926.310 8    -21806.94408        51.000 8        86.904 8
  22519234.206 8   -491252.31208        48.000 8      2814.859 8
  24584334.226 6   -500412.56826        39.000 6      2860.503 6
  25711158.059 6   -547729.49336        41.000 6      3171.751 6
  21183415.588 7   -389510.47707        47.000 7      2220.010 7
  21552724.597 7    160689.15027        45.000 7      -993.153 7
  22577697.304 7    472390.43407        45.000 7     -2776.962 7
  24064416.645 6    406757.90726        40.000 6     -2388.298 6
 10  1  6  5 59 53.0000000  0  9G02G04G05G07G08G10G13G17G23
  21040700.082 7   -470139.39407        45.000 7      2681.505 7
  20665909.418 8    -21894.37508        48.000 8        86.006 8
  22518698.571 8   -494068.63708        50.000 8      2816.729 8
  24583789.988 7   -503274.83527        44.000 7      2863.289 7
  25710557.318 6   -550901.23136        37.000 6      3171.878 6
  21182993.031 8   -391730.61008        49.000 8      2219.593 8
  21552913.863 7    161681.88427        46.000 7      -993.820 7
  22578226.203 7    475165.96207        45.000 7     -2774.687 7
  24064873.299 8    409147.43628        51.000 8     -2392.044 8
 10  1  6  5 59 54.0000000  0  9G02G04G05G07G08G10G13G17G23
  21040189.139 7   -472820.33507        44.000 7      2679.006 7
  20665893.259 7    -21980.64307        47.000 7        84.745 7
  22518162.797 7   -496885.09907        46.000 7      2815.285 7
  24583244.878 5   -506137.17725        35.000 5      2861.535 5
  25709949.824 5   -554074.04035        35.000 5      3173.802 5
  21182571.050 8   -393950.39008        52.000 8      2219.387 8
  21553102.953 8    162676.39028        48.000 8      -996.018 8
  22578754.543 7    477940.62107        42.000 7     -2773.292 7
  24065327.947 8    411538.91328        49.000 8     -2393.988 8
 10  1  6  5 59 55.0000000  0 10G02G04G05G07G08G10G12G13G17G23
  21039679.209 7   -475500.27607        46.000 7      2679.879 7
  20665877.170 8    -22066.10008        50.000 8        84.885 8
  22517626.308 7   -499700.85207        45.000 7      2815.202 7
  24582700.536 6   -508999.02036        37.000 6      2863.723 6
  25709347.198 5   -557247.15525        31.000 5      3172.634 5
  21182148.999 8   -396169.28808        50.000 8      2218.717 8
  24828730.196 5    145796.52135        30.000 5      -873.951 5
  21553292.305 7    163672.28007        46.000 7      -996.069 7
  22579282.586 8    480715.30708        48.000 8     -2775.961 8
  24065782.037 8    413932.18028        49.000 8     -2394.150 8
 10  1  6  5 59 56.0000000  0  9G02G04G05G07G08G10G13G17G23
  21039169.523 7   -478179.29107        45.000 7      2677.950 7
  20665862.058 8    -22150.21608        51.000 8        82.953 8
  22517089.871 7   -502516.10207        45.000 7      2814.173 7
  24582156.403 6   -511859.32136        39.000 6      2857.508 6
  25708742.408 6   -560419.55026        36.000 6      3168.982 6
  21181726.808 8   -398387.49108        50.000 8      2217.163 8
  21553482.234 7    164669.98207        46.000 7      -999.469 7
  22579810.508 7    483491.00807        47.000 7     -2777.574 7
  24066238.552 8    416326.66128        48.000 8     -2395.548 8
 10  1  6  5 59 57.0000000  0 10G02G04G05G07G08G10G12G13G17G23
  21038659.663 7   -480858.26807        45.000 7      2678.714 7
  20665845.655 8    -22234.01908        51.000 8        83.756 8
  22516554.742 7   -505331.12207        46.000 7      2815.318 7
  24581613.108 7   -514719.47427        42.000 7      2861.025 7
  25708140.934 6   -563592.05336        36.000 6      3172.673 6
  21181305.072 8   -400605.42608        51.000 8      2217.698 8
  24829061.506 4    147547.29634        29.000 4      -873.317 4
  21553672.197 7    165668.22807        47.000 7      -998.080 7
  22580338.534 7    486267.12707        42.000 7     -2774.486 7
  24066694.596 8    418721.47228        48.000 8     -2395.355 8
 10  1  6  5 59 58.0000000  0 10G02G04G05G07G08G10G12G13G17G23
  21038149.959 7   -483536.64307        44.000 7      2677.168 7
  20665829.775 7    -22317.12507        46.000 7        82.659 7
  22516019.195 7   -508145.61707        45.000 7      2813.745 7
  24581068.941 7   -517579.12927        43.000 7      2858.616 7
  25707539.617 5   -566764.22325        34.000 5      3171.501 5
  21180882.881 8   -402822.69808        48.000 8      2216.607 8
  24829226.079 4    148421.95234        29.000 4      -878.807 4
  21553862.421 8    166667.38408        49.000 8      -999.733 8
  22580865.653 6    489043.96706        40.000 6     -2775.627 6
  24067150.186 7    421116.50427        46.000 7     -2395.005 7
 10  1  6  5 59 59.0000000  0 10G02G04G05G07G08G10G12G13G17G23
  21037640.570 8   -486215.16908        49.000 8      2677.084 8
  20665813.529 8    -22400.25008        48.000 8        81.717 8
  22515483.840 7   -510959.57807        46.000 7      2812.083 7
  24580524.250 7   -520438.63827        43.000 7      2858.808 7
  25706934.095 5   -569936.47925        30.000 5      3172.205 5
  21180460.708 8   -405039.45608        49.000 8      2215.319 8
  24829390.844 5    149297.47235        30.000 5      -875.872 5
  21554052.245 7    167666.54307        46.000 7     -1001.201 7
  22581394.045 7    491820.93007        45.000 7     -2778.063 7
  24067605.724 7    423511.70027        46.000 7     -2396.446 7
 10  1  6  6  0  0.0000000  0 10G02G04G05G07G08G10G12G13G17G23
  21037131.669 7   -488892.45007        45.000 7      2678.029 7
  20665797.946 8    -22482.26408        51.000 8        82.659 8
  22514948.659 7   -513772.78407        44.000 7      2812.673 7
  24579980.937 7   -523297.88627        44.000 7      2859.828 7
  25706331.207 5   -573109.07025        34.000 5      3172.182 5
  21180039.041 8   -407255.24508        50.000 8      2215.746 8
  24829556.447 5    150173.58635        30.000 5      -876.258 5
  21554242.435 7    168667.31807        44.000 7     -1000.404 7
  22581921.775 7    494598.38707        45.000 7     -2778.096 7
  24068061.594 8    425907.95828        48.000 8     -2394.851 8
 10  1  6  6  0  1.0000000  0  9G02G04G05G07G08G10G13G17G23
  21036622.210 7   -491569.65107        47.000 7      2677.009 7
  20665782.433 8    -22564.15408        49.000 8        81.427 8
  22514413.095 7   -516585.93807        44.000 7      2814.507 7
  24579436.804 7   -526157.04027        45.000 7      2858.835 7
  25705727.377 5   -576281.97425        32.000 5      3173.418 5
  21179617.339 8   -409470.87708        48.000 8      2215.571 8
  21554432.799 7    169668.50207        47.000 7     -1001.583 7
  22582450.796 7    497375.75407        45.000 7     -2778.258 7
  24068518.161 7    428304.01707        45.000 7     -2397.372 7
 10  1  6  6  0  2.0000000  0  9G02G04G05G07G08G10G13G17G23
  21036112.367 7   -494246.82807        44.000 7      2676.585 7
  20665767.269 8    -22645.24308        50.000 8        80.683 8
  22513877.617 7   -519399.11407        46.000 7      2813.780 7
  24578892.811 7   -529015.16727        43.000 7      2857.956 7
  25705122.780 5   -579454.22325        30.000 5      3171.293 5
  21179196.248 8   -411686.37608        50.000 8      2215.173 8
  21554623.303 7    170670.92307        42.000 7     -1002.795 7
  22582979.782 6    500154.08606        41.000 6     -2777.798 6
  24068973.944 7    430701.04107        43.000 7     -2398.673 7
 10  1  6  6  0  3.0000000  0  9G02G04G05G07G08G10G13G17G23
  21035602.594 8   -496924.09208        49.000 8      2675.472 8
  20665751.825 8    -22726.57008        50.000 8        79.887 8
  22513343.100 7   -522212.14007        47.000 7      2811.095 7
  24578349.098 7   -531873.55127        43.000 7      2857.571 7
  25704518.967 6   -582626.99536        37.000 6      3171.793 6
  21178774.895 7   -413901.67007        47.000 7      2213.532 7
  21554813.127 7    171673.10007        46.000 7     -1003.716 7
  22583508.785 7    502932.40407        46.000 7     -2778.967 7
  24069430.738 7    433097.95507        42.000 7     -2397.958 7
 10  1  6  6  0  4.0000000  0  9G02G04G05G07G08G10G13G17G23
  21035093.606 7   -499600.69807        47.000 7      2678.556 7
  20665736.294 8    -22807.29708        51.000 8        81.775 8
  22512807.849 7   -525024.59307        45.000 7      2813.668 7
  24577805.558 6   -534731.98426        41.000 6      2858.276 6
  25703915.050 6   -585800.45336        39.000 6      3174.166 6
  21178353.018 8   -416116.34508        50.000 8      2216.092 8
  21555003.753 7    172676.29007        46.000 7     -1001.307 7
  22584037.771 7    505710.72307        44.000 7     -2778.499 7
  24069885.927 6    435495.32006        38.000 6     -2395.610 6
 10  1  6  6  0  5.0000000  0  9G02G04G05G07G08G10G13G17G23
  21034584.095 7   -502277.54807        46.000 7      2674.771 7
  20665721.636 8    -22887.89508        49.000 8        77.999 8
  22512272.668 7   -527837.08907        46.000 7      2810.240 7
  24577261.513 7   -537590.04427        43.000 7      2856.719 7
  25703311.517 6   -588973.42226        38.000 6      3171.273 6
  21177931.159 8   -418330.94008        48.000 8      2212.240 8
  21555196.246 7    173679.79907        46.000 7     -1006.022 7
  22584566.757 7    508489.62707        47.000 7     -2780.540 7
  24070342.704 7    437892.76007        42.000 7     -2399.871 7
 10  1  6  6  0  6.0000000  0  9G02G04G05G07G08G10G13G17G23
  21034074.967 7   -504952.67107        45.000 7      2673.780 7
  20665706.001 8    -22966.71408        49.000 8        78.156 8
  22511737.592 7   -530647.72907        46.000 7      2810.107 7
  24576718.061 6   -540446.63426        41.000 6      2856.975 6
  25702707.320 5   -592145.48525        33.000 5      3170.677 5
  21177510.539 8   -420543.61608        51.000 8      2211.924 8
  21555387.693 7    174685.39307        44.000 7     -1006.859 7
  22585096.807 7    511270.21007        47.000 7     -2779.571 7
  24070799.638 6    440291.91706        39.000 6     -2398.680 6
 10  1  6  6  0  7.0000000  0  9G02G04G05G07G08G10G13G17G23
  21033565.909 7   -507626.78607        46.000 7      2673.550 7
  20665691.029 8    -23044.39408        49.000 8        77.510 8
  22511202.708 7   -533457.67207        46.000 7      2809.670 7
  24576173.910 7   -543302.71207        42.000 7      2855.820 7
  25702104.084 5   -595316.97335        32.000 5      3173.857 5
  21177089.588 8   -422755.42808        50.000 8      2211.948 8
  21555579.471 7    175692.40707        47.000 7     -1007.641 7
  22585625.863 7    514051.52807        45.000 7     -2780.492 7
  24071255.856 5    442692.65335        33.000 5     -2409.394 5
 10  1  6  6  0  8.0000000  0  9G02G04G05G07G10G12G13G17G23
  21033057.602 7   -510300.77307        47.000 7      2672.856 7
  20665676.894 8    -23121.64008        51.000 8        75.825 8
  22510668.365 7   -536267.31007        47.000 7      2808.490 7
  24575630.197 7   -546157.20437        42.000 7      2856.086 7
  21176668.863 8   -424966.81708        49.000 8      2210.101 8
  24830891.807 6    157206.47036        37.000 6      -881.399 6
  21555771.091 7    176700.14107        46.000 7     -1009.137 7
  22586154.831 8    516833.46708        48.000 8     -2782.736 8
  24071711.272 5    445093.47435        35.000 5     -2399.678 5
 10  1  6  6  0  9.0000000  0 10G02G04G05G07G08G10G12G13G17G23
  21032548.753 7   -512974.61507        45.000 7      2674.034 7
  20665661.625 8    -23198.88508        48.000 8        76.611 8
  22510133.481 7   -539076.95507        44.000 7      2808.159 7
  24575086.587 6   -549012.92126        41.000 6      2854.176 6
  25700896.965 5   -601661.12235        32.000 5      3172.045 5
  21176247.702 8   -427178.05208        49.000 8      2210.550 8
  24831059.364 6    158087.06936        40.000 6      -881.445 6
  21555962.834 7    177708.16007        46.000 7     -1008.279 7
  22586684.358 7    519614.77007        46.000 7     -2782.790 7
  24072167.264 6    447494.21536        37.000 6     -2402.198 6
 10  1  6  6  0 10.0000000  0 10G02G04G05G07G08G10G12G13G17G23
  21032039.678 7   -515647.75907        47.000 7      2673.578 7
  20665647.473 8    -23275.47808        50.000 8        76.242 8
  22509599.260 7   -541885.84007        44.000 7      2810.504 7
  24574543.170 6   -551868.08426        41.000 6      2852.590 6
  25700292.332 5   -604833.50535        32.000 5      3172.084 5
  21175827.535 8   -429388.57208        51.000 8      2210.834 8
  24831224.042 6    158968.69226        39.000 6      -879.740 6
  21556154.420 7    178717.04307        45.000 7     -1009.485 7
  22587213.658 7    522396.60407        46.000 7     -2782.333 7
  24072623.988 5    449895.48025        34.000 5     -2403.162 5
 10  1  6  6  0 11.0000000  0 10G02G04G05G07G08G10G12G13G17G23
  21031531.999 8   -518320.75508        49.000 8      2671.004 8
  20665632.762 8    -23351.34508        50.000 8        74.730 8
  22509065.039 7   -544694.51607        45.000 7      2806.413 7
  24574001.289 7   -554722.31227        42.000 7      2853.267 7
  25699688.729 5   -608005.01635        35.000 5      3170.105 5
  21175407.299 8   -431598.64508        50.000 8      2208.382 8
  24831393.902 6    159850.58326        41.000 6      -884.010 6
  21556347.245 7    179727.09107        45.000 7     -1010.998 7
  22587743.534 7    525179.46007        44.000 7     -2783.953 7
  24073081.428 7    452297.59027        42.000 7     -2403.054 7
 10  1  6  6  0 12.0000000  0 10G02G04G05G07G08G10G12G13G17G23
  21031023.063 7   -520992.84307        47.000 7      2672.468 7
  20665618.715 8    -23426.50308        50.000 8        74.719 8
  22508531.324 7   -547501.95407        46.000 7      2808.097 7
  24573458.639 6   -557576.39626        39.000 6      2852.732 6
  25699086.138 5   -611176.56835        32.000 5      3171.112 5
  21174986.732 8   -433807.57208        51.000 8      2209.557 8
  24831562.628 7    160733.75827        43.000 7      -882.955 7
  21556539.773 7    180737.86207        47.000 7     -1011.522 7
  22588272.799 7    527963.27607        46.000 7     -2783.557 7
  24073540.002 7    454699.95927        42.000 7     -2402.982 7
 10  1  6  6  0 13.0000000  0 10G02G04G05G07G08G10G12G13G17G23
  21030514.215 7   -523665.49407        47.000 7      2672.514 7
  20665604.667 8    -23501.75008        49.000 8        75.359 8
  22507996.388 7   -550309.87007        47.000 7      2808.105 7
  24572915.833 6   -560430.31826        39.000 6      2855.791 6
  25698485.153 5   -614348.46735        35.000 5      3173.315 5
  21174566.269 8   -436016.80908        50.000 8      2209.308 8
  24831728.336 7    161616.51027        42.000 7      -883.798 7
  21556731.813 7    181748.86907        46.000 7     -1011.437 7
  22588802.448 7    530746.74307        47.000 7     -2783.436 7
  24073997.861 7    457102.32927        45.000 7     -2401.402 7
 10  1  6  6  0 14.0000000  0 10G02G04G05G07G08G10G12G13G17G23
  21030005.402 7   -526337.43107        45.000 7      2671.958 7
  20665590.184 8    -23576.35008        49.000 8        73.547 8
  22507461.678 7   -553117.49107        44.000 7      2808.170 7
  24572372.258 6   -563284.14126        39.000 6      2853.064 6
  25697881.306 6   -617521.29036        36.000 6      3169.024 6
  21174145.893 7   -438225.42107        46.000 7      2210.247 7
  24831896.695 7    162499.61427        44.000 7      -882.429 7
  21556924.935 8    182760.79808        50.000 8     -1013.573 8
  22589332.516 7    533530.43307        42.000 7     -2784.130 7
  24074455.319 7    459505.17027        43.000 7     -2402.900 7
 10  1  6  6  0 15.0000000  0 10G02G04G05G07G08G10G12G13G17G23
  21029497.810 7   -529008.63707        47.000 7      2672.209 7
  20665575.595 8    -23650.08608        48.000 8        74.986 8
  22506927.300 7   -555924.74607        46.000 7      2808.174 7
  24571828.754 7   -566137.38927        44.000 7      2853.659 7
  25697273.968 5   -620693.99635        35.000 5      3171.707 5
  21173724.994 8   -440433.61408        48.000 8      2209.443 8
  24832065.456 6    163383.33126        41.000 6      -883.753 6
  21557118.126 8    183773.96208        50.000 8     -1013.097 8
  22589862.758 7    536314.28607        46.000 7     -2783.078 7
  24074913.003 7    461909.31227        42.000 7     -2403.272 7
 10  1  6  6  0 16.0000000  0 10G02G04G05G07G08G10G12G13G17G23
  21028990.270 8   -531679.80108        48.000 8      2671.907 8
  20665561.635 8    -23723.97508        48.000 8        74.119 8
  22506393.934 7   -558731.26707        47.000 7      2806.362 7
  24571285.598 7   -568990.67927        42.000 7      2854.431 7
  25696674.065 5   -623866.47325        34.000 5      3173.408 5
  21173304.757 8   -442641.12208        48.000 8      2207.323 8
  24832233.851 6    164267.81926        38.000 6      -884.971 6
  21557310.811 7    184787.13007        44.000 7     -1012.489 7
  22590392.721 6    539098.72406        40.000 6     -2782.509 6
  24075370.164 7    464312.95727        46.000 7     -2402.266 7
 10  1  6  6  0 17.0000000  0 10G02G04G05G07G08G10G12G13G17G23
  21028482.190 7   -534349.94907        47.000 7      2671.076 7
  20665547.850 8    -23796.74808        49.000 8        73.681 8
  22505860.324 8   -561536.53108        48.000 8      2805.244 8
  24570742.216 6   -571843.54726        40.000 6      2853.447 6
  25696065.942 5   -627038.60525        35.000 5      3172.074 5
  21172885.115 8   -444847.32308        49.000 8      2206.169 8
  24832402.560 7    165153.43127        42.000 7      -886.205 7
  21557503.427 8    185801.55508        49.000 8     -1012.912 8
  22590922.231 7    541884.21007        44.000 7     -2785.458 7
  24075827.918 7    466717.17627        44.000 7     -2402.059 7
 10  1  6  6  0 18.0000000  0 10G02G04G05G07G08G10G12G13G17G23
  21027974.004 8   -537020.51408        48.000 8      2669.415 8
  20665534.186 8    -23869.94008        49.000 8        71.173 8
  22505326.644 8   -564341.45908        48.000 8      2805.008 8
  24570199.776 6   -574696.43126        39.000 6      2850.395 6
  25695465.672 5   -630210.79035        34.000 5      3174.264 5
  21172465.594 7   -447053.34207        46.000 7      2205.878 7
  24832571.966 6    166039.81636        39.000 6      -886.192 6
  21557697.124 7    186815.67307        46.000 7     -1016.064 7
  22591451.670 7    544670.15007        42.000 7     -2785.703 7
  24076285.532 7    469120.90927        47.000 7     -2406.727 7
 10  1  6  6  0 19.0000000  0 10G02G04G05G07G08G10G12G13G17G23
  21027465.488 8   -539690.34108        48.000 8      2670.632 8
  20665519.964 8    -23941.86408        50.000 8        72.881 8
  22504793.104 7   -567146.33707        47.000 7      2806.095 7
  24569657.423 6   -577548.14636        40.000 6      2851.437 6
  25694857.951 6   -633382.69436        37.000 6      3173.134 6
  21172045.829 8   -449259.01108        49.000 8      2206.452 8
  24832740.378 6    166926.28026        39.000 6      -885.697 6
  21557890.002 7    187831.46307        44.000 7     -1014.106 7
  22591981.459 6    547456.44206        39.000 6     -2784.651 6
  24076742.972 7    471525.65107        47.000 7     -2405.042 7
 10  1  6  6  0 20.0000000  0 10G02G04G05G07G08G10G12G13G17G23
  21026957.075 7   -542360.02307        46.000 7      2669.625 7
  20665506.301 7    -24013.48807        46.000 7        72.261 7
  22504258.830 8   -569951.41108        49.000 8      2804.339 8
  24569115.140 7   -580399.64827        46.000 7      2852.132 7
  25694254.557 5   -636555.10525        34.000 5      3171.519 5
  21171625.889 7   -451464.59707        47.000 7      2205.928 7
  24832909.209 6    167812.46226        41.000 6      -887.340 6
  21558083.821 8    188848.06808        49.000 8     -1015.821 8
  22592512.155 8    550242.60508        48.000 8     -2786.249 8
  24077201.320 8    473931.55908        48.000 8     -2405.037 8
 10  1  6  6  0 21.0000000  0 10G02G04G05G07G08G10G12G13G17G23
  21026449.257 7   -545028.84907        46.000 7      2670.848 7
  20665493.248 8    -24084.70208        49.000 8        72.162 8
  22503726.040 8   -572754.88408        50.000 8      2804.006 8
  24568572.770 7   -583251.58127        43.000 7      2852.163 7
  25693653.066 5   -639727.54025        34.000 5      3173.311 5
  21171206.788 8   -453668.75208        49.000 8      2205.465 8
  24833078.267 6    168700.44526        38.000 6      -887.319 6
  21558277.361 8    189864.92708        48.000 8     -1016.189 8
  22593042.467 7    553029.64607        45.000 7     -2787.623 7
  24077658.673 8    476336.93308        48.000 8     -2404.531 8
 10  1  6  6  0 22.0000000  0 10G02G04G05G07G08G10G12G13G17G23
  21025941.508 7   -547697.46607        43.000 7      2665.879 7
  20665478.555 8    -24155.96308        49.000 8        68.773 8
  22503192.901 8   -575557.58608        49.000 8      2801.227 8
  24568029.039 7   -586103.68727        44.000 7      2850.050 7
  25693050.160 5   -642901.14935        34.000 5      3171.839 5
  21170788.000 8   -455872.20308        51.000 8      2202.071 8
  24833247.238 6    169589.13026        38.000 6      -890.608 6
  21558470.553 7    190881.81407        47.000 7     -1019.476 7
  22593572.622 7    555817.21107        43.000 7     -2790.045 7
  24078116.095 7    478742.02207        47.000 7     -2408.270 7
 10  1  6  6  0 23.0000000  0 10G02G04G05G07G08G10G12G13G17G23
  21025433.741 7   -550365.32307        45.000 7      2667.733 7
  20665465.746 7    -24225.37507        47.000 7        69.017 7
  22502659.204 7   -578360.50507        47.000 7      2802.547 7
  24567486.895 7   -588953.64227        43.000 7      2848.852 7
  25692445.249 4   -646072.83834        29.000 4      3171.096 4
  21170368.619 8   -458075.36908        50.000 8      2203.391 8
  24833415.964 6    170477.74626        40.000 6      -886.885 6
  21558664.704 8    191901.19408        50.000 8     -1019.731 8
  22594103.580 7    558605.63407        45.000 7     -2788.580 7
  24078574.006 7    481149.40807        47.000 7     -2408.095 7
 10  1  6  6  0 24.0000000  0  9G02G04G05G07G10G12G13G17G23
  21024925.312 7   -553033.76507        47.000 7      2666.338 7
  20665453.409 8    -24296.05408        50.000 8        69.916 8
  22502125.489 7   -581162.42407        45.000 7      2798.406 7
  24566944.612 7   -591805.11127        44.000 7      2851.888 7
  21169949.325 8   -460277.94308        48.000 8      2199.958 8
  24833586.138 6    171367.51326        41.000 6      -893.067 6
  21558857.354 7    192918.94507        46.000 7     -1017.360 7
  22594634.101 7    561394.29907        47.000 7     -2790.916 7
  24079031.307 7    483554.72807        46.000 7     -2404.607 7
 10  1  6  6  0 25.0000000  0  9G02G04G05G07G10G12G13G17G23
  21024418.086 8   -555701.08008        48.000 8      2667.514 8
  20665440.251 8    -24366.80508        50.000 8        70.820 8
  22501592.106 8   -583961.59208        48.000 8      2799.080 8
  24566402.085 7   -594658.09027        45.000 7      2853.257 7
  21169530.398 7   -462478.15307        47.000 7      2200.609 7
  24833756.836 6    172260.17826        38.000 6      -891.763 6
  21559050.703 7    193936.04007        47.000 7     -1017.272 7
  22595164.414 7    564183.98707        44.000 7     -2789.707 7
  24079488.642 7    485958.43307        47.000 7     -2404.042 7
 10  1  6  6  0 26.0000000  0  9G02G04G05G07G10G12G13G17G23
  21023909.011 7   -558368.08107        46.000 7      2667.087 7
  20665427.565 8    -24437.09908        51.000 8        70.509 8
  22501059.699 8   -586760.46208        49.000 8      2799.436 8
  24565859.226 7   -597510.69627        43.000 7      2852.612 7
  21169111.645 8   -464677.91608        49.000 8      2200.098 8
  24833926.958 6    173153.18626        38.000 6      -892.201 6
  21559243.912 7    194953.89607        46.000 7     -1018.026 7
  22595695.406 7    566974.08707        44.000 7     -2790.253 7
  24079946.623 7    488362.59007        47.000 7     -2403.754 7
