     2.11           OBSERVATION DATA    G (GPS)             RINEX VERSION / TYPE
teqc  2019Feb12                         20210102 00:28:39UTCPGM / RUN BY / DATE
ZIMM                                                        MARKER NAME
14001M004                                                   MARKER NUMBER
TRIMBLE NETR9       SWISSTOPO                               OBSERVER / AGENCY
5429R49141          TRIMBLE NETR9       5.45                REC # / TYPE / VERS
99390               TRM29659.00     NONE                    ANT # / TYPE
  4331297.3480   567555.6390  4633133.7280                  APPROX POSITION XYZ
        0.0000        0.0000        0.0000                  ANTENNA: DELTA H/E/N
     1     1                                                WAVELENGTH FACT L1/2
    10    C1    L1    S1    C2    L2    S2    P2    C5    L5# / TYPES OF OBSERV
          S5                                                # / TYPES OF OBSERV
    30.0000                                                 INTERVAL
Linux 2.4.21-27.ELsmp|Opteron|gcc -static|Linux 64|=+       COMMENT
     2.11           OBSERVATION DATA    M (MIXED)           COMMENT
NetR9 5.45          Receiver Operator   20210101 000001 UTC COMMENT
L2C CARRIER PHASE MEASUREMENTS: PHASE SHIFTS REMOVED        COMMENT
L2C PHASE MATCHES L2 P PHASE                                COMMENT
GLONASS C/A & P PHASE MATCH: PHASE SHIFTS REMOVED           COMMENT
Forced Modulo Decimation to 30 seconds                      COMMENT
teqc edited: all GLONASS satellites excluded                COMMENT
teqc edited: all Galileo satellites excluded                COMMENT
  2021     1     1     0     0    0.0000000     GPS         TIME OF FIRST OBS
                                                            END OF HEADER
 21  1  1  0  0  0.0000000  0 11G21G23G16G07G15G08G26G18G20G27G10
  23710570.930 6 124599890.588 6        39.100                    97090841.00847
        25.100    23710574.90647
  21391295.109 9 112412028.458 9        48.900    21391299.391 9  87593808.48049
        39.500    21391298.73449  21391299.504 6  83944058.214 6        39.700
  21408144.172 9 112500651.218 9        49.000                    87662777.44149
        39.900    21408147.37549
  24631506.336 5 129439447.117 5        36.900    24631511.348 6 100861908.00946
        20.600    24631510.33646
  24496602.156 2 128730530.09612        31.300    24496607.488 5 100309513.67557
        28.100    24496607.32047
  22197246.906 7 116647327.595 7        44.300    22197254.410 8  90894049.69649
        46.700    22197253.33249  22197249.406 5  87106809.289 5        37.700
  23403019.961 7 122983710.851 7        41.800    23403026.996 7  95831485.74449
        38.500    23403026.39149  23403022.613 3  91838555.040 3        32.700
  23297316.336 6 122428227.643 6        40.300    23297321.629 7  95398657.33847
        28.100    23297320.78947  23297322.727 4  91423685.325 4        34.200
  21341415.984 8 112149920.723 8        47.000                    87389553.80649
        37.900    21341419.29749
  20257190.867 9 106452277.756 9        52.300    20257197.047 9  82949855.02549
        55.300    20257196.38749  20257193.066 7  79493628.302 7        43.800
  21154200.328 9 111166077.270 9        53.400    21154206.363 9  86622950.27249
        55.000    21154206.24249  21154201.758 7  83013631.652 7        41.400
 21  1  1  0  0 30.0000000  0 11G21G23G16G07G15G08G26G18G20G27G10
  23695455.352 6 124520458.881 6        39.000                    97028946.17146
        22.600    23695458.65646
  21397024.156 9 112442136.455 9        48.800    21397028.742 9  87617269.26449
        38.900    21397028.03149  21397028.594 6  83966541.448 6        39.300
  21421982.133 9 112573370.613 9        48.500                    87719441.89649
        40.500    21421985.57049
  24633952.656 6 129452295.517 6        38.900    24633956.770 5 100871919.76646
        22.600    24633956.08246
  24498292.484 1 128739412.89611        30.100    24498298.129 5 100316435.33357
        25.500    24498297.50447
  22182338.375 8 116568981.097 8        45.100    22182345.113 8  90833000.47549
        47.200    22182344.39849  22182340.578 5  87048303.809 5        37.900
  23423394.602 6 123090781.698 6        40.700    23423401.582 7  95914917.56649
        38.400    23423401.40249  23423397.746 3  91918510.585 3        32.400
  23315112.570 7 122521744.903 7        41.300    23315117.262 7  95471527.87747
        27.800    23315116.83647  23315117.328 3  91493519.595 3        33.300
  21348835.961 8 112188912.804 8        46.800                    87419937.25149
        37.700    21348839.11749
  20253727.539 9 106434078.700 9        51.900    20253733.785 9  82935673.93849
        55.300    20253733.28949  20253729.555 7  79480038.106 7        43.500
  21147105.586 9 111128793.817 9        52.900    21147111.570 9  86593898.23649
        54.900    21147111.38749  21147107.000 7  82985790.107 7        41.200
 21  1  1  0  1  0.0000000  0 11G21G23G16G07G15G08G26G18G20G27G10
  23680375.109 6 124441214.669 6        39.700                    96967197.41746
        22.300    23680379.68446
  21402864.094 8 112472825.947 8        47.500    21402868.406 9  87641183.15349
        39.400    21402868.24249  21402868.922 6  83989458.933 6        39.200
  21435906.906 9 112646544.189 9        48.100                    87776460.26349
        39.900    21435909.89849
  24636492.594 6 129465643.577 6        38.800    24636496.082 5 100882320.82446
        22.800    24636495.84046
  24500091.625 1                        26.400    24500098.797 6 100323815.38816
        24.300    24500098.33646
  22167466.734 8 116490829.867 8        45.700    22167473.598 8  90772103.41549
        47.100    22167472.44949  22167468.918 5  86989944.124 5        37.600
  23443799.336 7 123198009.712 7        41.100    23443806.629 7  95998471.84549
        38.000    23443806.35949  23443802.195 3  91998583.428 3        32.700
  23332926.477 6 122615357.960 6        40.400    23332930.355 7  95544473.10147
        26.500    23332929.87147  23332931.020 3  91563425.441 3        32.400
  21356356.680 8 112228434.892 8        47.000                    87450733.68049
        38.600    21356359.95349
  20250340.453 9 106416278.394 9        51.200    20250346.590 9  82921803.56749
        55.600    20250346.02749  20250342.461 7  79466745.658 7        43.400
  21140114.883 9 111092059.028 9        52.200    21140121.164 9  86565273.73549
        54.900    21140121.08649  21140116.797 7  82958358.286 7        41.600
 21  1  1  0  1 30.0000000  0 10G21G23G16G07G08G26G18G20G27G10
  23665332.016 6 124362158.781 6        40.300                    96905595.43547
        25.300    23665335.79747
  21408814.633 9 112504096.026 9        48.500    21408819.199 9  87665549.45449
        38.800    21408818.68449  21408819.473 6  84012809.998 6        40.000
  21449917.305 9 112720169.803 9        48.300                    87833830.85649
        40.400    21449920.37949
  24639127.141 5 129479490.661 5        37.900    24639131.043 5 100893110.75246
        20.900    24639130.72746
  22152632.594 8 116412876.158 8        45.200    22152639.395 8  90711360.26549
        47.200    22152638.06649  22152634.844 5  86931731.911 5        37.700
  23464233.391 7 123305392.720 7        41.100    23464241.523 7  96082146.91649
        38.600    23464240.91849  23464236.254 3  92078771.993 3        32.600
  23350758.500 6 122709065.918 6        40.900    23350762.902 7  95617492.29247
        26.800    23350762.03547  23350764.359 3  91633402.128 3        33.700
  21363978.313 8 112268485.311 8        47.000                    87481941.80149
        38.200    21363981.02349
  20247028.977 9 106398878.180 9        51.400    20247035.453 9  82908244.95049
        55.300    20247034.79349  20247031.465 7  79453751.975 7        43.400
  21133229.352 9 111055874.779 9        52.600    21133235.563 9  86537078.22849
        54.900    21133235.44549  21133231.074 6  82931337.589 6        40.700
 21  1  1  0  2  0.0000000  0 10G21G23G16G07G08G26G18G20G27G10
  23650324.047 6 124283291.445 6        40.400                    96844140.43146
        24.700    23650327.18446
  21414875.547 9 112535945.035 9        48.700    21414879.953 9  87690366.86649
        38.800    21414878.96549  21414880.121 6  84036593.315 6        40.200
  21464013.305 9 112794245.292 9        48.500                    87891552.00649
        39.900    21464016.54749
  24641857.328 5 129493835.521 5        37.600    24641860.883 5 100904288.58646
        22.500    24641860.72746
  22137835.734 8 116335120.690 8        45.200    22137843.238 8  90650771.57949
        47.300    22137841.91049  22137838.816 6  86873667.787 6        38.400
  23484697.094 6 123412927.894 6        39.900    23484704.219 7  96165940.53649
        38.400    23484704.05949  23484699.598 3  92159074.254 3        32.600
  23368607.922 6 122802867.001 6        39.900    23368613.098 7  95690584.02047
        26.500    23368612.47747  23368613.855 4  91703448.380 4        34.400
  21371699.133 8 112309062.248 8        46.700                    87513560.19849
        38.200    21371702.44549
  20243794.195 9 106381878.589 9        51.200    20243800.602 9  82894998.52049
        56.000    20243799.96149  20243796.410 7  79441057.492 7        43.200
  21126448.688 9 111020241.589 9        53.200    21126454.922 9  86509312.11349
        55.000    21126454.69549  21126450.020 7  82904728.401 7        41.200
 21  1  1  0  2 30.0000000  0 11G21G23G16G07G15G08G26G18G20G27G10
  23635351.969 6 124204614.367 6        39.800                    96782833.65246
        24.200    23635355.33246
  21421046.125 8 112568372.544 8        47.800    21421050.816 9  87715635.05849
        39.200    21421049.94549  21421051.176 6  84060808.676 6        39.600
  21478194.703 9 112868769.105 9        48.500                    87949622.49749
        40.200    21478197.85549
  24644681.563 5 129508677.898 5        37.700    24644684.887 5 100915854.05046
        21.300    24644684.48846
  24506160.375 3 128780765.10313        32.000    24506164.840 5 100348644.68157
        26.800    24506164.47747
  22123077.797 8 116257566.122 8        45.200    22123084.941 8  90590339.45649
        47.500    22123084.07449  22123080.301 5  86815753.658 5        37.900
  23505188.508 6 123520613.678 6        39.800    23505195.898 6  96249851.53049
        37.900    23505195.29349  23505191.547 2  92239488.941 2        31.400
  23386475.016 6 122896760.682 6        40.900    23386480.211 7  95763747.88347
        27.800    23386479.77347  23386480.699 3  91773563.727 3        33.600
  21379521.328 8 112350164.953 8        47.000                    87545588.27849
        37.900    21379524.39149
  20240635.938 9 106365281.411 9        51.800    20240642.164 9  82882065.65349
        55.400    20240641.62949  20240638.055 7  79428663.489 7        43.400
  21119773.023 9 110985161.434 9        52.500    21119779.355 9  86481976.92749
        55.100    21119779.15649  21119774.566 6  82878532.188 6        40.800
 21  1  1  0  3  0.0000000  0 11G21G23G16G07G15G08G26G18G20G27G10
  23620416.180 6 124126126.162 6        39.200                    96721674.01947
        26.400    23620420.37547
  21427326.500 9 112601375.694 9        48.300    21427330.742 9  87741351.79749
        38.800    21427330.14149  21427331.500 6  84085453.889 6        39.200
  21492460.961 9 112943737.853 9        48.400                    88008039.70049
        40.200    21492464.01249
  24647599.828 5 129524015.197 5        37.000    24647604.324 5 100927805.19246
        21.500    24647603.59046
  24508400.953 2 128792552.44812        31.300    24508407.980 5 100357829.64057
        25.600    24508407.35947
  22108358.148 8 116180212.272 8        45.200    22108365.102 8  90530063.73349
        47.400    22108364.07449  22108360.551 5  86757989.423 5        37.800
  23525708.141 6 123628446.061 6        39.400    23525716.348 7  96333876.75549
        37.500    23525715.55549  23525711.563 3  92320013.100 3        32.600
  23404360.625 7 122990744.070 7        41.100    23404364.395 7  95836981.68947
        25.300    23404364.01647  23404365.027 3  91843746.169 3        32.800
  21387442.438 8 112391790.405 8        46.800                    87578023.68749
        38.100    21387445.51249
  20237554.219 9 106349086.073 9        51.800    20237560.273 9  82869445.90749
        54.900    20237559.93049  20237556.289 7  79416569.573 7        43.000
  21113202.664 9 110950633.835 9        52.700    21113209.043 9  86455072.31449
        55.000    21113208.73449  21113204.313 6  82852748.612 6        40.900
 21  1  1  0  3 30.0000000  0 11G21G23G16G07G15G08G26G18G20G27G10
  23605516.609 6 124047828.907 6        38.900                    96660663.17946
        23.500    23605520.16446
  21433715.852 9 112634954.695 9        48.400    21433720.781 9  87767517.26049
        38.900    21433720.00449  21433721.512 6  84110529.132 6        39.700
  21506811.555 9 113019151.201 9        48.000                    88066803.33749
        39.700    21506814.77349
  24650613.172 5 129539847.750 5        37.400    24650616.523 5 100940142.20145
        19.300    24650616.03945
  24510756.203 3 128804921.74413        32.900    24510761.258 5 100367468.04257
        26.400    24510761.40647
  22093676.734 8 116103062.062 8        45.200    22093683.945 8  90469946.68649
        47.600    22093682.62949  22093679.492 6  86700377.276 6        38.000
  23546255.945 6 123736424.095 6        39.400    23546263.652 7  96418015.47349
        37.800    23546263.27749  23546258.727 2  92400646.032 2        31.900
  23422261.227 6 123084817.423 6        40.400    23422266.215 7  95910285.59147
        25.300    23422264.42647  23422267.078 3  91913995.743 3        33.700
  21395462.953 8 112433938.213 8        47.000                    87610866.14249
        38.100    21395465.85249
  20234549.313 9 106333295.022 9        51.700    20234555.227 9  82857141.19549
        55.000    20234554.79349  20234551.227 7  79404777.566 7        43.600
  21106737.828 9 110916661.393 9        52.700    21106744.133 9  86428600.29149
        55.000    21106743.98849  21106739.418 7  82827379.588 7        41.100
 21  1  1  0  4  0.0000000  0 11G21G23G16G07G15G08G26G18G20G27G10
  23590653.320 6 123969721.827 6        39.200                    96599800.54246
        24.300    23590656.64546
  21440215.047 9 112669106.898 9        48.200    21440219.734 9  87794129.35949
        38.700    21440219.25449  21440219.977 6  84136032.385 6        39.400
  21521246.289 9 113095005.574 9        48.100                    88125910.63149
        39.900    21521249.19949
  24653719.898 5 129556173.493 5        37.100    24653723.352 5 100952863.53946
        20.400    24653722.62146
  24513219.422 3 128817871.56313        32.600    24513226.707 5 100377558.77757
        25.800    24513225.96547
  22079034.398 8 116026115.971 8        45.100    22079041.547 8  90409988.68849
        47.600    22079040.32449  22079036.813 6  86642917.469 6        38.100
  23566830.570 6 123844544.039 6        39.900    23566838.359 7  96502264.75649
        37.500    23566837.90649  23566833.004 2  92481384.972 2        31.300
  23440179.945 6 123178978.111 6        39.500    23440184.727 7  95983657.53347
        26.500    23440183.79747  23440186.004 5  91984310.461 5        35.100
  21403582.344 8 112476606.163 8        47.000                    87644113.89949
        37.800    21403585.22749
  20231621.141 9 106317907.834 9        51.200    20231627.215 9  82845151.17749
        55.000    20231626.77749  20231623.258 7  79393287.132 7        43.100
  21100378.703 9 110883243.833 9        52.500    21100384.809 9  86402560.64449
        55.000    21100384.73849  21100380.359 6  82802424.942 6        40.900
 21  1  1  0  4 30.0000000  0 11G21G23G16G07G15G08G26G18G20G27G10
  23575826.344 6 123891805.563 6        39.700                    96539086.60746
        22.800    23575829.22346
  21446823.188 9 112703831.099 9        48.400    21446827.336 9  87821187.18649
        38.600    21446826.88749  21446827.711 6  84161962.808 6        39.200
  21535764.281 9 113171299.254 9        48.100                    88185360.24249
        39.700    21535767.50449
  24656920.094 6 129572991.450 6        38.100    24656923.438 5 100965968.47646
        20.900    24656924.03546
  24515793.414 2 128831400.34412        31.600    24515800.207 5 100388100.20457
        25.600    24515800.48047
  22064431.289 8 115949375.784 8        45.200    22064438.676 8  90350191.13649
        47.800    22064437.39849  22064433.734 6  86585611.523 6        38.600
  23587432.133 6 123952803.648 6        39.600    23587439.277 7  96586622.88849
        37.100    23587438.23849  23587434.426 2  92562228.155 2        31.200
  23458113.938 6 123273224.977 6        40.400    23458119.434 7  96057096.60147
        25.200    23458118.68847  23458119.777 4  92054689.587 4        34.200
  21411800.320 8 112519792.718 8        46.900                    87677765.76249
        37.800    21411803.38349
  20228770.039 9 106302925.694 9        52.000    20228776.441 9  82833476.77149
        55.200    20228775.59449  20228772.145 7  79382099.166 7        43.400
  21094125.477 9 110850382.331 9        52.600    21094131.641 9  86376954.28749
        54.900    21094131.45349  21094126.824 7  82777885.503 7        41.000
 21  1  1  0  5  0.0000000  0 11G21G23G16G07G15G08G26G18G20G27G10
  23561036.133 6 123814080.467 6        40.100                    96478521.58346
        24.100    23561039.12946
  21453539.359 9 112739126.060 9        48.800    21453543.887 9  87848689.75349
        38.900    21453543.51649  21453544.219 6  84188319.433 6        39.500
  21550365.914 8 113248029.875 8        47.700                    88245150.32549
        39.600    21550368.91449
  24660213.883 5 129590300.485 5        36.400    24660217.211 5 100979455.99945
        19.300    24660216.42245
  24518480.156 3 128845511.49213        32.000    24518486.023 5 100399095.91657
        26.500    24518485.33647
  22049867.727 8 115872843.257 8        45.200    22049874.836 8  90290555.40849
        48.000    22049873.90249  22049869.820 5  86528460.604 5        37.700
  23608059.383 6 124061200.552 6        39.500    23608065.930 6  96671088.01049
        37.100    23608065.93449  23608062.152 3  92643173.871 3        32.400
  23476065.234 6 123367556.809 6        40.100    23476069.957 7  96130601.88547
        25.000    23476069.00047  23476070.109 3  92125132.167 3        33.900
  21420116.648 8 112563496.314 8        46.500                    87711820.50249
        37.700    21420119.73449
  20225996.227 9 106288349.592 9        51.800    20226002.582 9  82822118.77349
        55.000    20226001.93449  20225998.551 7  79371214.413 7        43.200
  21087977.922 9 110818077.995 9        53.000    21087984.172 9  86351782.08649
        55.100    21087984.13749  21087979.469 7  82753762.150 7        41.200
 21  1  1  0  5 30.0000000  0 11G21G23G16G07G15G08G26G18G20G27G10
  23546281.617 6 123736547.153 6        40.300                    96418106.04347
        25.300    23546285.25847
  21460363.922 8 112774990.324 8        47.500    21460368.613 9  87876635.93949
        38.700    21460368.32849  21460368.590 6  84215101.192 6        39.700
  21565050.031 8 113325195.406 8        47.700                    88305279.30249
        39.600    21565053.15649
  24663600.289 5 129608099.556 5        37.300    24663604.715 5 100993325.41245
        19.000    24663603.76245
  24521275.273 2 128860203.37012        31.300    24521281.563 5 100410544.16157
        26.100    24521281.45347
  22035343.984 8 115796519.732 8        45.400    22035351.141 8  90231082.53549
        48.000    22035350.00849  22035345.770 6  86471465.796 6        38.400
  23628712.000 6 124169732.228 6        39.700    23628719.570 7  96755658.13549
        37.300    23628719.45749  23628714.711 2  92724220.278 2        31.800
  23494031.352 6 123461972.351 6        39.600    23494036.215 7  96204172.45447
        26.400    23494035.21947  23494037.023 3  92195637.253 3        33.700
  21428531.703 8 112607715.197 8        47.200                    87746276.78149
        37.900    21428534.52349
  20223300.109 9 106274180.449 9        51.500    20223306.344 9  82811077.87449
        55.200    20223305.73449  20223302.086 7  79360633.543 7        43.200
  21081937.008 9 110786331.792 9        53.300    21081943.434 9  86327044.79449
        55.200    21081942.99649  21081938.320 7  82730055.573 7        41.200
 21  1  1  0  6  0.0000000  0 11G21G23G16G07G15G08G26G18G20G27G10
  23531563.438 6 123659205.650 6        39.600                    96357839.97247
        25.400    23531566.74247
  21467297.000 9 112811421.859 9        48.000    21467301.531 9  87905024.15049
        38.600    21467300.80549  21467301.719 6  84242306.580 6        39.200
  21579816.211 8 113402793.418 8        47.800                    88365745.27049
        39.400    21579819.73849
  24667081.219 5 129626386.856 5        37.500    24667084.594 5 101007575.22046
        20.600    24667084.27346
  24524182.773 3 128875476.33813        33.300    24524187.719 5 100422445.38157
        27.900    24524187.07447
  22020859.688 8 115720405.844 8        45.400    22020866.703 8  90171773.01549
        48.200    22020865.76249  22020862.258 6  86414627.482 6        38.000
  23649390.094 6 124278395.708 6        39.700    23649397.309 6  96840330.95449
        36.800    23649396.91449  23649392.180 2  92805365.090 2        31.200
  23512013.930 6 123556469.628 6        39.000    23512019.066 7  96277806.68946
        24.900    23512018.02046  23512019.953 4  92266203.311 4        34.000
  21437043.594 8 112652446.930 8        46.700                    87781132.68149
        37.500    21437046.58249
  20220681.195 9 106260418.547 9        51.800    20220687.387 9  82800354.31549
        55.100    20220686.91049  20220683.406 7  79350356.805 7        43.200
  21076002.305 9 110755144.074 9        53.000    21076008.641 9  86302742.69149
        54.900    21076008.17249  21076003.773 7  82706766.075 7        41.500
 21  1  1  0  6 30.0000000  0 11G21G23G16G07G15G08G26G18G20G27G10
  23516882.578 6 123582057.856 6        39.900                    96297724.82146
        24.400    23516886.93046
  21474337.445 9 112848420.733 9        48.600    21474342.270 9  87933854.44449
        39.200    21474341.49649  21474342.117 6  84269935.589 6        39.400
  21594665.102 8 113480823.004 8        47.700                    88426547.54649
        39.300    21594668.24649
  24670654.047 6 129645162.555 6        38.700    24670657.242 5 101022205.63346
        20.600    24670657.21546
  24527199.664 4 128891329.43214        34.600    24527203.965 5 100434798.47957
        28.800    24527203.63347
  22006416.508 8 115644505.202 8        45.400    22006423.152 8  90112629.66349
        47.900    22006422.08649  22006418.563 6  86357948.438 6        38.400
  23670092.797 6 124387190.082 6        38.900    23670099.895 6  96925105.79049
        35.600    23670099.04749  23670096.344 3  92886607.608 3        32.100
  23530011.789 6 123651048.928 6        38.600    23530016.926 7  96351504.79347
        26.200    23530016.63347  23530017.848 3  92336830.716 3        33.900
  21445653.633 8 112697692.001 8        47.100                    87816388.57749
        37.700    21445656.39549
  20218140.461 9 106247066.329 9        51.400    20218146.727 9  82789949.98449
        55.900    20218145.89549  20218142.633 7  79340385.990 7        43.500
  21070174.063 9 110724517.285 9        52.800    21070180.336 9  86278877.66449
        55.400    21070179.89549  21070175.645 7  82683895.408 7        41.400
 21  1  1  0  7  0.0000000  0 11G21G23G16G07G15G08G26G18G20G27G10
  23502238.438 6 123505102.793 6        39.100                    96237759.85646
        23.000    23502242.52046
  21481484.977 9 112885984.164 9        48.200    21481490.004 9  87963124.64749
        38.700    21481489.30549  21481490.094 6  84297986.219 6        39.300
  21609595.078 8 113559280.526 8        47.900                    88487683.26349
        39.200    21609597.95749
  24674319.195 5 129664424.209 5        36.800    24674322.398 4 101037214.68245
        18.300    24674322.23045
  24530326.930 4 128907762.201 4        34.600    24530330.793 5 100447603.29048
        30.100    24530330.72748
  21992013.203 8 115568817.935 8        45.800    21992020.531 8  90053652.57049
        48.100    21992019.23849  21992015.918 6  86301428.713 6        38.300
  23690820.273 6 124496111.454 6        39.600    23690827.801 7  97009979.58049
        36.600    23690827.22749  23690823.918 3  92967944.994 3        33.400
  23548024.563 6 123745707.659 6        38.700    23548029.531 7  96425264.80746
        22.500    23548028.96146  23548029.965 3  92407517.389 3        33.700
  21454360.273 8 112743447.188 8        46.700                    87852041.97349
        37.400    21454363.49249
  20215677.539 9 106234123.322 9        51.600    20215683.555 9  82779864.52649
        56.000    20215683.02349  20215679.508 7  79330720.751 7        43.300
  21064452.492 9 110694450.971 9        52.600    21064458.781 9  86255449.37749
        55.000    21064458.48849  21064454.230 6  82661443.311 6        40.800
 21  1  1  0  7 30.0000000  0 11G21G23G16G07G15G08G26G18G20G27G10
  23487632.008 6 123428341.119 6        40.100                    96177945.62147
        26.100    23487634.88347
  21488740.766 8 112924110.650 8        47.500    21488745.500 9  87992833.59549
        39.000    21488744.70349  21488745.387 6  84326457.280 6        39.200
  21624605.820 9 113638163.908 9        48.000                    88549150.82249
        39.000    21624609.20749
  24678076.039 5 129684170.539 5        37.100    24678080.320 5 101052601.42645
        19.600    24678079.76645
  24533565.039 5 128924774.653 5        37.600    24533568.223 6 100460859.74648
        31.500    24533568.29748
  21977651.797 8 115493345.373 8        45.800    21977658.535 8  89994842.78349
        48.300    21977657.38749  21977653.973 6  86245069.374 6        38.100
  23711570.789 6 124605157.469 6        39.200    23711579.031 7  97094950.46049
        37.400    23711578.19149  23711574.063 2  93049375.381 2        31.700
  23566052.234 6 123840444.448 6        38.800    23566057.383 7  96499085.63746
        24.900    23566056.13746  23566057.535 3  92478262.360 3        32.800
  21463163.875 8 112789710.600 8        46.700                    87888091.37849
        37.100    21463167.09849
  20213292.438 9 106221590.430 9        51.300    20213298.820 9  82770098.63149
        55.300    20213298.16049  20213294.727 7  79321361.784 7        43.700
  21058837.992 9 110664946.028 9        53.300    21058844.273 9  86232458.52549
        55.200    21058843.99249  21058839.348 7  82639410.412 7        41.100
 21  1  1  0  8  0.0000000  0 11G21G23G16G07G15G08G26G18G20G27G10
  23473062.305 7 123351773.058 7        41.500                    96118282.22246
        24.600    23473065.02046
  21496103.039 9 112962798.661 9        48.300    21496107.246 9  88022980.10049
        39.000    21496106.99649  21496107.781 6  84355347.708 6        39.500
  21639697.656 9 113717471.152 9        48.100                    88610948.66649
        38.900    21639700.66849
  24681926.109 5 129704400.530 5        37.500    24681930.270 4 101068365.07645
        19.900    24681929.79345
  24536911.461 5 128942366.45015        36.000    24536916.246 5 100474567.65258
        30.200    24536915.78548
  21963330.914 8 115418089.281 8        45.700    21963338.039 8  89936201.67749
        48.500    21963336.71149  21963332.953 6  86188871.666 6        38.800
  23732344.617 6 124714325.552 6        39.700    23732352.270 6  97180016.49549
        35.800    23732351.56349  23732346.949 2  93130897.028 2        31.800
  23584094.828 6 123935258.115 6        38.000    23584100.336 7  96572966.41647
        25.200    23584099.45347  23584100.879 3  92549064.775 3        33.400
  21472064.102 8 112836480.898 8        46.700                    87924535.76849
        37.600    21472067.16049
  20210985.930 9 106209468.524 9        51.500    20210991.781 9  82760652.98349
        55.300    20210991.44549  20210987.969 7  79312309.698 7        43.700
  21053330.094 9 110636003.267 9        53.000    21053336.590 9  86209905.73749
        55.000    21053336.40649  21053331.895 6  82617797.320 6        40.700
 21  1  1  0  8 30.0000000  0 11G21G23G16G07G15G08G26G18G20G27G10
  23458527.961 7 123275399.302 7        41.100                    96058770.21546
        24.500    23458531.16446
  21503571.563 8 113002046.935 8        47.700    21503576.156 9  88053563.18049
        38.300    21503575.47749  21503576.406 6  84384656.480 6        39.600
  21654869.453 8 113797200.336 8        47.400                    88673075.29649
        38.600    21654872.64849
  24685868.078 5 129725112.974 5        37.300    24685871.277 5 101084504.65746
        20.400    24685870.85546
  24540369.984 5 128960537.456 5        37.500    24540374.316 5 100488726.88747
        29.800    24540374.25047
  21949051.641 8 115343051.515 8        45.700    21949058.770 8  89877730.69349
        48.700    21949057.60949  21949054.066 6  86132836.945 6        38.300
  23753141.789 6 124823613.631 6        39.400    23753149.172 6  97265176.03049
        35.400    23753147.98849  23753144.871 3  93212508.268 3        32.300
  23602151.406 5 124030147.595 5        37.800    23602157.289 7  96646906.23246
        23.900    23602156.53946  23602157.660 3  92619923.758 3        33.900
  21481060.227 8 112883756.470 8        46.300                    87961373.87549
        37.100    21481063.41849
  20208757.359 9 106197758.720 9        51.200    20208763.609 9  82751528.45749
        55.600    20208763.02749  20208759.598 7  79303565.361 7        43.500
  21047929.867 9 110607623.823 9        53.300    21047936.156 9  86187791.89349
        55.300    21047935.80949  21047931.457 6  82596604.899 6        40.600
 21  1  1  0  9  0.0000000  0 11G21G23G16G07G15G08G26G18G20G27G10
  23444031.492 7 123199220.199 7        41.300                    95999409.87446
        24.200    23444034.11746
  21511146.820 8 113041853.810 8        47.300    21511150.941 9  88084581.52949
        38.900    21511150.60249  21511151.414 6  84414382.389 6        39.200
  21670121.086 8 113877349.036 8        47.300                    88735528.81249
        39.800    21670124.34049
  24689900.797 5 129746306.587 5        37.600    24689904.836 5 101101019.09545
        19.000    24689904.44545
  24543936.602 5 128979287.457 5        36.000    24543942.215 4 100503337.28547
        27.900    24543940.89147
  21934814.617 8 115268233.777 8        46.200    21934821.246 8  89819431.16649
        48.800    21934820.21949  21934817.063 6  86076966.571 6        38.700
  23773961.156 6 124933019.019 6        39.600    23773968.879 7  97350426.99649
        36.900    23773968.25849  23773963.801 3  93294207.034 3        32.800
  23620223.773 6 124125111.512 6        39.100    23620228.063 7  96720904.04947
        26.200    23620227.15247  23620228.355 4  92690838.354 4        34.100
  21490152.453 8 112931535.482 8        46.500                    87998604.27849
        37.200    21490155.19549
  20206607.898 9 106186461.777 9        51.800    20206614.008 9  82742725.63949
        55.700    20206613.34849  20206609.609 7  79295129.330 7        43.600
  21042636.758 9 110579808.361 9        52.800    21042643.012 9  86166117.51449
        55.200    21042642.89549  21042638.410 7  82575833.602 7        41.300
 21  1  1  0  9 30.0000000  0 11G21G23G16G07G15G08G26G18G20G27G10
  23429572.188 7 123123235.867 7        41.200                    95940201.32846
        24.800    23429575.83246
  21518827.625 9 113082217.481 9        48.100    21518832.063 9  88116033.74549
        38.700    21518831.47749  21518832.480 6  84444524.109 6        39.500
  21685452.516 8 113957914.563 8        47.600                    88798307.14249
        38.800    21685455.75049
  24694024.906 6 129767979.659 6        38.600    24694028.609 5 101117907.19045
        19.900    24694028.57445
  24547616.430 5 128998616.395 5        36.700    24547619.234 3 100518398.83047
        27.500    24547619.02347
  21920619.063 8 115193637.167 8        45.900    21920625.984 8  89761303.93849
        48.800    21920624.95349  21920621.258 6  86021261.291 6        38.400
  23794801.805 6 125042539.115 6        39.100    23794809.227 7  97435767.27949
        35.900    23794808.86349  23794803.922 2  93375991.53712        31.200
  23638308.094 6 124220148.423 6        38.400    23638312.383 6  96794958.79446
        24.800    23638311.51246  23638313.086 3  92761807.428 3        33.400
  21499339.609 8 112979815.906 8        46.600                    88036225.40049
        37.100    21499342.90649
  20204536.727 9 106175578.302 9        51.200    20204543.008 9  82734245.00449
        55.600    20204542.24249  20204538.809 7  79287002.052 7        43.600
  21037451.219 9 110552557.436 9        53.000    21037457.316 9  86144883.03749
        55.000    21037457.00049  21037452.547 7  82555483.903 7        41.300
 21  1  1  0 10  0.0000000  0 11G21G23G16G07G15G08G26G18G20G27G10
  23415150.133 7 123047446.950 7        41.200                    95881145.06347
        26.000    23415154.00847
  21526614.227 8 113123136.450 8        47.700    21526618.680 9  88147918.66049
        38.000    21526617.93449  21526618.773 6  84475080.483 6        39.400
  21700862.445 8 114038895.140 8        47.900                    88861408.88449
        38.800    21700865.86349
  24698239.469 4 129790131.057 4        34.800    24698243.809 5 101135168.03045
        19.000    24698243.74645
  24551403.281 5 129018523.475 5        37.700    24551406.813 3 100533910.85847
        27.800    24551407.28147
  21906465.992 8 115119263.498 8        46.600    21906473.254 8  89703350.43749
        48.800    21906471.98449  21906468.410 6  85965722.533 6        38.300
  23815664.352 6 125152171.504 6        39.800    23815670.969 6  97521195.11449
        35.000    23815670.25449  23815665.855 1  93457859.853 1        30.100
  23656406.469 5 124315257.158 5        37.900    23656411.449 7  96869069.47046
        24.200    23656410.56346  23656412.043 3  92832830.217 3        33.400
  21508622.211 8 113028596.065 8        46.400                    88074235.90649
        37.100    21508625.29749
  20202544.555 9 106165109.265 9        52.100    20202550.840 9  82726087.30649
        55.500    20202550.10249  20202546.738 7  79279184.256 7        43.100
  21032372.711 9 110525871.942 9        52.900    21032379.207 9  86124089.15649
        55.000    21032379.00849  21032374.398 7  82535556.451 7        41.300
 21  1  1  0 10 30.0000000  0 11G21G23G16G07G15G08G26G18G20G27G10
  23400765.234 7 122971854.145 7        41.300                    95822241.57346
        23.000    23400767.69546
  21534506.109 8 113164609.234 8        47.600    21534510.762 9  88180235.11849
        38.300    21534509.95749  21534510.871 6  84506050.426 6        39.200
  21716350.891 8 114120288.298 8        47.300                    88924832.11049
        38.500    21716354.45749
  24702546.734 5 129812759.784 5        36.700    24702550.531 5 101152800.74145
        19.300    24702549.54345
  24555301.516 6 129039008.333 6        38.400    24555305.301 3 100549873.10847
        28.800    24555305.47347
  21892356.117 8 115045114.502 8        46.400    21892362.879 8  89645571.99849
        48.900    21892361.82449  21892358.043 6  85910351.554 6        38.600
  23836547.672 6 125261913.937 6        39.500    23836554.348 6  97606708.70549
        36.200    23836554.11749  23836549.883 2  93539810.31112        31.600
  23674519.102 5 124410436.672 5        37.900    23674524.168 7  96943235.29547
        25.200    23674523.04747  23674525.117 3  92903905.752 3        33.300
  21517999.906 8 113077874.619 8        46.500                    88112634.77549
        36.600    21518002.95749
  20200631.320 9 106155055.597 9        52.000    20200637.664 9  82718253.28249
        55.400    20200637.02749  20200633.465 7  79271676.661 7        43.900
  21027402.578 9 110499752.699 9        52.800    21027408.875 9  86103736.51249
        55.300    21027408.66849  21027404.184 7  82516051.831 7        41.600
 21  1  1  0 11  0.0000000  0 11G21G23G16G07G15G08G26G18G20G27G10
  23386417.281 6 122896457.500 6        40.500                    95763490.95346
        24.800    23386419.65246
  21542503.398 8 113206633.859 8        47.700    21542507.633 9  88212981.58649
        38.400    21542507.07049  21542507.840 6  84537432.471 6        39.700
  21731917.914 8 114202091.438 8        47.000                    88988574.80249
        37.700    21731920.93049
  24706942.586 5 129835863.827 5        36.300    24706947.527 5 101170803.84345
        19.900    24706946.64145
  24559310.297 6 129060070.703 6        38.400    24559313.254 4 100566285.35347
        28.600    24559313.20747
  21878289.000 8 114971191.348 8        46.700    21878295.617 8  89587969.54749
        49.100    21878294.82049  21878291.211 6  85855149.218 6        38.300
  23857451.023 6 125371763.422 6        39.600    23857458.559 7  97692305.69149
        36.100    23857458.39149  23857454.043 2  93621840.811 2        31.800
  23692643.758 6 124505685.230 6        39.800    23692649.066 7  97017454.91047
        25.600    23692648.45347  23692649.961 4  92975032.918 4        34.000
  21527471.930 8 113127649.405 8        46.500                    88151420.31949
        36.800    21527474.77349
  20198797.406 9 106145417.822 9        51.900    20198803.566 9  82710743.32549
        55.300    20198802.98449  20198799.238 7  79264479.605 7        43.600
  21022540.039 9 110474200.117 9        52.900    21022546.355 9  86083825.40849
        55.200    21022546.06649  21022541.270 7  82496970.359 7        41.400
 21  1  1  0 11 30.0000000  0 11G21G23G16G07G15G08G26G18G20G27G10
  23372106.586 6 122821257.311 6        39.400                    95704893.44747
        25.500    23372111.02747
  21550605.000 8 113249208.738 8        47.500    21550609.422 9  88246156.82249
        38.200    21550608.80149  21550609.535 6  84569225.383 6        39.600
  21747562.141 8 114284302.801 8        47.200                    89052635.60449
        37.900    21747565.15649
  24711429.555 5 129859442.084 5        36.400    24711433.988 5 101189176.46845
        19.600    24711434.09845
  24563428.570 5 129081710.096 5        37.500    24563431.652 4 100583147.26047
        28.100    24563431.29347
  21864265.336 8 114897495.665 8        46.800    21864272.344 8  89530544.34849
        49.200    21864271.04749  21864267.367 6  85800116.713 6        38.700
  23878374.398 6 125481717.777 6        38.800    23878382.027 6  97777984.38549
        35.100    23878381.62549  23878377.379 1  93703949.553 1        30.700
  23710782.539 6 124601001.828 6        39.500    23710786.438 6  97091727.55646
        22.500    23710786.15246  23710787.207 3  93046210.829 3        32.900
  21537037.289 8 113177918.587 8        46.800                    88190591.12149
        37.100    21537040.46149
  20197042.734 9 106136196.807 9        52.000    20197048.867 9  82703558.11249
        55.200    20197048.35249  20197044.789 7  79257593.782 7        43.200
  21017785.734 9 110449214.911 9        52.900    21017791.871 9  86064356.42849
        55.200    21017791.56349  21017786.977 7  82478312.592 7        41.600
 21  1  1  0 12  0.0000000  0 11G21G23G16G07G15G08G26G18G20G27G10
  23357834.586 6 122746253.867 6        40.300                    95646449.22346
        24.500    23357838.78146
  21558811.070 8 113292332.135 8        47.000    21558815.387 9  88279759.47549
        38.200    21558814.90649  21558815.582 6  84601427.938 6        39.200
  21763283.609 8 114366919.868 8        47.300                    89117012.52149
        38.600    21763286.90649
  24716007.461 5 129883493.155 5        37.400    24716010.039 5 101207917.52045
        19.600    24716010.21545
  24567656.078 5 129103925.803 5        36.900    24567659.145 5 100600458.24447
        27.000    24567658.82847
  21850284.992 8 114824028.744 8        46.400    21850291.820 8  89473297.40849
        49.300    21850290.73849  21850287.102 6  85745255.070 6        39.200
  23899317.766 6 125591774.292 6        38.900    23899325.270 6  97863742.70549
        36.400    23899324.51649  23899320.227 2  93786134.61912        31.200
  23728932.344 6 124696385.090 6        38.400    23728937.438 6  97166052.15346
        22.800    23728936.16046  23728938.422 3  93117438.557 3        32.400
  21546697.242 8 113228680.200 8        45.900                    88230145.62549
        37.100    21546700.28149
  20195367.375 9 106127393.291 9        51.200    20195373.691 9  82696698.21949
        55.600    20195373.03549  20195369.438 7  79251019.718 7        43.400
  21013139.242 9 110424797.715 9        53.800    21013145.285 9  86045330.05049
        55.100    21013145.02749  21013140.551 7  82460078.985 7        41.600
 21  1  1  0 12 30.0000000  0 11G21G23G16G07G15G08G26G18G20G27G10
  23343599.836 6 122671447.763 6        40.500                    95588158.77747
        27.500    23343603.07447
  21567121.508 9 113336002.568 9        48.000    21567125.793 9  88313788.38549
        38.700    21567125.08649  21567125.777 6  84634038.971 6        39.200
  21779082.063 8 114449940.437 8        47.000                    89181703.87549
        38.500    21779085.39149
  24720672.438 5 129908015.447 5        35.600    24720676.367 5 101227025.77745
        17.400    24720676.25045
  24571992.078 5 129126717.793 5        35.900    24571995.449 4 100618218.29747
        28.600    24571995.25447
  21836348.617 8 114750792.695 8        47.200    21836355.457 8  89416230.36449
        49.500    21836354.34449  21836350.715 6  85690565.815 6        38.800
  23920279.344 6 125701930.826 6        38.000    23920287.586 6  97949578.95549
        34.400    23920286.95749  23920283.063 2  93868394.36912        31.400
  23747096.164 6 124791834.009 6        39.000    23747101.676 7  97240427.94347
        25.300    23747100.66047  23747101.953 2  93188715.372 2        31.900
  21556450.414 8 113279932.751 8        46.300                    88270082.67149
        37.300    21556453.29349
  20193771.547 9 106119008.321 9        51.700    20193778.043 9  82690164.47549
        56.300    20193777.34449  20193773.828 7  79244758.200 7        43.700
  21008601.000 9 110400949.361 9        54.100    21008607.160 9  86026746.92549
        55.500    21008606.96549  21008602.387 7  82442270.158 7        41.700
 21  1  1  0 13  0.0000000  0 11G21G23G16G07G15G08G26G18G20G27G10
  23329402.250 7 122596839.455 7        41.600                    95530022.47747
        27.000    23329405.24247
  21575535.313 8 113380218.210 8        46.700    21575539.492 9  88348242.13049
        38.400    21575539.31349  21575540.141 6  84667057.151 6        39.700
  21794956.219 8 114533361.748 8        47.100                    89246707.47749
        37.700    21794959.77749
  24725429.195 5 129933007.434 5        37.700    24725433.402 5 101246500.04546
        21.100    24725432.64146
  24576438.539 5 129150085.50815        35.700    24576442.133 4 100636426.92657
        27.700    24576442.49647
  21822456.188 8 114677788.940 8        47.500    21822463.383 8  89359344.32749
        49.300    21822462.21149  21822458.758 6  85636050.058 6        38.900
  23941260.984 6 125812184.775 6        38.500    23941268.137 6  98035491.10449
        36.100    23941267.63749  23941263.395 2  93950726.873 2        31.200
  23765272.109 6 124887347.242 6        39.000    23765277.074 7  97314853.82846
        23.600    23765276.46146  23765277.742 3  93260040.16113        32.100
  21566296.164 8 113331674.226 8        46.900                    88310400.70649
        36.400    21566298.92249
  20192256.000 9 106111042.526 9        51.400    20192262.219 9  82683957.36649
        56.600    20192261.49649  20192258.102 7  79238809.727 7        43.400
  21004171.016 9 110377670.323 9        53.000    21004177.480 9  86008607.41749
        55.300    21004177.12149  21004172.531 6  82424886.450 6        40.900
 21  1  1  0 13 30.0000000  0 11G21G23G16G07G15G08G26G18G20G27G10
  23315242.109 7 122522428.861 7        42.400                    95472040.22547
        25.500    23315245.32847
  21584052.633 8 113424977.315 8        47.600    21584057.082 9  88383119.35849
        38.300    21584056.53149  21584057.395 6  84700481.153 6        39.400
  21810906.922 8 114617181.822 8        47.500                    89312021.80949
        38.200    21810910.00049
  24730273.547 5 129958467.614 5        37.500    24730277.742 5 101266339.11646
        20.400    24730276.98846
  24580995.359 5 129174028.225 5        36.900    24580998.766 4 100655083.60947
        27.200    24580998.59047
  21808608.594 8 114605018.998 8        47.500    21808615.719 9  89302640.48549
        49.700    21808614.52349  21808611.012 6  85581708.833 6        38.900
  23962259.578 6 125922533.629 6        38.900    23962266.617 6  98121477.20049
        35.500    23962266.59849  23962262.375 2  94033130.136 2        31.100
  23783459.273 6 124982923.581 6        38.300    23783464.801 7  97389328.89446
        22.900    23783464.00046  23783465.395 3  93331412.068 3        33.000
  21576234.883 8 113383902.950 8        46.700                    88351098.42149
        37.000    21576238.14549
  20190820.172 9 106103496.702 9        51.500    20190826.332 9  82678077.49749
        55.000    20190825.66449  20190822.234 7  79233174.872 7        43.500
  20999849.602 9 110354961.203 9        52.100    20999856.047 9  85990912.01149
        55.000    20999855.78549  20999850.828 7  82407928.376 7        41.400
 21  1  1  0 14  0.0000000  0 11G21G23G16G07G15G08G26G18G20G27G10
  23301119.602 7 122448216.391 7        42.300                    95414212.35647
        26.000    23301124.03147
  21592673.086 8 113470277.881 8        46.800    21592677.332 8  88418418.50849
        37.700    21592677.00049  21592677.742 6  84734309.511 6        39.400
  21826932.539 8 114701398.026 8        47.200                    89377644.82049
        38.000    21826935.99649
  24735208.438 5 129984394.470 5        37.800    24735211.449 5 101286541.83945
        18.300    24735211.37945
  24585659.516 4 129198545.318 4        34.700    24585664.465 5 100674187.85947
        28.300    24585664.91447
  21794805.719 8 114532484.357 8        46.300    21794812.504 8  89246119.99449
        49.400    21794811.57049  21794808.340 6  85527543.377 6        38.900
  23983276.125 6 126032974.690 6        39.500    23983282.680 6  98207535.17649
        35.300    23983281.91849  23983278.164 1  94115602.368 1        30.500
  23801658.773 6 125078561.560 6        38.200    23801663.555 7  97463851.93746
        23.900    23801663.46546  23801664.598 3  93402829.990 3        32.100
  21586266.133 8 113436616.608 8        46.900                    88392173.99849
        36.700    21586269.32049
  20189464.016 9 106096371.393 9        52.300    20189470.441 9  82672525.30749
        56.100    20189469.74649  20189466.223 7  79227854.011 7        43.700
  20995636.883 9 110332822.336 9        53.300    20995643.004 9  85973660.95949
        55.000    20995642.82449  20995637.918 7  82391396.103 7        41.300
 21  1  1  0 14 30.0000000  0 11G21G23G16G07G15G08G26G18G20G27G10
  23287035.375 6 122374202.639 6        40.500                    95356539.29947
        27.200    23287038.95347
  21601396.398 9 113516118.410 9        48.200    21601400.574 9  88454138.39949
        37.800    21601399.81649  21601401.188 6  84768541.074 6        39.400
  21843033.430 8 114786008.245 8        47.100                    89443574.86149
        38.200    21843036.76249
  24740229.570 6 130010786.587 6        38.000    24740233.527 5 101307107.08545
        19.300    24740233.50445
  24590435.227 5 129223636.190 5        36.600    24590438.898 4 100693739.21747
        28.500    24590438.78147
  21781047.922 8 114460186.993 8        46.600    21781055.215 8  89189784.38849
        49.600    21781053.84849  21781050.176 6  85473555.112 6        39.200
  24004309.281 6 126143505.699 6        39.600    24004316.027 6  98293663.24149
        36.000    24004315.84049  24004311.352 2  94198141.827 2        31.000
  23819868.914 6 125174260.225 6        38.800    23819874.516 7  97538422.31846
        23.000    23819874.00046  23819875.438 3  93474293.33113        32.200
  21596389.219 8 113489813.480 8        46.400                    88433626.10249
        36.500    21596392.35549
  20188188.680 9 106089667.589 9        51.800    20188194.754 9  82667301.55349
        55.300    20188194.03549  20188190.555 7  79222847.917 7        43.800
  20991532.820 9 110311254.468 9        53.900    20991538.773 9  85956854.84149
        55.500    20991538.48849  20991534.043 7  82375290.245 7        41.100
 21  1  1  0 15  0.0000000  0 11G21G23G16G07G15G08G26G18G20G27G10
  23272989.211 7 122300387.833 7        42.500                    95299021.32246
        24.700    23272991.83646
  21610221.891 8 113562496.958 8        47.900    21610225.934 9  88490277.53149
        38.300    21610225.38749  21610226.523 6  84803174.421 6        39.400
  21859208.805 8 114871009.736 8        47.000                    89509809.77449
        38.600    21859212.17249
  24745340.672 6 130037642.296 6        38.500    24745344.547 5 101328033.63346
        20.100    24745343.65646
  24595318.711 5 129249300.080 5        35.400    24595322.836 5 100713737.05947
        27.900    24595323.37547
  21767335.836 8 114388128.058 8        47.000    21767342.477 8  89133634.57249
        49.800    21767341.42249  21767338.117 6  85419744.850 6        38.600
  24025359.055 6 126254124.073 6        39.000    24025366.313 6  98379859.35349
        35.500    24025365.86749  24025361.906 2  94280746.363 2        31.600
  23838092.016 6 125270018.279 6        38.600    23838097.125 7  97613038.96146
        22.900    23838096.34446  23838097.441 2  93545800.905 2        31.900
  21606603.875 8 113543491.719 8        46.500                    88475453.29649
        36.500    21606606.97349
  20186993.055 9 106083385.913 9        51.600    20186999.430 9  82662406.73949
        55.800    20186998.75449  20186995.406 7  79218157.070 7        43.800
  20987537.180 9 110290258.061 9        52.200    20987543.348 9  85940494.00449
        55.700    20987542.97349  20987538.383 7  82359611.116 7        41.400
 21  1  1  0 15 30.0000000  0 11G21G23G16G07G15G08G26G18G20G27G10
  23258980.086 7 122226772.309 7        41.100                    95241658.59647
        25.900    23258984.00447
  21619149.289 8 113609411.650 8        47.600    21619153.750 9  88526834.44149
        38.100    21619153.00049  21619153.840 6  84838208.125 6        38.600
  21875458.164 8 114956400.752 8        46.700                    89576348.21349
        38.100    21875461.45349
  24750538.953 5 130064959.871 5        36.600    24750543.086 5 101349320.02845
        19.600    24750542.04345
  24600312.008 5 129275536.711 5        37.000    24600315.613 5 100734181.20447
        29.000    24600315.43447
  21753669.156 8 114316309.516 8        47.400    21753675.902 9  89077672.07549
        49.900    21753674.74249  21753671.512 6  85366114.157 6        39.000
  24046424.836 6 126364827.290 6        38.100    24046432.414 6  98466121.59549
        34.800    24046431.59449  24046427.910 1  94363414.372 1        29.800
  23856325.320 6 125365834.382 6        40.200    23856330.141 7  97687700.81846
        22.900    23856329.58646  23856330.680 3  93617351.883 3        33.100
  21616910.008 8 113597649.314 8        47.100                    88517654.03249
        36.700    21616912.63349
  20185878.016 9 106077527.022 9        51.900    20185884.391 9  82657841.36949
        56.100    20185883.98849  20185880.367 7  79213781.918 7        43.200
  20983650.398 9 110269833.420 9        53.400    20983656.781 9  85924578.71549
        55.300    20983656.27749  20983651.523 7  82344358.975 7        41.000
 21  1  1  0 16  0.0000000  0 11G21G23G16G07G15G08G26G18G20G27G10
  23245009.992 6 122153356.322 6        40.600                    95184451.37047
        25.300    23245013.48447
  21628178.461 8 113656860.686 8        47.200    21628182.957 8  88563807.71349
        38.600    21628182.35549  21628183.027 6  84873640.830 6        39.200
  21891781.180 8 115042178.470 8        46.900                    89643187.99149
        38.300    21891784.49249
  24755824.781 5 130092737.741 5        37.700    24755828.145 4 101370965.05045
        17.800    24755828.14145
  24605413.320 5 129302345.444 5        37.300    24605417.348 5 100755071.13147
        29.300    24605417.07447
  21740048.664 8 114244732.649 8        47.200    21740055.477 9  89021897.89249
        50.000    21740054.40649  21740050.957 6  85312663.868 6        39.300
  24067505.648 5 126475612.869 5        36.900    24067514.102 6  98552448.02748
        32.600    24067513.14848  24067508.910 1  94446143.829 1        29.500
  23874568.906 6 125461707.443 6        39.500    23874573.965 7  97762407.08446
        23.300    23874573.82846  23874574.762 3  93688945.366 3        32.700
  21627305.820 8 113652284.439 8        46.000                    88560226.86049
        36.600    21627309.22749
  20184844.078 9 106072091.723 9        51.700    20184850.188 9  82653606.07549
        55.200    20184849.59449  20184845.902 7  79209723.091 7        43.500
  20979872.625 9 110249981.117 9        54.100    20979878.621 9  85909109.40149
        55.000    20979878.69149  20979873.918 7  82329534.217 7        41.400
 21  1  1  0 16 30.0000000  0 11G21G23G16G07G15G08G26G18G20G27G10
  23231077.297 7 122080140.317 7        41.900                    95127399.97547
        26.300    23231080.25447
  21637308.984 8 113704842.316 8        47.900    21637313.398 9  88601195.99949
        38.500    21637313.38349  21637313.586 6  84909471.261 6        38.600
  21908177.055 8 115128340.441 8        46.800                    89710327.18549
        37.700    21908180.39149
  24761198.344 5 130120974.613 5        36.500    24761201.414 3 101392967.84845
        16.900    24761200.77045
  24610623.609 5 129329725.337 5        37.500    24610627.730 5 100776406.13048
        30.200    24610627.60948
  21726474.195 8 114173399.355 8        47.300    21726481.402 9  88966313.52149
        50.200    21726480.23049  21726476.566 6  85259395.525 6        39.300
  24088603.344 6 126586478.471 6        38.300    24088611.746 6  98638836.76849
        34.800    24088610.84849  24088607.074 2  94528933.039 2        31.400
  23892823.578 6 125557636.331 6        40.300    23892828.598 6  97837156.83546
        22.600    23892828.09446  23892829.191 3  93760580.489 3        32.200
  21637793.570 8 113707395.225 8        46.600                    88603170.32749
        36.000    21637796.75049
  20183890.547 9 106067080.811 9        52.300    20183896.539 9  82649701.47149
        55.800    20183896.12949  20183892.570 7  79205981.170 7        43.400
  20976203.820 9 110230701.667 9        53.100    20976209.902 9  85894086.45749
        55.700    20976209.78949  20976204.918 7  82315137.224 7        41.300
 21  1  1  0 17  0.0000000  0 11G21G23G16G07G15G08G26G18G20G27G10
  23217182.570 7 122007124.349 7        41.100                    95070504.43647
        26.100    23217186.25847
  21646540.703 8 113753354.405 8        47.600    21646544.855 9  88638997.62549
        38.100    21646544.47749  21646545.473 6  84945697.838 6        38.900
  21924646.016 8 115214884.301 8        47.200                    89777763.94949
        37.700    21924649.18449
  24766658.406 5 130149668.916 5        35.400    24766662.762 4 101415327.01045
        17.800    24766661.76645
  24615941.883 5 129357675.397 5        37.700    24615946.617 5 100798185.42348
        31.500    24615946.33248
  21712946.625 8 114102310.807 8        47.000    21712953.691 9  88910919.85649
        50.200    21712952.43449  21712948.523 6  85206309.912 6        39.000
  24109715.047 6 126697421.305 6        38.100    24109723.086 6  98725285.72249
        34.000    24109722.77349  24109718.789 2  94611779.957 2        31.700
  23911088.602 6 125653619.633 6        39.900    23911093.320 6  97911949.00946
        22.800    23911093.21146  23911093.328 2  93832256.374 2        31.000
  21648370.875 8 113762979.417 8        46.800                    88646482.69049
        36.800    21648374.25449
  20183017.703 9 106062494.721 9        52.100    20183023.844 9  82646127.89149
        55.200    20183023.32049  20183019.633 7  79202556.493 7        43.700
  20972643.953 9 110211995.210 9        53.300    20972650.242 9  85879510.01449
        55.200    20972650.20349  20972645.172 7  82301168.112 7        42.000
 21  1  1  0 17 30.0000000  0 11G21G23G16G07G15G08G26G18G20G27G10
  23203326.102 7 121934309.237 7        41.600                    95013765.42247
        26.900    23203330.38747
  21655872.680 8 113802395.583 8        47.800    21655877.391 9  88677211.53549
        37.700    21655876.42649  21655877.500 6  84982319.498 6        38.900
  21941186.727 8 115301807.956 8        46.700                    89845496.66249
        37.200    21941190.15249
  24772206.781 5 130178818.879 5        37.200    24772209.344 3 101438041.25745
        17.400    24772208.82845
  24621369.531 6 129386195.667 6        38.100    24621374.285 5 100820409.03948
        30.500    24621373.39548
  21699465.531 8 114031469.157 8        47.900    21699472.852 9  88855718.56949
        50.200    21699471.68049  21699468.098 6  85153408.674 6        39.300
  24130842.125 6 126808439.414 6        39.200    24130848.895 6  98811793.31749
        35.000    24130848.34049  24130843.684 1  94694683.085 1        29.500
  23929363.836 6 125749656.596 6        39.200    23929369.199 6  97986782.99346
        22.300    23929368.38746  23929369.188 2  93903972.25012        31.300
  21659038.008 8 113819035.547 8        46.300                    88690162.78349
        35.800    21659041.41049
  20182225.922 9 106058334.669 9        51.500    20182232.430 9  82642886.29749
        55.900    20182231.59849  20182228.293 7  79199449.974 7        43.800
  20969193.711 9 110193862.646 9        53.700    20969199.547 9  85865380.74849
        55.200    20969199.43449  20969194.766 7  82287627.603 7        41.100
 21  1  1  0 18  0.0000000  0 11G21G23G16G07G15G08G26G18G20G27G10
  23189508.711 7 121861694.710 7        41.500                    94957182.70747
        27.000    23189512.25447
  21665305.563 8 113851963.568 8        47.500    21665309.813 9  88715835.94249
        38.200    21665309.36349  21665309.676 6  85019334.549 6        38.400
  21957799.523 8 115389108.382 8        46.600                    89913522.95749
        37.200    21957802.97749
  24777839.117 5 130208422.535 5        35.200    24777842.727 5 101461109.05545
        16.900    24777842.52345
  24626905.922 6 129415285.017 6        38.200    24626908.516 5 100843076.06647
        29.800    24626908.78947
  21686032.297 9 113960875.992 9        48.200    21686039.289 8  88800710.90849
        50.300    21686038.12149  21686034.566 6  85100693.028 6        39.400
  24151981.320 6 126919529.899 6        38.400    24151988.543 6  98898357.34449
        35.300    24151988.38349  24151983.691 1  94777640.22711        30.100
  23947649.008 6 125845745.773 6        39.300    23947654.906 7  98061657.62746
        22.800    23947653.82846  23947654.883 3  93975727.141 3        32.000
  21669794.766 8 113875561.195 8        46.200                    88734208.75049
        36.700    21669797.57849
  20181515.109 9 106054601.005 9        51.000    20181521.527 9  82639976.93949
        55.700    20181521.23049  20181517.852 7  79196661.842 7        43.800
  20965852.453 9 110176303.955 9        54.500    20965858.473 9  85851698.66649
        55.000    20965858.19549  20965853.664 7  82274515.617 7        41.400
 21  1  1  0 18 30.0000000  0 11G21G23G16G07G15G08G26G18G20G27G10
  23175728.656 7 121789281.171 7        42.000                    94900756.61747
        27.800    23175732.16847
  21674837.727 8 113902056.244 8        47.900    21674842.246 8  88754869.19849
        38.000    21674841.35549  21674842.250 6  85056741.450 6        38.500
  21974483.758 8 115476783.319 8        46.900                    89981841.08049
        37.700    21974487.11349
  24783558.695 5 130238478.218 5        35.700    24783562.313 4 101484529.00345
        16.900    24783562.02345
  24632547.695 5 129444942.143 5        37.200    24632551.914 4 100866185.51747
        29.400    24632551.80547
  21672646.188 9 113890532.206 9        48.200    21672653.273 9  88745897.57249
        50.200    21672652.36349  21672648.746 6  85048163.591 6        39.400
  24173134.500 6 127030690.172 6        38.300    24173142.270 6  98984975.73649
        36.100    24173142.03149  24173137.449 2  94860649.47112        31.400
  23965944.234 6 125941885.759 6        38.600    23965948.742 6  98136571.86146
        22.500    23965948.70746  23965950.098 3  94047519.896 3        32.100
  21680639.836 8 113932554.427 8        46.100                    88778619.05849
        36.400    21680642.88749
  20180886.273 9 106051294.192 9        51.500    20180892.492 9  82637400.20249
        55.500    20180891.98449  20180888.375 7  79194192.464 7        43.400
  20962620.266 9 110159319.331 9        53.600    20962626.395 9  85838463.90049
        55.000    20962626.04749  20962621.535 7  82261832.295 7        41.300
 21  1  1  0 19  0.0000000  0 11G21G23G16G07G15G08G26G18G20G27G10
  23161987.625 7 121717069.080 7        41.300                    94844487.49447
        27.800    23161990.91447
  21684469.570 8 113952672.104 8        47.500    21684473.961 8  88794310.12849
        38.100    21684473.14849  21684474.520 6  85094539.002 6        38.900
  21991238.297 8 115564830.271 8        46.800                    90050449.08849
        37.000    21991241.68849
  24789363.953 5 130268984.381 5        36.100    24789366.906 4 101508300.06145
        16.300    24789366.63745
  24638299.867 5 129475167.172 5        36.300    24638303.375 4 100889737.52447
        28.600    24638303.20747
  21659307.977 8 113820440.312 8        46.900    21659315.559 8  88691280.52949
        50.100    21659314.17249  21659310.367 6  84995822.261 6        39.400
  24194300.672 6 127141918.144 6        38.300    24194308.063 6  99071646.84349
        34.100    24194307.72749  24194303.156 1  94943709.362 1        29.600
  23984248.609 6 126038075.754 6        38.100    23984253.375 6  98211525.10846
        21.300    23984252.84046  23984254.113 2  94119350.12812        31.900
  21691574.148 8 113990013.142 8        46.400                    88823392.08349
        36.600    21691577.00849
  20180338.422 9 106048415.322 9        51.200    20180344.813 9  82635156.93149
        55.600    20180344.10549  20180340.566 7  79192042.671 7        43.100
  20959497.617 9 110142909.434 9        53.800    20959503.684 9  85825676.98949
        55.200    20959503.40649  20959498.855 7  82249578.151 7        41.600
 21  1  1  0 19 30.0000000  0 11G21G23G16G07G15G08G26G18G20G27G10
  23148284.656 7 121645058.692 7        42.700                    94788375.50947
        28.200    23148287.81647
  21694200.531 8 114003809.001 8        47.600    21694204.953 9  88834157.06249
        38.000    21694204.44949  21694205.148 6  85132725.646 6        39.200
  22008063.422 8 115653247.344 8        47.000                    90119345.49749
        36.600    22008066.94149
  24795253.688 5 130299939.363 5        35.300    24795258.270 4 101532420.83245
        16.300    24795256.77045
  24644158.938 4 129505958.686 4        34.700    24644162.813 4 100913730.96947
        25.600    24644162.30147
  21646018.703 8 113750601.634 8        47.300    21646025.176 9  88636860.78849
        50.400    21646024.32049  21646019.992 6  84943669.988 6        39.700
  24215478.938 6 127253211.080 6        39.200    24215486.070 6  99158368.62548
        33.400    24215485.05148  24215480.699 1  95026817.70811        29.600
  24002562.383 6 126134314.519 6        38.300    24002567.066 6  98286516.31846
        22.600    24002565.96146  24002567.867 2  94191216.707 2        31.300
  21702596.531 8 114047935.688 8        46.200                    88868526.53149
        36.000    21702598.97749
  20179872.453 9 106045964.870 9        52.100    20179878.320 9  82633247.48649
        55.300    20179877.88349  20179873.965 7  79190212.786 7        43.800
  20956484.109 9 110127074.403 9        53.600    20956490.184 9  85813338.00349
        55.400    20956490.28549  20956485.422 7  82237753.303 7        41.300
 21  1  1  0 20  0.0000000  0 11G21G23G16G07G15G08G26G18G20G27G10
  23134619.680 7 121573250.276 7        42.700                    94732420.92947
        27.700    23134622.09447
  21704030.289 8 114055465.013 8        47.100    21704034.934 9  88874408.50049
        37.600    21704034.36349  21704035.195 6  85171299.930 6        38.700
  22024959.008 8 115742031.543 8        46.700                    90188527.99049
        36.900    22024961.85949
  24801229.938 5 130331341.403 5        36.900    24801233.621 5 101556889.91446
        20.100    24801233.30146
  24650126.141 3 129537315.920 3        33.700    24650129.805 5 100938165.22147
        26.100    24650130.21547
  21632777.352 8 113681017.664 8        47.300    21632783.785 9  88582639.52549
        50.500    21632782.80949  21632778.781 6  84891707.950 6        40.000
  24236667.977 5 127364566.601 5        37.900    24236677.055 6  99245139.16348
        33.900    24236676.71148  24236672.227 1  95109972.85111        30.500
  24020884.703 6 126230600.835 6        38.200    24020890.027 6  98361544.62346
        22.800    24020889.32046  24020890.480 2  94263118.817 2        31.700
  21713705.883 8 114106319.745 8        46.100                    88914020.60249
        36.000    21713709.39149
  20179487.492 9 106043943.525 9        52.700    20179493.660 9  82631672.40449
        55.700    20179493.13349  20179489.613 7  79188703.319 7        43.600
  20953580.352 9 110111814.556 9        53.700    20953586.438 9  85801447.23149
        55.500    20953586.14849  20953581.477 7  82226357.986 7        41.700
 21  1  1  0 20 30.0000000  0 11G21G23G16G07G15G08G26G18G20G27G10
  23120993.102 7 121501644.059 7        42.100                    94676623.91547
        26.900    23120995.91047
  21713958.391 8 114107638.185 8        47.000    21713962.809 9  88915062.91349
        38.100    21713962.40649  21713963.488 6  85210260.409 6        39.200
  22041923.055 8 115831180.603 8        46.600                    90257994.78449
        36.600    22041926.51249
  24807289.586 4 130363188.762 4        34.800    24807294.176 5 101581705.95545
        18.300    24807293.68845
  24656200.359 5 129569237.941 5        35.000    24656204.805 5 100963039.55947
        27.300    24656203.96947
  21619584.367 8 113611690.331 8        47.000    21619591.664 9  88528618.23049
        50.700    21619590.22349  21619586.766 6  84839937.578 6        39.400
  24257871.008 6 127475982.318 6        38.600    24257878.504 6  99331956.54349
        34.800    24257878.62149  24257874.477 2  95193172.810 2        31.500
  24039216.430 6 126326933.655 6        38.500    24039221.219 7  98436609.12146
        21.700    24039220.99646  24039222.531 3  94335055.617 3        32.800
  21724903.992 8 114165163.469 8        46.600                    88959872.84749
        36.200    21724907.05949
  20179184.977 9 106042352.005 9        52.500    20179190.879 9  82630432.26249
        55.000    20179190.29349  20179186.582 7  79187514.852 7        43.000
  20950785.953 9 110097130.136 9        53.500    20950792.051 9  85790004.83649
        55.000    20950791.73049  20950787.082 6  82215392.368 6        40.900
 21  1  1  0 21  0.0000000  0 11G21G23G16G07G15G08G26G18G20G27G10
  23107405.688 7 121430240.430 7        41.900                    94620984.74447
        28.600    23107408.82447
  21723984.703 8 114160326.743 8        46.800    21723989.156 8  88956118.92649
        37.600    21723988.69549  21723989.426 6  85249605.779 6        38.900
  22058956.969 8 115920692.287 8        47.200                    90327744.14249
        37.000    22058959.96949
  24813434.664 5 130395479.685 5        35.400    24813438.547 4 101606867.71145
        16.900    24813438.71145
  24662383.008 5 129601724.365 5        36.700    24662387.141 4 100988353.67647
        27.800    24662386.37547
  21606440.703 8 113542621.172 8        47.300    21606447.773 9  88474798.11049
        50.700    21606446.75049  21606443.602 6  84788359.980 6        40.000
  24279083.594 6 127587455.853 6        38.600    24279090.816 6  99418819.06249
        34.100    24279089.76249  24279086.078 1  95276416.02211        29.800
  24057556.742 6 126423312.040 6        38.400    24057561.383 6  98511709.14746
        22.500    24057561.25846  24057562.543 2  94407026.426 2        31.700
  21736188.703 8 114224465.165 8        46.300                    89006081.96549
        35.800    21736191.86749
  20178963.711 9 106041191.151 9        51.900    20178969.891 9  82629527.69949
        56.300    20178969.48449  20178965.914 7  79186647.989 7        43.400
  20948101.633 9 110083021.635 9        53.500    20948107.258 9  85779011.20749
        54.900    20948107.11749  20948102.480 7  82204856.818 7        41.700
 21  1  1  0 21 30.0000000  0 11G21G23G16G07G15G08G26G18G20G27G10
  23093856.633 7 121359039.520 7        42.200                    94565503.56547
        28.100    23093859.54747
  21734108.914 8 114213528.393 8        47.200    21734113.406 8  88997574.76749
        37.900    21734112.56349  21734113.371 5  85289334.288 5        37.900
  22076058.727 8 116010563.535 8        46.600                    90397773.68049
        37.300    22076062.08249
  24819663.609 5 130428212.205 5        36.700    24819667.164 4 101632373.48445
        15.600    24819667.10245
  24668672.469 6 129634773.727 6        38.000    24668675.852 4 101014106.42247
        28.000    24668675.18847
  21593346.859 8 113473811.444 8        46.800    21593354.000 9  88421180.16249
        50.800    21593352.76249  21593349.563 6  84736976.099 6        39.500
  24300306.211 5 127698984.545 5        37.300    24300314.949 6  99505724.53848
        33.500    24300314.04348  24300308.910 1  95359700.47511        29.300
  24075905.797 6 126519734.634 6        39.400    24075909.980 6  98586843.61946
        22.300    24075909.24246  24075910.555 3  94479030.288 3        32.100
  21747560.602 8 114284222.230 8        46.700                    89052645.90749
        35.700    21747563.03949
  20178824.727 9 106040461.313 9        52.300    20178831.129 9  82628958.99249
        55.300    20178830.57849  20178826.906 7  79186102.969 7        43.700
  20945526.133 9 110069488.946 9        53.000    20945532.031 9  85768466.25849
        55.400    20945531.84849  20945527.469 7  82194751.249 7        41.700
 21  1  1  0 22  0.0000000  0 11G21G23G16G07G15G08G26G18G20G27G10
  23080345.992 7 121288041.775 7        42.900                    94510180.67247
        27.900    23080349.10247
  21744329.906 8 114267241.094 8        46.700    21744334.410 8  89039428.83349
        36.900    21744333.80949  21744334.629 6  85329444.402 6        38.500
  22093228.195 8 116100791.590 8        46.900                    90468081.25049
        36.400    22093231.98449
  24825976.367 5 130461384.482 5        36.800    24825979.824 3 101658222.03245
        16.900    24825980.01645
  24675067.875 5 129668385.143 5        37.600    24675071.699 3 101040297.13447
        29.100    24675071.19147
  21580302.773 8 113405262.944 8        47.000    21580309.684 9  88367765.74649
        50.900    21580308.43449  21580304.926 6  84685787.290 6        39.900
  24321540.328 6 127810565.884 6        38.800    24321547.891 6  99592670.99349
        35.500    24321547.95749  24321543.242 1  95443024.19811        30.900
  24094262.664 6 126616200.194 6        39.600    24094267.348 7  98662011.58346
        23.400    24094266.47746  24094266.922 2  94551066.26212        31.300
  21759018.227 8 114344432.565 8        46.000                    89099563.04949
        35.900    21759020.69149
  20178768.055 9 106040163.098 9        51.800    20178774.410 9  82628726.60749
        55.200    20178773.92649  20178770.191 7  79185880.266 7        43.900
  20943060.641 9 110056532.220 9        53.400    20943066.660 9  85758370.12449
        55.200    20943066.39149  20943061.555 7  82185075.769 7        41.800
 21  1  1  0 22 30.0000000  0 11G21G23G16G07G15G08G26G18G20G27G10
  23066874.156 7 121217247.129 7        43.900                    94455016.02747
        27.400    23066877.01647
  21754648.609 8 114321462.868 8        46.300    21754652.281 8  89081679.55849
        37.500    21754651.88749  21754652.992 6  85369934.687 6        38.500
  22110465.609 8 116191374.755 8        47.500                    90538665.52549
        36.800    22110469.39149
  24832372.508 5 130494994.962 5        35.300    24832375.996 3 101684412.08944
        14.800    24832375.72344
  24681570.414 5 129702557.746 5        37.700    24681574.875 5 101066925.14847
        28.200    24681574.85247
  21567308.211 8 113336977.376 8        47.200    21567315.152 9  88314556.22249
        51.200    21567314.21549  21567310.828 6  84634794.832 6        39.400
  24342782.578 5 127922197.436 5        37.600    24342790.125 6  99679656.61948
        32.300    24342790.03548  24342785.777 1  95526385.383 1        30.900
  24112626.461 6 126712707.730 6        39.500    24112632.004 7  98737212.23546
        23.600    24112631.68046  24112632.527 3  94623133.546 3        32.100
  21770561.117 8 114405094.276 8        45.900                    89146831.91149
        35.200    21770564.43049
  20178793.648 9 106040297.196 9        52.900    20178799.742 9  82628831.09649
        55.700    20178799.34449  20178795.676 7  79185980.420 7        43.400
  20940704.445 9 110044151.678 9        53.200    20940710.605 9  85748722.95549
        55.000    20940710.48049  20940705.672 7  82175830.564 7        41.800
 21  1  1  0 23  0.0000000  0 11G21G23G16G07G15G08G26G18G20G27G10
  23053440.813 7 121146656.070 7        43.000                    94400010.03247
        28.600    23053444.42247
  21765062.656 8 114376191.407 8        47.500    21765066.996 8  89124325.16949
        37.900    21765066.52749  21765067.484 6  85410803.411 6        38.600
  22127770.172 8 116282310.222 8        47.100                    90609524.32349
        36.500    22127773.72749
  24838850.594 3 130529041.551 3        32.400    24838854.695 3 101710941.81745
        15.600    24838854.12945
  24688180.406 5 129737289.988 5        37.400    24688184.348 5 101093989.25047
        28.800    24688184.24647
  21554364.586 8 113268955.793 8        47.400    21554371.297 9  88261552.39249
        51.200    21554369.87949  21554366.668 6  84583999.481 6        39.900
  24364034.820 5 128033876.533 5        36.700    24364041.641 6  99766679.25248
        31.200    24364041.25048  24364037.168 1  95609782.06111        28.900
  24130999.375 6 126809255.892 6        38.700    24131004.551 7  98812444.50846
        22.900    24131003.77046  24131004.816 2  94695231.183 2        31.700
  21782189.914 8 114466205.020 8        46.400                    89194450.67149
        35.900    21782193.61749
  20178901.578 9 106040863.988 9        52.800    20178907.680 9  82629272.75649
        55.400    20178907.07049  20178903.617 7  79186403.677 7        44.100
  20938458.148 9 110032347.239 9        52.900    20938464.203 9  85739524.70149
        55.400    20938464.14149  20938459.430 7  82167015.560 7        41.200
 21  1  1  0 23 30.0000000  0 11G21G23G16G07G15G08G26G18G20G27G10
  23040047.055 7 121076268.904 7        42.600                    94345162.91547
        27.700    23040050.17647
  21775572.852 8 114431424.950 8        46.300    21775577.695 9  89167364.29849
        37.300    21775576.94549  21775577.988 6  85452049.228 6        38.700
  22145141.234 8 116373595.280 8        46.600                    90680655.53349
        36.000    22145144.37549
  24845412.023 3 130563522.34113        32.500    24845415.781 3 101737809.90453
        13.900    24845416.00043
  24694896.406 5 129772581.218 5        37.400    24694900.246 5 101121488.94447
        29.000    24694899.52347
  21541470.758 8 113201200.828 8        47.300    21541477.828 9  88208756.31849
        51.000    21541476.52349  21541473.012 6  84533403.243 6        39.400
  24385295.617 5 128145600.956 5        37.100    24385302.707 6  99853737.26748
        32.600    24385301.58648  24385296.484 1  95693212.68211        28.000
  24149379.406 6 126905843.846 6        38.600    24149384.051 6  98887707.81346
        23.000    24149383.44946  24149385.309 3  94767358.52813        32.700
  21793904.156 8 114527762.682 8        46.100                    89242417.67749
        35.300    21793907.68449
  20179091.688 9 106041864.310 9        51.300    20179098.180 9  82630052.22049
        55.800    20179097.44549  20179094.051 7  79187150.666 7        43.600
  20936321.555 9 110021119.277 9        53.000    20936327.457 9  85730775.64549
        54.900    20936327.57049  20936322.801 7  82158631.057 7        41.800
 21  1  1  0 24  0.0000000  0 11G21G23G16G07G15G08G26G18G20G27G10
  23026692.180 8 121006086.224 8        45.200                    94290475.12247
        29.300    23026695.52047
  21786179.266 8 114487161.967 8        47.100    21786183.910 8  89210795.74149
        37.500    21786183.35249  21786184.051 6  85493671.013 6        38.600
  22162578.398 8 116465228.154 8        46.800                    90752057.76649
        35.900    22162582.08249
  24852056.953 4 130598436.114 4        34.200    24852061.070 4 101765015.40545
        16.300    24852059.63345
  24701718.227 6 129808431.071 6        38.600    24701721.941 4 101149423.94747
        29.500    24701721.16847
  21528628.688 8 113133714.416 8        47.400    21528635.496 9  88156169.51149
        51.200    21528634.26249  21528630.945 6  84483007.556 6        39.700
  24406563.297 5 128257368.869 5        37.000    24406572.051 6  99940829.12149
        34.000    24406571.40249
  24167767.172 6 127002471.049 6        38.400    24167772.180 6  98963001.74746
        21.800    24167770.91846  24167773.375 2  94839515.134 2        31.700
  21805703.414 8 114589765.956 8        46.100                    89290731.90849
        35.500    21805706.06649
  20179364.844 9 106043299.367 9        52.000    20179371.129 9  82631170.43749
        56.100    20179370.47749  20179366.969 7  79188222.274 7        43.700
  20934294.781 9 110010468.452 9        53.200    20934300.805 9  85722476.31049
        55.400    20934300.77049  20934295.844 7  82150677.545 7        41.600
 21  1  1  0 24 30.0000000  0 11G21G23G16G07G15G08G26G18G20G27G10
  23013375.516 7 120936107.651 7        44.300                    94235946.36247
        29.900    23013379.07847
  21796881.539 8 114543399.685 8        46.800    21796885.699 8  89254617.33549
        37.400    21796884.75449  21796885.660 5  85535666.733 5        37.900
  22180081.156 8 116557205.376 8        47.300                    90823728.31549
        36.600    22180084.68449
  24858782.133 3 130633780.190 3        32.500    24858786.965 5 101792556.23445
        15.600    24858785.52345
  24708645.797 5 129844837.936 5        37.300    24708649.992 5 101177792.91748
        30.400    24708650.82448
  21515837.523 8 113066497.554 8        47.200    21515844.621 9  88103792.73349
        51.200    21515843.53149  21515839.656 6  84432813.155 6        39.800
  24427840.516 5 128369177.095 5        37.200    24427847.934 5 100027952.35348
        32.600    24427846.94548  24427844.152 2  95860175.76812        31.400
  24186161.516 5 127099135.739 5        37.200    24186166.973 6  99038324.86846
        21.300    24186166.15246  24186167.281 2  94911699.757 2        31.800
  21817586.055 8 114652212.246 8        46.400                    89339391.36249
        35.400    21817589.35549
  20179720.758 9 106045168.977 9        53.000    20179726.883 9  82632627.26849
        55.400    20179726.28549  20179722.906 7  79189618.435 7        43.500
  20932377.852 9 110000394.085 9        52.300    20932383.707 9  85714626.15749
        55.000    20932383.82849  20932379.059 7  82143154.482 7        41.700
 21  1  1  0 25  0.0000000  0 11G21G23G16G07G15G08G26G18G20G27G10
  23000097.109 7 120866333.029 7        43.400                    94181576.54747
        29.000    23000099.85547
  21807677.711 9 114600135.577 9        48.000    21807682.203 8  89298827.11549
        37.700    21807681.39849  21807682.398 6  85578034.440 6        38.300
  22197649.094 8 116649523.967 8        47.300                    90895664.87549
        36.500    22197652.46949
  24865588.461 2                        31.200    24865593.906 3 101820435.68513
        12.600    24865593.16842
  24715679.922 6 129881800.177 6        39.400    24715684.293 5 101206594.66348
        30.400    24715684.25048
  21503098.094 8 112999551.614 8        47.300    21503105.094 9  88051627.08049
        51.200    21503104.19149  21503100.625 6  84382821.072 6        39.900
  24449123.281 6 128481022.706 6        38.000    24449130.203 5 100115104.82248
        31.400    24449128.91048  24449124.840 1  95943696.82611        27.600
  24204563.750 5 127195836.439 5        37.100    24204568.926 6  99113675.98946
        22.000    24204568.50446  24204568.434 1  94983911.304 1        30.700
  21829553.461 8 114715099.144 8        46.500                    89388394.14049
        35.100    21829556.38749
  20180159.438 9 106047473.364 9        52.800    20180165.387 9  82634422.89149
        55.100    20180164.68449  20180161.332 7  79191339.210 7        43.400
  20930570.406 9 109990895.886 9        52.800    20930576.172 9  85707224.97749
        55.500    20930576.21549  20930571.645 7  82136061.689 7        41.700
 21  1  1  0 25 30.0000000  0 11G21G23G16G07G15G08G26G18G20G27G10
  22986858.602 7 120796764.150 7        42.200                    94127367.08847
        28.000    22986861.49247
  21818568.992 8 114657368.694 8        46.700    21818573.410 9  89343424.35349
        37.500    21818572.75849  21818573.344 6  85620773.472 6        38.200
  22215281.180 8 116742182.582 8        46.500                    90967866.38549
        36.600    22215284.50449
  24872477.453 2 130705752.402 2        31.000    24872481.496 1 101848638.39953
        13.900    24872481.41443
  24722818.273 5 129919317.981 5        36.900    24722823.289 5 101235829.28047
        29.100    24722822.26247
  21490410.602 8 112932878.576 8        47.300    21490417.578 9  87999674.06549
        51.300    21490416.57049  21490413.113 6  84333032.772 6        39.900
  24470413.586 5 128592904.428 5        37.900    24470422.117 6 100202285.42448
        33.900    24470421.70348
  24222971.586 5 127292573.188 5        36.800    24222976.531 6  99189055.20946
        20.900    24222976.59446  24222977.145 2  95056149.773 2        31.700
  21841603.867 8 114778425.113 8        46.100                    89437739.04449
        35.500    21841606.89549
  20180680.805 9 106050214.295 9        52.800    20180687.066 9  82636558.67649
        55.900    20180686.52349  20180682.980 7  79193385.994 7        44.000
  20928872.688 9 109981974.992 9        53.000    20928878.801 9  85700273.64449
        55.000    20928878.52349  20928873.797 7  82129399.988 7        41.600
 21  1  1  0 26  0.0000000  0 11G21G23G16G07G15G08G26G18G20G27G10
  22973659.102 7 120727400.155 7        42.800                    94073317.24347
        28.900    22973662.79347
  21829554.422 8 114715096.369 8        46.600    21829558.344 8  89388406.95549
        36.400    21829557.96949  21829558.820 6  85663881.795 6        38.200
  22232977.555 8 116835178.774 8        46.300                    91040330.94149
        35.800    22232980.87949
  24879446.813 3 130742377.320 3        33.000    24879451.629 3 101877177.27543
        13.900    24879450.78143
  24730062.461 5 129957389.502 5        36.600    24730067.145 4 101265495.47347
        27.600    24730066.15247
  21477775.430 8 112866480.492 8        47.200    21477782.492 9  87947935.29349
        51.300    21477781.38749  21477777.988 6  84283449.786 6        40.800
  24491711.156 5 128704819.398 5        36.500    24491718.727 6 100289491.79648
        33.700    24491718.45348  24491714.645 2  96110817.80912        31.700
  24241386.930 5 127389344.446 5        36.200    24241391.332 6  99264461.38745
        19.000    24241390.24645  24241392.352 3  95128413.978 3        32.300
  21853737.406 8 114842187.668 8        45.500                    89487424.15349
        35.100    21853740.54749
  20181285.828 9 106053391.759 9        52.400    20181291.664 9  82639034.61449
        55.500    20181291.16449  20181287.707 7  79195758.761 7        43.500
  20927284.797 9 109973630.904 9        53.300    20927290.961 9  85693771.76449
        54.900    20927290.71149  20927286.117 7  82123169.025 7        41.800
 21  1  1  0 26 30.0000000  0 11G21G23G16G07G15G08G26G18G20G27G10
  22960498.664 7 120658241.731 7        43.200                    94019427.58247
        28.700    22960502.53547
  21840632.992 8 114773316.630 8        46.900    21840637.289 8  89433773.39249
        38.100    21840636.85949  21840637.902 6  85707357.967 6        38.300
  22250738.563 8 116928509.943 8        46.500                    91113056.52949
        35.900    22250741.46149
  24886497.781 5 130779425.191 5        36.400    24886500.496 3 101906045.82245
        15.600    24886501.12145
  24737412.000 4 129996013.858 4        34.500    24737416.836 3 101295592.39047
        25.600    24737416.41447
  21465193.180 8 112800358.680 8        47.400    21465200.008 9  87896411.80549
        51.700    21465199.02349  21465195.441 6  84234073.103 6        39.900
  24513013.859 6 128816765.198 6        38.100    24513020.293 5 100376722.31548
        31.800    24513019.89148  24513016.777 1  96194413.621 1        30.500
  24259808.156 5 127486149.220 5        35.400    24259812.738 5  99339893.73145
        17.800    24259811.78945  24259814.039 3  95200703.231 3        32.000
  21865953.406 8 114906384.947 8        45.800                    89537447.99649
        35.100    21865956.73449
  20181973.281 9 106057006.418 9        51.700    20181979.457 9  82641851.21649
        55.700    20181978.91849  20181975.484 7  79198458.017 7        43.500
  20925806.711 9 109965863.741 9        53.500    20925812.973 9  85687719.43949
        55.400    20925812.80149  20925808.359 7  82117368.859 7        42.000
 21  1  1  0 27  0.0000000  0 11G21G23G16G07G15G08G26G18G20G27G10
  22947377.203 7 120589288.659 7        42.100                    93965697.95047
        28.100    22947380.97347
  21851804.969 8 114832027.038 8        47.300    21851809.668 8  89479521.76449
        37.000    21851808.87949  21851810.148 6  85751200.109 6        38.400
  22268561.719 8 117022172.598 8        46.500                    91186040.40149
        36.300    22268564.96149
  24893627.914 4 130816893.923 4        34.700    24893631.656 3 101935242.16544
        14.800    24893631.19944
  24744867.750 5 130035189.181 5        35.200    24744872.703 3 101326118.66046
        24.800    24744870.75846
  21452663.469 8 112734514.742 8        47.500    21452670.648 9  87845104.83549
        51.800    21452669.39149  21452665.703 6  84184903.918 6        40.400
  24534321.094 5 128928739.208 5        35.700    24534329.125 6 100463974.80848
        32.600    24534328.25048
  24278234.695 5 127582986.274 5        35.000    24278240.125 6  99415351.10445
        18.300    24278239.98045  24278239.828 1  95273016.602 1        29.900
  21878252.727 8 114971014.448 8        46.500                    89587808.64249
        34.600    21878255.44549
  20182744.344 9 106061058.566 9        52.500    20182750.590 9  82645008.72349
        55.500    20182749.90249  20182746.605 7  79201483.974 7        43.300
  20924438.406 9 109958673.169 9        52.900    20924444.656 9  85682116.40349
        55.100    20924444.41849  20924439.906 7  82111999.300 7        41.700
 21  1  1  0 27 30.0000000  0 11G21G23G16G07G15G08G26G18G20G27G10
  22934295.961 7 120520541.168 7        43.400                    93912128.51547
        29.400    22934298.09447
  21863070.336 8 114891225.327 8        47.000    21863074.527 8  89525650.29849
        37.000    21863074.07049  21863075.121 6  85795406.654 6        38.300
  22286447.688 8 117116164.589 8        46.500                    91259280.89949
        36.700    22286451.00449
  24900836.766 3 130854781.551 3        33.500    24900839.875 2 101964764.91143
        13.900    24900840.91843
  24752427.961 6 130074914.590 6        38.000    24752429.902 2 101357073.53447
        25.700    24752430.50447
  21440186.727 9 112668950.366 9        48.100    21440194.066 9  87794015.70849
        51.800    21440192.96149  21440189.254 6  84135943.533 6        40.100
  24555634.227 5 129040738.814 5        36.600    24555642.352 6 100551247.17749
        34.200    24555642.02049
  24296669.055 5 127679854.438 5        35.500    24296674.754 6  99490832.74545
        19.600    24296673.88745  24296673.973 1  95345353.185 1        30.000
  21890632.758 8 115036073.713 8        46.300                    89638504.16949
        35.100    21890635.76249
  20183598.883 9 106065548.676 9        53.000    20183605.262 9  82648507.51449
        55.000    20183604.41449  20183600.996 7  79204836.978 7        44.300
  20923179.820 9 109952059.043 9        52.700    20923185.773 9  85676962.54349
        54.900    20923185.85249  20923181.430 7  82107060.193 7        41.600
 21  1  1  0 28  0.0000000  0 11G21G23G16G07G15G08G26G18G20G27G10
  22921252.586 7 120451999.777 7        43.900                    93858719.63847
        29.800    22921255.42247
  21874427.594 8 114950909.602 8        47.100    21874432.285 8  89572157.52649
        37.300    21874431.53949  21874432.164 6  85839976.092 6        38.100
  22304396.125 8 117210483.711 8        46.100                    91332776.31649
        35.000    22304399.17249
  24908126.891 4 130893085.860 4        34.600    24908129.461 3 101994612.41343
        13.900    24908129.35543
  24760092.438 6 130115188.886 6        40.500    24760093.160 1 101388456.07246
        24.100    24760093.25046
  21427763.641 9 112603667.101 9        48.300    21427770.746 9  87743145.63449
        51.700    21427769.58249  21427766.070 6  84087193.007 6        40.400
  24576951.211 5 129152761.871 5        35.700    24576959.051 6 100638537.84148
        30.800    24576958.65648
  24315107.773 5 127776752.934 5        36.900    24315112.773 6  99566338.04145
        19.900    24315112.44145  24315114.125 2  95417712.405 2        31.800
  21903094.422 8 115101561.206 8        45.900                    89689533.39249
        34.200    21903097.50049
  20184537.016 9 106070477.534 9        52.800    20184542.797 9  82652348.17349
        55.700    20184542.26249  20184538.977 7  79208517.609 7        43.300
  20922030.867 9 109946021.554 9        53.500    20922036.910 9  85672258.02549
        55.000    20922036.90249  20922032.359 7  82102551.677 7        41.600
 21  1  1  0 28 30.0000000  0 11G21G23G16G07G15G08G26G18G20G27G10
  22908248.242 7 120383664.508 7        43.200                    93805471.38847
        29.500    22908252.27747
  21885877.359 8 115011077.391 8        47.000    21885881.816 8  89619041.52549
        36.900    21885880.93849  21885881.664 6  85884906.612 6        38.000
  22322406.242 8 117305126.374 8        46.300                    91406523.84549
        36.000    22322409.06649
  24915493.563 3 130931804.925 3        32.200    24915498.336 3 102024783.06545
        15.600    24915497.88345
  24767860.477 6 130156010.675 6        40.600    24767861.883 2 101420265.26747
        27.100    24767861.73047
  21415394.805 9 112538666.797 9        48.100    21415401.938 9  87692496.04049
        51.700    21415400.67249  21415397.332 6  84038653.838 6        40.700
  24598272.828 5 129264805.744 5        35.900    24598280.473 5 100725844.78048
        31.400    24598279.30148
  24333552.477 5 127873680.480 5        36.600    24333557.578 6  99641865.99345
        19.600    24333556.91045  24333558.758 2  95490093.328 2        31.600
  21915637.281 8 115167474.522 8        45.800                    89740894.40949
        35.000    21915640.91049
  20185558.133 9 106075845.355 9        52.300    20185564.477 9  82656530.88349
        55.500    20185563.76649  20185560.227 7  79212526.037 7        43.700
  20920991.609 9 109940560.294 9        52.900    20920997.637 9  85668002.50449
        55.200    20920997.59049  20920993.078 7  82098473.490 7        41.600
 21  1  1  0 29  0.0000000  0 11G21G23G16G07G15G08G26G18G20G27G10
  22895283.523 7 120315535.267 7        42.900                    93752383.70947
        28.700    22895287.43447
  21897418.516 8 115071726.617 8        46.500    21897422.988 8  89666300.66149
        36.600    21897422.29349  21897423.258 5  85930196.580 5        37.700
  22340477.273 8 117400090.367 8        45.800                    91480521.75849
        35.700    22340480.43849
  24922939.250 1 130970936.872 1        28.300    24922945.797 4 102055275.50043
        13.900    24922945.39143
  24775732.203 6 130197378.853 6        38.100    24775734.555 4 101452500.23647
        28.800    24775735.25447
  21403079.133 9 112473950.663 9        48.700    21403086.398 9  87642067.88849
        51.700    21403085.50849  21403082.109 6  83990326.858 6        40.500
  24619598.227 6 129376867.975 6        38.100    24619605.059 6 100813165.98248
        33.500    24619605.18048
  24352002.680 5 127970636.099 5        36.800    24352007.875 6  99717415.80646
        20.400    24352007.41446  24352008.879 1  95562495.202 1        30.100
  21928260.898 8 115233811.521 8        45.400                    89792585.57549
        34.900    21928264.19949
  20186663.367 9 106081652.770 9        52.200    20186669.617 9  82661056.13649
        55.300    20186668.88749  20186665.363 7  79216862.733 7        43.900
  20920062.203 9 109935675.260 9        52.900    20920068.051 9  85664195.99549
        55.100    20920068.12149  20920063.199 7  82094825.570 7        41.400
 21  1  1  0 29 30.0000000  0 11G21G23G16G07G15G08G26G18G20G27G10
  22882358.484 7 120247612.581 7        43.800                    93699456.97847
        29.300    22882361.03947
  21909051.008 8 115132855.154 8        47.200    21909055.141 8  89713933.28749
        37.000    21909054.48849  21909055.668 6  85975844.542 6        38.400
  22358608.703 8 117495373.949 8        45.400                    91554768.69049
        35.700    22358612.14549
  24930466.227 2 131010479.65912        31.800    24930469.824 3 102086092.98213
        33.800
  24783708.164 5 130239291.926 5        35.300    24783712.008 5 101485159.83747
        27.500    24783712.28547
  21390818.852 9 112409521.085 9        48.000    21390825.977 9  87591863.02849
        52.000    21390825.06649  21390821.480 6  83942213.870 6        40.400
  24640924.898 5 129488946.358 5        35.900    24640932.883 5 100900499.73748
        30.800    24640932.18848
  24370458.188 5 128067618.924 5        37.600    24370463.043 6  99792986.81146
        20.600    24370462.93446  24370463.715 1  95634917.43911        29.900
  21940964.570 8 115300569.815 8        45.700                    89844605.02549
        35.000    21940967.77749
  20187852.258 9 106087900.383 9        52.800    20187858.375 9  82665924.39849
        55.600    20187857.81649  20187854.496 7  79221528.144 7        43.500
  20919242.164 9 109931366.365 9        52.900    20919248.293 9  85660838.42749
        55.000    20919248.04749  20919243.605 7  82091607.903 7        41.800
 21  1  1  0 30  0.0000000  0 11G21G23G16G07G15G08G26G18G20G27G10
  22869472.750 7 120179896.944 7        44.600                    93646691.55247
        29.800    22869475.60247
  21920774.070 8 115194460.992 8        46.500    21920778.719 8  89761937.83849
        37.400    21920777.87949  21920778.969 6  86021848.889 6        38.400
  22376801.086 8 117590973.868 8        45.900                    91629262.12549
        35.500    22376804.19949
  24938067.758 1 131050431.139 1        26.800    24938073.023 3 102117238.93451
        10.900    24938073.41041
  24791786.320 5 130281748.939 5        37.400    24791791.188 5 101518243.28347
        29.400    24791791.15247
  21378613.117 9 112345379.666 9        48.700    21378620.477 9  87541882.70649
        52.200    21378619.49249  21378615.789 6  83894316.050 6        40.400
  24662255.266 5 129601038.597 5        37.000    24662262.992 5 100987844.35548
        30.100    24662262.16848
  24388917.547 5 128164628.166 5        36.600    24388924.031 6  99868578.42946
        22.500    24388923.20746  24388923.555 1  95707359.36411        29.300
  21953748.188 8 115367747.374 8        46.100                    89896951.16949
        34.500    21953751.12149
  20189125.039 9 106094588.887 9        53.000    20189131.344 9  82671136.21249
        55.200    20189130.62949  20189127.137 7  79226522.809 7        43.500
  20918531.773 9 109927633.703 9        53.000    20918537.727 9  85657929.86049
        55.000    20918537.60549  20918533.160 7  82088820.540 7        41.700
 21  1  1  0 30 30.0000000  0 12G32G21G23G16G07G15G08G26G18G20G27G10
  25283990.703 5 132868257.27415        36.000    25283995.785 3 103533735.68113
        33.900
  22856625.617 7 120112387.971 7        43.000                    93594087.18147
        28.900    22856629.85247
  21932587.648 8 115256541.438 8        47.000    21932592.102 8  89810312.20549
        36.800    21932591.42649  21932592.211 5  86068207.636 5        37.600
  22395052.742 8 117686887.224 8        45.900                    91703999.80649
        35.100    22395055.89549
  24945749.398 1 131090789.08611        28.600    24945752.348 3 102148686.82953
        13.900    24945753.20743
  24799970.016 6 130324748.609 6        38.800    24799972.965 5 101551749.53948
        30.000    24799972.73448
  21366462.906 9 112281527.873 9        48.000    21366469.789 9  87492128.07549
        52.300    21366468.84049  21366465.227 6  83846634.540 6        40.600
  24683589.055 5 129713141.865 5        37.300    24683596.020 5 101075197.57048
        32.700    24683595.10948
  24407383.031 4 128261662.37514        34.800    24407388.891 6  99944189.46256
        20.900    24407388.06646  24407389.188 1  95779819.914 1        30.100
  21966610.703 8 115435341.851 8        46.000                    89949622.20248
        33.900    21966613.90248
  20190481.461 9 106101718.262 9        52.300    20190487.988 9  82676691.55949
        55.500    20190487.36749  20190483.945 7  79231846.680 7        43.700
  20917931.023 9 109924476.553 9        53.200    20917937.035 9  85655469.75449
        55.000    20917936.83649  20917932.340 7  82086462.946 7        41.800
 21  1  1  0 31  0.0000000  0 13G01G32G21G23G16G07G15G08G26G18G20G27
                                G10
  24770559.570 4                        34.900

  25266476.328 5 132776214.76815        37.600    25266482.547 5 103462005.24357
        27.900    25266481.48847
  22843818.766 7 120045086.702 7        42.800                    93541644.70448
        30.500    22843823.39548
  21944491.305 8 115319094.912 8        46.000    21944495.523 8  89859055.17249
        36.800    21944494.71149  21944495.672 5  86114919.664 5        37.800
  22413363.922 8 117783112.483 8        45.700                    91778980.53049
        34.400    22413366.82449
  24953506.406 1 131131552.35311        29.100    24953509.469 3 102180435.34413
        32.100
  24808255.070 6 130368289.509 6        38.000    24808258.934 4 101585677.48547
        28.600    24808258.22747
  21354367.734 8 112217967.742 8        47.800    21354374.570 9  87442600.70849
        52.300    21354373.79749  21354369.980 6  83799170.811 6        40.200
  24704921.695 5 129825254.380 5        35.800    24704929.996 5 101162557.91547
        28.800    24704929.90247
  24425852.711 5 128358721.106 5        36.000    24425858.500 6 100019819.57945
        19.900    24425858.01245  24425859.668 2  95852298.864 2        31.400
  21979552.555 8 115503351.613 8        45.600                    90002616.80949
        34.200    21979555.74249
  20191922.523 9 106109289.667 9        51.300    20191928.867 9  82682591.34549
        55.400    20191928.23449  20191924.484 7  79237500.645 7        43.400
  20917439.844 9 109921895.367 9        53.200    20917445.637 9  85653458.45149
        55.200    20917445.55149  20917440.883 7  82084535.460 7        41.200
 21  1  1  0 31 30.0000000  0 13G01G32G21G23G16G07G15G08G26G18G20G27
                                G10
  24750928.297 4 130067035.218 4        34.900    24750936.691 5 101350952.60955
        17.800    24750937.46145
  25248954.703 3 132684148.54713        33.800    25248960.770 3 103390265.29956
        23.200    25248959.84846
  22831051.563 7 119977992.765 7        44.800                    93489363.74448
        30.400    22831055.10248
  21956483.766 8 115382118.759 8        46.700    21956488.402 8  89908164.66749
        36.600    21956487.89149  21956488.699 5  86161982.950 5        37.500
  22431733.383 8 117879646.274 8        45.200                    91854201.65449
        34.300    22431736.73449
  24961339.281 2 131172717.80312        31.300    24961342.180 3 102212512.436 3
        32.100
  24816642.648 5 130412370.167 5        37.300    24816646.602 3 101620026.01247
        25.500    24816646.35947
  21342327.766 8 112154700.517 8        47.800    21342335.395 9  87393301.57249
        52.100    21342334.35949  21342330.344 6  83751925.815 6        39.700
  24726258.570 5 129937373.406 5        37.800    24726264.492 5 101249923.38147
        29.400    24726264.06647
  24444327.633 5 128455803.02015        36.700    24444332.504 6 100095467.82756
        20.600    24444330.71146  24444333.410 2  95924795.088 2        31.400
  21992572.742 8 115571773.862 8        45.000                    90055932.85048
        33.600    21992576.19148
  20193447.531 9 106117303.177 9        51.900    20193453.555 9  82688835.63349
        55.100    20193453.09849  20193449.484 7  79243484.763 7        43.800
  20917058.047 9 109919889.507 9        52.100    20917064.125 9  85651895.45349
        55.200    20917063.71549  20917059.340 7  82083037.564 7        41.600
 21  1  1  0 32  0.0000000  0 13G01G32G21G23G16G07G15G08G26G18G20G27
                                G10
  24731314.938 5 129963962.440 5        36.600    24731322.367 5 101270636.14745
        19.000    24731321.94945
  25231433.242 5 132592061.63915        37.300    25231440.473 5 103318509.30158
        31.700    25231439.41848
  22818323.375 8 119911106.615 8        45.200                    93437244.68047
        29.900    22818326.46947
  21968566.461 8 115445610.940 8        46.500    21968570.895 8  89957639.08949
        37.000    21968570.32049  21968570.953 6  86209395.922 6        38.100
  22450161.250 8 117976485.864 8        45.500                    91929661.06649
        34.900    22450164.92249
  24969246.648 2 131214283.92412        31.500    24969252.555 3 102244920.37852
        12.600    24969253.55142
  24825132.922 5 130456989.381 5        35.400    24825137.070 3 101654794.24946
        24.400    24825137.37146
  21330345.125 8 112091727.961 8        47.800    21330352.234 9  87344232.05349
        52.400    21330350.95749  21330347.063 6  83704900.868 6        40.100
  24747594.969 5 130049496.598 5        36.500    24747602.332 6 101337292.14948
        30.900    24747601.37548
  24462805.797 5 128552907.349 5        36.800    24462810.477 6 100171133.54446
        20.400    24462809.82446  24462810.879 1  95997308.027 1        29.800
  22005672.031 8 115640606.934 8        45.700                    90109569.00749
        34.200    22005674.43049
  20195056.516 9 106125759.470 9        52.100    20195062.996 9  82695424.94749
        55.100    20195062.16449  20195058.648 7  79249799.498 7        43.400
  20916785.875 9 109918458.950 9        52.200    20916791.902 9  85650780.73249
        55.100    20916791.73849  20916786.711 7  82081969.303 7        41.700
 21  1  1  0 32 30.0000000  0 13G01G32G21G23G16G07G15G08G26G18G20G27
                                G10
  24711717.484 5 129860976.041 5        37.600    24711724.844 6 101190386.95645
        19.900    24711724.89545
  25213905.063 5                        35.900    25213914.180 6 103246748.17816
        31.000    25213912.74248
  22805634.602 7 119844428.065 7        44.700                    93385287.39847
        29.900    22805638.04747
  21980737.117 8 115509568.900 8        46.900    21980741.836 8  90007476.46749
        37.200    21980741.27349  21980741.828 5  86257156.748 5        37.600
  22468647.156 8 118073628.550 8        45.800                    92005356.65349
        34.800    22468650.40649
  24977233.930 3 131256248.075 3        33.700    24977238.828 3 102277619.70643
        13.900    24977238.25843
  24833727.711 5 130502145.320 5        37.400    24833730.406 4 101689980.75547
        27.400    24833730.54347
  21318418.086 8 112029051.791 8        47.600    21318425.027 9  87295393.48449
        52.300    21318424.16449  21318420.086 6  83658097.245 6        39.900
  24768930.844 5 130161621.437 5        35.000    24768938.750 6 101424662.10148
        30.700    24768938.52048
  24481287.781 5 128650032.891 5        36.700    24481292.793 6 100246815.76746
        20.900    24481292.58646  24481293.402 1  96069836.82711        29.300
  22018848.070 8 115709848.019 8        45.600                    90163523.09949
        34.000    22018850.66049
  20196750.242 9 106134658.728 9        52.500    20196756.520 9  82702359.42749
        55.500    20196755.68849  20196752.250 7  79256445.049 7        42.600
  20916622.828 9 109917603.147 9        52.900    20916629.039 9  85650113.88449
        54.900    20916628.69949  20916623.930 7  82081330.236 7        41.800
 21  1  1  0 33  0.0000000  0 13G01G32G21G23G16G07G15G08G26G18G20G27
                                G10
  24692134.961 3                        33.500    24692143.980 5 101110195.65315
        16.300    24692143.64845  24692139.516 1  96897277.50311        30.200
  25196377.023 5 132407836.109 5        37.500    25196383.121 5 103174957.02658
        31.300    25196382.95748
  22792986.359 7 119777957.329 7        44.300                    93333492.03847
        29.700    22792989.59447
  21992995.977 8 115573990.144 8        47.000    21993000.434 8  90057674.83149
        36.600    21992999.98849  21993000.832 5  86305263.530 5        37.100
  22487190.000 8 118171071.783 8        45.300                    92081286.43949
        34.600    22487193.07049
  24985294.469 1 131298607.991 1        29.900    24985297.660 2 102310627.40443
        13.900    24985299.82043
  24842422.297 6 130547836.533 6        38.500    24842425.250 4 101725584.33447
        29.100    24842425.42247
  21306548.063 8 111966673.856 8        47.900    21306555.051 9  87246787.30849
        52.500    21306553.87149  21306549.992 6  83611516.323 6        40.800
  24790267.898 6 130273745.244 6        38.000    24790275.215 5 101512031.25848
        30.400    24790274.35948
  24499774.336 5 128747178.465 5        36.000    24499779.410 6 100322513.57945
        18.600    24499779.48045  24499780.246 1  96142380.631 1        30.900
  22032101.102 8 115779494.637 8        46.200                    90217793.20248
        33.800    22032103.98448
  20198528.000 9 106144001.008 9        52.500    20198534.086 9  82709639.11849
        55.100    20198533.44949  20198529.941 7  79263421.439 7        43.800
  20916569.281 9 109917321.533 9        52.600    20916575.516 9  85649894.45249
        55.000    20916575.23849  20916570.570 7  82081119.939 7        41.600
 21  1  1  0 33 30.0000000  0 13G01G32G21G23G16G07G15G08G26G18G20G27
                                G10
  24672571.523 5 129655265.596 5        36.900    24672579.738 5 101030093.08955
        17.800    24672579.57445  24672575.594 1  96820503.012 1        29.700
  25178842.414 3 132315703.084 3        32.800    25178851.133 5 103103165.03347
        28.100    25178851.10547
  22780376.633 8 119711694.552 8        45.500                    93281858.72848
        30.200    22780379.84848
  22005342.781 8 115638872.701 8        46.300    22005347.211 8  90108232.67449
        36.300    22005346.47749  22005346.797 5  86353714.780 5        37.300
  22505789.719 8 118268813.010 8        45.500                    92157448.43249
        34.300    22505792.80549
  24993431.453 1 131341361.81311        28.300    24993434.453 3 102343923.00313
        32.100
  24851218.594 6 130594061.892 6        39.000    24851221.734 4 101761604.10947
        28.800    24851222.02747
  21294735.219 9 111904595.672 9        48.100    21294742.000 9  87198414.70649
        52.800    21294740.80549  21294737.195 7  83565159.225 7        41.100
  24811603.898 5 130385865.925 5        37.000    24811610.102 5 101599398.07247
        29.100    24811608.99647
  24518264.563 5 128844343.379 5        36.200    24518268.785 6 100398226.46845
        19.900    24518269.08645  24518270.246 1  96214938.783 1        30.800
  22045430.938 7 115849544.957 7        44.800                    90272377.86448
        33.500    22045434.43448
  20200390.164 9 106153787.334 9        51.700    20200396.332 9  82717264.81849
        54.900    20200395.78949  20200392.211 7  79270729.397 7        43.500
  20916625.063 9 109917614.125 9        52.500    20916631.141 9  85650122.45549
        54.900    20916630.89549  20916625.953 7  82081338.467 7        41.400
 21  1  1  0 34  0.0000000  0 13G01G32G21G23G16G07G15G08G26G18G20G27
                                G10
  24653023.914 5 129552543.862 5        35.800    24653032.582 5 100950050.13345
        18.300    24653031.48845  24653027.633 1  96743795.15711        29.000
  25161311.211 6 132223560.560 6        38.900    25161316.250 5 103031365.65648
        30.700    25161314.08648
  22767807.078 8 119645640.099 8        45.600                    93230387.74747
        29.400    22767809.43047
  22017776.711 8 115704214.369 8        46.000    22017781.277 8  90159148.25849
        36.400    22017780.67249  22017781.410 5  86402508.897 5        36.800
  22524445.273 8 118366849.834 8        45.100                    92233840.75049
        34.800    22524448.79349
  25001641.211 1 131384507.82811        30.800    25001646.172 3 102377543.168 3
        33.100
  24860115.523 5 130640819.789 5        36.500    24860120.008 5 101798038.91247
        26.500    24860121.16847
  21282979.445 9 111842818.809 9        48.100    21282986.418 9  87150276.88249
        52.800    21282985.09449  21282981.426 6  83519027.177 6        40.800
  24832937.797 5 130497981.189 5        35.200    24832946.082 6 101686760.62447
        29.600    24832945.28547
  24536757.633 5 128941526.743 5        36.000    24536761.934 5 100473953.76945
        19.300    24536761.93045  24536763.531 2  96287510.710 2        31.000
  22058837.195 8 115919996.926 8        45.600                    90327275.49148
        33.200    22058841.13748
  20202337.156 9 106164018.056 9        52.200    20202343.367 9  82725236.80949
        55.100    20202342.59049  20202339.234 7  79278369.192 7        43.700
  20916789.828 9 109918480.658 9        52.100    20916796.016 9  85650797.69049
        55.100    20916795.82849  20916791.207 7  82081985.564 7        41.300
 21  1  1  0 34 30.0000000  0 13G01G32G21G23G16G07G15G08G26G18G20G27
                                G10
  24633494.039 5 129449911.900 5        35.100    24633502.105 6 100870077.24645
        18.600    24633502.49645  24633497.395 1  96667154.51611        29.300
  25143772.758 5 132131411.044 5        35.000    25143780.027 4 102959560.80947
        26.500    25143777.10947
  22755276.477 8 119579794.240 8        45.100                    93179079.28347
        29.600    22755279.28147
  22030298.203 8 115770012.629 8        46.500    22030302.113 8  90210419.62849
        36.300    22030301.48449  22030302.785 5  86451643.956 5        37.600
  22543156.883 8 118465179.639 8        45.000                    92310461.37248
        33.700    22543160.47348
  25009926.328 2 131428042.92312        31.800    25009930.000 4 102411473.49454
        14.800    25009928.17644
  24869114.359 5 130688108.638 5        36.000    24869118.977 4 101834887.42646
        24.900    24869118.64846
  21271281.539 9 111781345.409 9        48.200    21271288.066 9  87102375.53649
        52.900    21271287.02749  21271283.449 6  83473121.714 6        40.400
  24854270.914 5 130610088.432 5        36.300    24854279.516 6 101774116.87848
        30.900    24854278.82848
  24555254.539 5 129038727.437 5        36.000    24555258.281 5 100549694.58645
        18.300    24555257.68445  24555259.566 1  96360095.61611        29.900
  22072320.359 8 115990848.159 8        45.100                    90382484.25348
        33.600    22072323.08248
  20204368.500 9 106174693.368 9        52.500    20204374.730 9  82733555.22749
        54.900    20204374.10949  20204370.563 7  79286341.020 7        43.500
  20917063.969 9 109919920.564 9        52.000    20917069.938 9  85651919.69649
        54.900    20917070.10249  20917065.020 7  82083060.824 7        41.300
 21  1  1  0 35  0.0000000  0 13G01G32G21G23G16G07G15G08G26G18G20G27
                                G10
  24613981.023 5 129347370.929 5        37.100    24613989.496 5 100790175.24545
        19.600    24613988.82045  24613984.582 1  96590581.67811        30.300
  25126237.766 5 132039257.640 5        37.100    25126244.039 5 102887752.97647
        29.800    25126243.61347
  22742786.578 7 119514157.006 7        44.700                    93127933.40547
        29.900    22742788.89547
  22042905.344 8 115836265.311 8        47.600    22042909.969 8  90262045.10849
        35.900    22042909.21949  22042910.234 5  86501118.371 5        37.800
  22561923.563 7 118563799.634 7        44.700                    92387308.10148
        33.000    22561926.95748
  25018283.930 2 131471965.49112        31.600    25018287.973 4 102445698.92754
        14.800    25018287.98844
  24878215.016 5 130735927.209 5        37.100    24878217.020 4 101872148.66747
        27.300    24878217.11747
  21259641.305 9 111720176.711 9        48.100    21259648.117 9  87054711.61249
        52.900    21259646.96149  21259643.234 6  83427443.794 6        40.900
  24875602.211 3 130722185.373 3        33.400    24875610.734 5 101861465.17447
        27.700    24875609.62947
  24573754.789 5 129135944.712 5        36.900    24573759.590 6 100625448.25945
        19.000    24573757.85545  24573759.301 1  96432692.92211        29.700
  22085878.547 8 116062096.033 8        45.200                    90438002.07148
        33.400    22085881.21148
  20206484.539 9 106185813.870 9        52.100    20206491.055 9  82742220.55149
        55.400    20206490.18849  20206486.695 7  79294645.295 7        43.100
  20917447.094 9 109921933.601 9        52.500    20917453.203 9  85653488.31249
        55.000    20917453.11749  20917448.078 7  82084564.083 7        41.500
 21  1  1  0 35 30.0000000  0 13G01G32G21G23G16G07G15G08G26G18G20G27
                                G10
  24594486.063 5 129244921.768 5        36.800    24594494.063 5 100710344.69045
        18.300    24594493.33245  24594488.270 1  96514077.45811        27.300
  25108702.055 5 131947103.044 5        37.200    25108708.277 5 102815944.27648
        30.500    25108707.92248
  22730335.492 7 119448728.640 7        44.600                    93076950.30547
        29.400    22730338.59847
  22055598.930 8 115902970.114 8        46.000    22055603.613 8  90314022.86149
        36.300    22055602.85549  22055603.281 5  86550930.339 5        36.800
  22580744.898 7 118662706.779 7        44.900                    92464378.61049
        34.500    22580748.13349
  25026715.547 3 131516273.42113        32.900    25026719.895 4 102480224.57654
        14.800    25026718.90244
  24887414.055 5 130784273.814 5        37.400    24887417.391 4 101909821.31547
        28.200    24887416.85547
  21248059.586 9 111659314.676 9        48.100    21248066.715 9  87007286.64949
        53.000    21248065.44949  21248061.676 6  83381994.869 6        40.600
  24896931.266 4 130834269.827 4        34.600    24896938.410 5 101948803.70747
        26.200    24896937.93047
  24592257.281 5 129233177.569 5        36.800    24592262.516 6 100701214.04246
        20.100    24592261.38346
  22099511.141 8 116133738.799 8        45.800                    90493827.60648
        33.300    22099514.60248
  20208685.703 9 106197379.927 9        51.900    20208691.852 9  82751233.05649
        55.300    20208691.06349  20208687.793 7  79303282.278 7        43.300
  20917938.984 9 109924519.375 9        53.200    20917945.227 9  85655503.20149
        54.900    20917945.04349  20917940.258 7  82086495.008 7        41.200
 21  1  1  0 36  0.0000000  0 13G01G32G21G23G16G07G15G08G26G18G20G27
                                G10
  24575007.188 5 129142565.099 5        36.500    24575015.750 6 100630586.32445
        19.900    24575015.53945
  25091164.547 5 131854950.219 5        36.200    25091172.043 5 102744136.84447
        29.500    25091170.83247
  22717925.180 8 119383509.267 8        45.300                    93026130.05948
        30.400    22717927.46948
  22068377.852 8 115970124.590 8        46.200    22068382.457 8  90366351.01049
        36.200    22068381.82449  22068382.793 5  86601078.186 5        37.000
  22599620.953 8 118761898.980 8        45.300                    92541671.23049
        34.700    22599624.16449
  25035219.695 4 131560964.05414        34.300    25035224.055 3 102515048.41155
        17.400    25035223.21545
  24896715.305 5 130833146.951 5        37.300    24896718.324 5 101947904.23047
        28.700    24896717.45347
  21236536.602 9 111598760.973 9        48.500    21236543.699 9  86960101.94549
        53.000    21236542.43449  21236539.008 6  83336776.197 6        40.000
  24918256.930 4 130946339.078 4        34.900    24918266.223 5 102036130.37848
        30.400    24918265.35548
  24610763.008 5 129330425.030 5        36.700    24610767.766 6 100776991.28946
        20.100    24610767.19146
  22113219.359 8 116205774.210 8        45.000                    90549959.07548
        33.000    22113222.35548
  20210971.586 9 106209391.817 9        52.200    20210977.516 9  82760592.97449
        55.000    20210976.96949  20210973.316 7  79312252.191 7        43.700
  20918539.992 9 109927677.329 9        52.600    20918545.980 9  85657963.96449
        54.900    20918546.00849  20918541.180 7  82088853.246 7        41.300
 21  1  1  0 36 30.0000000  0 13G01G32G21G23G16G07G15G08G26G18G20G27
                                G10
  24555547.492 5 129040301.979 5        36.600    24555556.016 5 100550900.80646
        20.100    24555555.49646
  25073630.070 6 131762801.854 6        38.000    25073637.266 5 102672332.86948
        30.800    25073635.28148
  22705553.602 7 119318498.891 7        44.300                    92975472.66848
        30.600    22705556.75448
  22081242.438 8 116037726.449 8        45.700    22081246.703 8  90419027.79749
        35.700    22081246.03949  22081247.160 5  86651560.118 5        37.300
  22618549.867 7 118861373.241 7        44.700                    92619183.63648
        33.400    22618553.48448
  25043796.461 4 131606035.509 4        34.200    25043800.527 3 102550168.97945
        15.600    25043799.78945
  24906114.945 5 130882545.132 5        37.700    24906118.199 5 101986396.34347
        28.900    24906118.62947
  21225072.773 9 111538517.442 9        48.600    21225079.563 9  86913158.94249
        53.000    21225078.43449  21225074.754 7  83291789.154 7        41.000
  24939581.078 4 131058390.946 4        34.200    24939588.336 5 102123443.50247
        27.800    24939587.94547
  24629270.367 5 129427686.240 5        35.600    24629275.207 5 100852779.22845
        19.000    24629274.19545
  22127001.563 7 116278199.766 7        44.500                    90606394.57948
        33.000    22127004.80948
  20213342.445 9 106221850.004 9        52.000    20213348.258 9  82770300.64549
        55.500    20213347.66849  20213344.145 7  79321555.370 7        43.300
  20919249.633 9 109931406.994 9        52.300    20919255.906 9  85660870.20149
        54.900    20919255.78149  20919251.219 7  82091638.390 7        41.600
 21  1  1  0 37  0.0000000  0 13G01G32G21G23G16G07G15G08G26G18G20G27
                                G10
  24536105.914 5 128938133.126 5        36.100    24536113.293 5 100471288.74045
        17.400    24536113.30945
  25056096.820 6 131670660.766 6        38.900    25056102.813 4 102600534.69747
        29.500    25056101.47347
  22693222.492 7 119253697.990 7        44.700                    92924978.49448
        31.400    22693225.67648
  22094191.258 8 116105773.355 8        45.200    22094195.672 8  90472051.35849
        35.500    22094195.06649  22094195.828 5  86702374.359 5        37.400
  22637532.570 7 118961126.859 7        44.700                    92696913.71248
        33.300    22637535.78548
  25052445.445 5 131651485.233 5        36.800    25052449.531 3 102585584.27345
        16.900    25052449.18845
  24915613.992 5 130932466.267 5        36.300    24915617.914 5 102025295.94447
        27.800    24915619.29747
  21213667.516 9 111478585.692 9        49.200    21213674.887 9  86866458.87549
        53.100    21213673.91449  21213669.941 6  83247034.920 6        40.700
  24960899.617 4 131170423.206 4        34.900    24960906.586 4 102210741.31547
        27.200    24960906.00447
  24647781.570 4 129524960.290 4        34.300    24647785.281 5 100928577.16545
        17.400    24647784.46545
  22140857.156 7 116351013.209 7        44.900                    90663132.32648
        33.100    22140860.22348
  20215797.922 9 106234754.816 9        52.200    20215804.129 9  82780356.33549
        55.000    20215803.39849  20215799.777 7  79331192.093 7        43.300
  20920068.156 9 109935708.129 9        52.700    20920074.227 9  85664221.74649
        54.900    20920074.09849  20920069.672 7  82094850.285 7        41.700
 21  1  1  0 37 30.0000000  0 13G01G32G21G23G16G07G15G08G26G18G20G27
                                G10
  24516681.289 4 128836059.491 4        34.800    24516690.164 6 100391750.92145
        17.800    24516689.22745
  25038563.875 5 131578530.058 5        37.400    25038569.711 4 102528744.51247
        29.100    25038569.09047
  22680931.422 8 119189106.437 8        45.700                    92874647.45848
        31.500    22680934.74648
  22107224.211 8 116174262.965 8        46.000    22107228.578 8  90525419.87949
        35.200    22107228.00849  22107228.641 5  86753519.185 5        37.700
  22656567.891 7 119061157.410 7        44.500                    92774859.59048
        33.500    22656570.96548
  25061165.883 3 131697311.155 3        33.900    25061170.258 4 102621292.75545
        15.600    25061170.02045
  24925212.727 5 130982908.834 5        37.600    24925216.324 4 102064601.84847
        27.600    24925216.96147
  21202322.938 9 111418967.271 9        49.900    21202330.227 9  86820002.95849
        53.200    21202328.70749  21202325.074 6  83202514.659 6        40.500
  24982214.453 5 131282433.143 5        36.600    24982222.750 6 102298021.87248
        30.600    24982222.48048
  24666293.398 4 129622246.317 4        34.500    24666299.359 5 101004384.45545
        17.400    24666298.10545
  22154786.727 8 116424212.229 8        45.100                    90720170.53348
        32.600    22154789.62148
  20218338.664 9 106248106.629 9        51.600    20218344.727 9  82790760.34849
        55.100    20218344.32849  20218340.727 7  79341162.603 7        43.500
  20920995.273 9 109940580.107 9        52.600    20921001.398 9  85668018.09149
        54.900    20921001.25849  20920996.781 7  82098488.456 7        41.500
 21  1  1  0 38  0.0000000  0 13G01G32G21G23G16G07G15G08G26G18G20G27
                                G10
  24497276.703 5 128734081.949 5        37.700    24497283.844 5 100312287.96345
        19.900    24497283.34445
  25021033.898 4 131486412.301 4        34.900    25021041.375 5 102456964.45047
        29.700    25021040.83647
  22668680.281 8 119124724.444 8        45.600                    92824479.70548
        31.900    22668683.14148
  22120341.258 8 116243192.867 8        45.600    22120345.637 8  90579131.48849
        35.400    22120344.97749  22120345.727 5  86804992.817 5        37.100
  22675654.609 8 119161461.886 8        45.400                    92853018.90748
        32.900    22675658.03148
  25069956.023 1 131743510.88111        30.500    25069962.277 4 102657292.43153
        13.900    25069961.59843
  24934910.953 5 131033871.663 5        37.200    24934914.371 4 102104313.18947
        26.600    24934914.98847
  21191037.852 9 111359663.790 9        49.600    21191044.949 9  86773792.45649
        53.300    21191043.62149  21191039.973 6  83158229.618 6        40.600
  25003523.648 3 131394418.764 3        33.300    25003532.910 6 102385283.28747
        28.600    25003532.56647
  24684809.750 5 129719543.263 5        36.000    24684814.289 6 101080200.26645
        19.300    24684813.83645
  22168789.195 7 116497794.423 7        44.700                    90777507.29648
        32.400    22168792.08648
  20220964.266 9 106261905.748 9        52.600    20220970.711 9  82801512.90749
        55.200    20220970.10949  20220966.633 7  79351467.134 7        43.400
  20922030.641 9 109946022.385 9        53.200    20922036.965 9  85672258.83549
        55.000    20922036.89149  20922032.270 6  82102552.496 6        40.900
 21  1  1  0 38 30.0000000  0 13G01G32G21G23G16G07G15G08G26G18G20G27
                                G10
  24477889.227 5 128632201.280 5        37.100    24477897.004 5 100232900.43345
        19.900    24477896.09845
  25003507.813 5 131394310.518 5        37.300    25003515.379 5 102385196.84648
        31.300    25003515.06348
  22656468.570 8 119060552.207 8        46.500                    92774475.38548
        31.800    22656471.02048
  22133541.523 8 116312560.601 8        45.500    22133546.098 8  90633184.27849
        35.500    22133545.09849  22133546.320 5  86856793.424 5        37.100
  22694793.703 8 119262037.859 8        45.100                    92931389.80748
        32.400    22694796.98848
  25078819.414 4 131790082.09814        34.300    25078824.016 3 102693581.75054
        14.800    25078823.51644
  24944707.516 5 131085352.901 5        36.100    24944711.262 3 102144428.45747
        25.200    24944711.19147
  21179812.883 9 111300677.435 9        49.900    21179820.195 9  86727829.06649
        53.300    21179818.78949  21179815.168 6  83114181.349 6        40.600
  25024830.570 5 131506377.302 5        36.800    25024837.680 5 102472523.72147
        29.700    25024836.92247
  24703326.625 5 129816850.23615        35.400    24703331.422 6 101156023.85555
        19.600    24703330.56345
  22182863.773 7 116571757.331 7        44.400                    90835140.73748
        32.500    22182866.72348
  20223675.648 9 106276152.414 9        52.800    20223681.684 9  82812614.20349
        54.900    20223681.03949  20223677.570 7  79362105.868 7        43.700
  20923174.859 9 109952034.341 9        53.900    20923180.926 9  85676943.49149
        54.900    20923180.76649  20923176.129 7  82107041.961 7        41.600
 21  1  1  0 39  0.0000000  0 13G01G32G21G23G16G07G15G08G26G18G20G27
                                G10
  24458519.563 5 128530418.183 5        36.800    24458527.629 5 100153588.99045
        18.300    24458527.39145
  24985986.117 6 131302227.426 6        38.000    24985992.699 5 102313443.77848
        31.100    24985992.12948
  22644296.742 8 118996589.726 8        45.700                    92724634.51048
        31.800    22644299.21548
  22146824.398 8 116382363.773 8        45.400    22146829.027 8  90687576.36349
        35.200    22146828.09849  22146829.285 5  86908919.139 5        36.700
  22713984.156 7 119362882.539 7        44.300                    93009970.07048
        32.800    22713987.25448
  25087752.359 3 131837022.666 3        33.700    25087757.148 5 102730158.74345
        16.300    25087756.21945
  24954602.750 5 131137350.988 5        35.500    24954605.574 2 102184946.48246
        22.600    24954605.64846
  21168648.711 9 111242009.231 9        49.400    21168655.766 9  86682113.58749
        53.200    21168654.59049  21168651.426 7  83070370.700 7        41.000
  25046129.125 4 131618306.598 4        34.200    25046136.414 5 102559741.40647
        27.100    25046136.19147
  24721844.328 4 129914166.26614        34.400    24721849.961 5 101231854.52355
        17.400    24721848.77345
  22197010.039 7 116646099.161 7        44.100                    90893069.43248
        32.300    22197013.32448
  20226471.641 9 106290846.909 9        52.800    20226478.008 9  82824064.44649
        55.100    20226477.38749  20226473.820 7  79373079.034 7        43.500
  20924427.336 9 109958615.421 9        52.700    20924433.426 9  85682071.61049
        54.900    20924433.01249  20924428.457 7  82111956.420 7        41.400
 21  1  1  0 39 30.0000000  0 13G01G32G21G23G16G07G15G08G26G18G20G27
                                G10
  24439169.992 5 128428733.960 5        35.200    24439178.145 5 100074354.56145
        19.000    24439176.62545
  24968466.594 6 131210166.223 6        38.700    24968474.262 6 102241707.79148
        31.200    24968474.21548
  22632164.859 8 118932837.447 8        46.000                    92674957.43048
        32.700    22632168.01248
  22160189.984 8 116452600.287 8        45.400    22160194.438 8  90742306.10749
        35.700    22160193.77049  22160194.641 5  86961368.489 5        36.200
  22733224.586 7 119463993.389 7        43.900                    93088757.73548
        32.900    22733228.14848
  25096754.320 3 131884330.22913        33.400    25096758.184 3 102767021.77655
        15.600    25096758.59045
  24964594.609 3 131189863.899 3        33.500    24964597.691 2 102225865.68146
        24.600    24964598.12946
  21157545.766 9 111183661.602 9        49.700    21157552.773 9  86636647.90949
        53.400    21157551.41049  21157548.039 6  83026799.430 6        40.600
  25067422.703 4 131730204.546 4        34.800    25067430.586 6 102646934.58047
        29.400    25067430.47747
  24740365.109 5                        35.700    24740369.934 5 101307671.93915
        15.600    24740370.02045
  22211228.789 8 116720817.320 8        45.600                    90951291.37248
        32.100    22211231.98048
  20229353.336 9 106305989.854 9        52.200    20229359.656 9  82835864.13749
        55.000    20229358.99649  20229355.215 7  79384387.060 7        43.400
  20925787.797 9 109965765.285 9        53.200    20925793.832 9  85687642.94349
        54.900    20925793.35549  20925789.078 7  82117295.616 7        41.400
 21  1  1  0 40  0.0000000  0 13G01G32G21G23G16G07G15G08G26G18G20G27
                                G10
  24419839.453 5 128327148.815 5        35.400    24419847.422 6  99995197.43246
        20.600    24419847.14146
  24950953.172 6 131118129.331 6        38.400    24950959.676 5 102169990.72748
        30.500    24950959.18048
  22620073.188 8 118869295.059 8        45.000                    92625443.90848
        32.000    22620076.52048
  22173638.023 8 116523267.253 8        46.400    22173642.180 8  90797371.26749
        35.000    22173641.39549  22173642.059 5  87014139.256 5        36.600
  22752515.711 7 119565367.457 7        44.000                    93167750.49348
        32.600    22752518.90648
  25105825.859 1 131932002.295 1        30.300    25105830.898 3 102804168.74944
        14.800    25105829.95344
  24974686.063 5 131242889.848 5        35.000    24974688.738 3 102267184.59547
        26.800    24974688.68447
  21146503.781 9 111125635.604 9        49.600    21146510.902 9  86591432.84549
        53.400    21146509.48049  21146505.949 6  82983468.316 6        40.900
  25088709.414 5 131842068.289 5        37.100    25088717.852 6 102734101.05448
        31.700    25088717.97748
  24758886.211 4 130108822.72514        34.400    24758891.094 4 101383534.84055
        16.300    24758890.95745
  22225518.281 7 116795909.450 7        44.600                    91009804.72048
        32.400    22225521.41048
  20232320.336 9 106321581.089 9        52.200    20232326.594 9  82848013.15249
        55.600    20232325.93049  20232322.410 7  79396029.868 7        43.200
  20927256.563 9 109973482.908 9        53.000    20927262.594 9  85693656.68849
        55.000    20927262.19949  20927257.469 7  82123058.778 7        41.700
 21  1  1  0 40 30.0000000  0 13G01G32G21G23G16G07G15G08G26G18G20G27
                                G10
  24400528.164 6 128225664.432 6        38.600    24400535.008 6  99916118.66146
        22.500    24400535.09846
  24933444.641 6 131026120.149 6        39.200    24933451.480 6 102098295.31648
        32.600    24933450.74648
  22608021.047 7 118805963.084 7        44.800                    92576094.35848
        30.500    22608024.36748
  22187166.703 8 116594362.883 8        45.800    22187171.250 8  90852770.46449
        35.200    22187170.54749  22187171.105 5  87067230.189 5        36.100
  22771856.461 7 119667002.312 7        44.600                    93246946.47448
        33.100    22771859.25848
  25114967.313 2 131980036.62412        31.300    25114970.191 2 102841598.11953
        13.900    25114970.69143
  24984874.953 5 131296427.857 5        36.500    24984878.754 5 102308902.50548
        30.200    24984878.24648
  21135523.313 9 111067933.478 9        50.000    21135530.395 9  86546470.15349
        53.500    21135529.07449  21135525.484 6  82940379.069 6        40.500
  25109989.617 5 131953896.047 5        36.000    25109995.473 3 102821239.62547
        25.300    25109996.15247
  24777409.227 5 130206161.365 5        35.400    24777414.359 5 101459383.18145
        16.900    24777414.19545
  22239878.797 7 116871373.798 7        44.400                    91068608.09448
        32.800    22239881.62948
  20235372.555 9 106337621.490 9        52.200    20235379.137 9  82860512.15849
        55.000    20235378.21149  20235374.969 7  79408008.081 7        43.300
  20928832.961 9 109981768.246 9        51.900    20928839.168 9  85700112.80349
        54.900    20928838.78549  20928833.855 7  82129245.902 7        41.400
 21  1  1  0 41  0.0000000  0 13G01G32G21G23G16G07G15G08G26G18G20G27
                                G10
  24381234.016 3 128124280.997 3        33.600    24381242.695 6  99837118.66345
        18.600    24381242.25445
  24915940.922 6 130934141.281 6        39.500    24915948.270 6 102026623.47948
        32.800    24915947.27048
  22596009.258 8 118742841.421 8        45.600                    92526908.68248
        30.900    22596012.41848
  22200776.898 8 116665884.292 8        45.200    22200781.094 8  90908501.43849
        34.800    22200780.44549  22200781.148 5  87120639.032 5        37.100
  22791245.883 7 119768895.178 7        44.100                    93326343.51748
        31.900    22791248.68848
  25124176.422 4 132028430.65714        34.200    25124180.586 3 102879307.59254
        14.800    25124179.66444
  24995158.453 4 131350475.465 4        34.900    24995162.543 5 102351017.55147
        27.900    24995162.32447
  21124604.750 9 111010556.452 9        49.500    21124612.066 9  86501760.78449
        53.500    21124610.42249  21124606.973 6  82897532.594 6        40.800
  25131262.766 5 132065685.21215        35.000    25131270.590 5 102908348.09857
        27.700    25131270.10547  25131266.910 2  98620576.79112        31.100
  24795932.773 4 130303505.61214        34.300    24795938.664 5 101535235.82855
        17.800    24795937.89545
  22254309.227 8 116947207.347 8        45.300                    91127699.17348
        31.800    22254312.33648
  20238510.742 9 106354110.865 9        52.100    20238516.688 9  82873361.01449
        55.000    20238516.04749  20238512.535 7  79420321.570 7        43.600
  20930517.625 9 109990620.223 9        52.000    20930523.602 9  85707010.45649
        55.000    20930523.39849  20930518.559 7  82135856.122 7        41.300
 21  1  1  0 41 30.0000000  0 13G01G32G21G23G16G07G15G08G26G18G20G27
                                G10
  24361961.797 5 128022999.622 5        37.700    24361969.164 5  99758198.11246
        20.600    24361968.59446
  24898444.859 6 130842195.592 6        40.000    24898451.680 5 101954977.52448
        32.900    24898451.66048
  22584038.352 7 118679930.109 7        44.900                    92477886.89948
        31.700    22584040.61348
  22214467.281 7 116737829.181 7        44.700    22214471.707 8  90964562.38349
        34.700    22214471.25849  22214472.219 5  87174364.099 5        37.200
  22810683.719 7 119871043.533 7        43.600                    93405939.62648
        31.400    22810687.21948
  25133453.367 3 132077182.201 3        33.600    25133455.129 1 102917295.78243
        13.900    25133457.09043
  25005540.219 5 131405030.973 5        36.800    25005544.445 4 102393528.39947
        28.500    25005543.08647
  21113748.281 9 110953506.611 9        49.500    21113755.707 9  86457306.36249
        53.400    21113754.32449  21113750.730 6  82854930.441 6        40.800
  25152528.422 6 132177433.349 6        39.300    25152535.570 6 102995424.51849
        34.400    25152535.68049
  24814458.016 4 130400854.637 4        34.700    24814463.973 5 101611092.16745
        17.800    24814463.03545
  22268809.984 7 117023408.098 7        44.700                    91187076.37548
        32.100    22268812.81648
  20241733.852 9 106371049.584 9        52.100    20241740.246 9  82886560.01449
        54.900    20241739.41849  20241736.055 7  79432970.606 7        43.800
  20932309.828 9 110000038.237 9        53.700    20932315.781 9  85714349.17349
        55.000    20932315.64849  20932310.992 7  82142889.098 7        41.300
 21  1  1  0 42  0.0000000  0 12G01G32G21G23G16G07G08G26G18G20G27G10
  24342706.641 5 127921821.019 5        35.200    24342714.828 5  99679357.70445
        18.600    24342714.85245
  24880954.703 5 130750285.977 5        37.600    24880960.715 5 101883359.67348
        30.600    24880960.71548
  22572106.250 8 118617229.405 8        45.700                    92429029.24448
        31.900    22572109.44148
  22228238.180 8 116810195.168 8        45.700    22228242.613 8  91020951.46049
        34.700    22228241.94949  22228242.793 5  87228403.615 5        37.000
  22830169.594 7 119973444.585 7        43.400                    93485732.65048
        32.300    22830173.29748
  25142797.336 3 132126288.851 3        33.800    25142801.805 3 102955560.65145
        16.300    25142801.25845
  21102955.094 9 110896785.474 9        49.400    21102962.152 9  86413108.08349
        53.800    21102960.75849  21102957.336 6  82812573.746 6        40.500
  25173784.109 3 132289138.310 3        33.800    25173791.984 5 103082467.24847
        26.300    25173792.02047
  24832984.078 5 130498207.732 5        36.900    24832989.359 5 101686951.68345
        19.000    24832988.23445
  22283379.805 8 117099973.777 8        45.400                    91246737.94748
        32.800    22283383.10548
  20245042.641 9 106388437.952 9        52.700    20245049.051 9  82900109.39149
        54.900    20245048.51249  20245044.781 7  79445955.437 7        43.600
  20934209.500 9 110010021.688 9        52.700    20934215.664 9  85722128.50049
        54.900    20934215.34049  20934210.676 7  82150344.283 7        41.400
 21  1  1  0 42 30.0000000  0 11G01G32G21G23G16G08G26G18G20G27G10
  24323473.406 5 127820746.189 5        37.900    24323481.777 6  99600598.08846
        21.700    24323481.05946
  24863471.961 6 130658415.430 6        38.100    24863478.355 5 101811772.24048
        30.100    24863478.31648
  22560214.414 7 118554739.621 7        44.700                    92380335.94548
        32.200    22560218.10248
  22242088.703 8 116882979.778 8        45.100    22242092.984 8  91077666.74049
        34.400    22242092.25849  22242093.230 5  87282755.717 5        36.300
  22849703.984 7 120076095.111 7        43.800                    93565720.06648
        31.200    22849707.07448
  21092224.344 9 110840394.955 9        49.300    21092231.402 9  86369167.42649
        54.100    21092230.11749  21092226.531 7  82770463.968 7        41.000
  25195033.563 5 132400797.78915        37.700    25195039.336 3 103169474.76157
        26.700    25195038.68847  25195036.332 3  98870793.24413        32.400
  24851510.469 5 130595563.985 5        35.900    24851514.641 3 101762813.67045
        16.900    24851514.35245
  22298019.094 7 117176901.694 7        44.500                    91306681.78048
        31.500    22298022.08248
  20248437.102 9 106406276.177 9        52.800    20248443.418 9  82914009.29849
        55.000    20248442.99249  20248439.250 7  79459276.170 7        43.500
  20936216.680 9 110020569.826 9        52.700    20936222.641 9  85730347.83149
        54.900    20936222.71549  20936217.703 7  82158221.136 7        41.200
 21  1  1  0 43  0.0000000  0 11G01G32G21G23G16G08G26G18G20G27G10
  24304259.555 5 127719775.680 5        35.900    24304267.719 6  99521919.82146
        20.400    24304267.25446
  24845998.438 6 130566586.686 6        40.500    24846004.105 6 101740217.37048
        33.200    24846004.31348
  22548363.531 8 118492460.835 8        45.800                    92331807.04748
        32.200    22548366.59048
  22256018.148 8 116956180.396 8        45.200    22256022.711 8  91134706.19248
        33.900    22256022.02348  22256022.426 5  87337418.562 5        35.600
  22869284.625 7 120178992.926 7        43.700                    93645900.17148
        31.200    22869287.93848
  21081556.672 9 110784336.431 9        50.000    21081563.836 9  86325485.46149
        53.900    21081562.59049  21081559.109 6  82728602.110 6        40.900
  25216271.148 5 132512409.034 5        35.400    25216279.336 6 103256444.58448
        30.800    25216279.33248  25216275.762 1  98954139.34811        29.400
  24870036.898 4 130692922.315 4        34.400    24870041.934 5 101838677.37045
        16.900    24870041.37945
  22312725.484 7 117254189.533 7        43.600                    91366906.06248
        30.400    22312729.13348
  20251917.531 9 106424564.367 9        52.600    20251923.805 9  82928259.81549
        55.100    20251923.11349  20251919.508 7  79472932.917 7        43.200
  20938331.398 9 110031681.743 9        53.500    20938337.270 9  85739006.47949
        55.000    20938337.22749  20938332.125 7  82166519.025 7        41.000
 21  1  1  0 43 30.0000000  0 11G01G32G21G23G16G08G26G18G20G27G10
  24285065.875 5 127618910.852 5        37.700    24285073.824 6  99443323.87246
        22.500    24285073.86746
  24828532.984 6 130474802.958 6        39.700    24828538.781 5 101668697.63148
        32.200    24828537.06348
  22536552.469 8 118430393.094 8        46.700                    92283442.60548
        33.000    22536555.48048
  22270026.719 7 117029794.963 7        44.700    22270031.066 8  91192068.18149
        35.100    22270030.53549  22270031.594 5  87392390.474 5        36.600
  22888912.000 7 120282135.384 7        43.500                    93726270.91348
        32.300    22888915.28148
  21070952.563 9 110728611.902 9        50.000    21070959.488 9  86282063.76149
        53.800    21070958.42649  21070954.805 6  82686989.614 6        40.900
  25237498.344 1 132623970.55211        27.300    25237508.555 6 103343375.46256
        24.300    25237509.00046
  24888562.977 5 130790282.382 5        35.300    24888569.313 5 101914542.33245
        15.600    24888568.02345
  22327502.023 7 117331835.513 7        43.900                    91427409.42148
        30.400    22327504.57048
  20255483.258 9 106443303.074 9        52.800    20255489.582 9  82942861.40449
        55.200    20255488.93449  20255485.488 7  79486926.114 7        42.800
  20940553.086 9 110043357.083 9        52.700    20940559.082 9  85748104.14749
        54.900    20940559.05149  20940553.789 6  82175237.616 6        40.700
 21  1  1  0 44  0.0000000  0 11G01G32G21G23G16G08G26G18G20G27G10
  24265891.797 5 127518152.145 5        37.000    24265900.129 6  99364810.60246
        22.200    24265899.99246
  24811075.555 6 130383066.837 6        38.600    24811081.781 5 101597214.98148
        32.100    24811079.50448
  22524781.953 8 118368536.356 8        46.200                    92235242.56348
        33.600    22524784.48848
  22284113.141 7 117103820.710 7        44.800    22284117.684 8  91249750.58449
        35.500    22284117.02349  22284118.496 5  87447669.448 5        35.900
  22908585.641 7 120385519.810 7        44.500                    93806830.20248
        31.500    22908588.46548
  21060412.320 9 110673222.748 9        49.300    21060419.277 9  86238903.38949
        53.800    21060418.09849  21060414.336 7  82645627.595 7        41.100
  25258720.453 5 132735479.23415        37.500    25258726.238 1 103430265.38556
        24.000    25258727.46946
  24907090.516 3 130887643.039 3        32.400    24907096.512 5 101990407.78445
        16.900    24907095.86745
  22342344.914 7 117409837.076 7        44.500                    91488189.85948
        32.100    22342348.17248
  20259134.820 9 106462492.207 9        52.000    20259141.078 9  82957813.98049
        55.000    20259140.39549  20259137.035 7  79501255.664 7        43.300
  20942881.781 9 110055594.778 9        52.800    20942888.008 9  85757640.01849
        54.900    20942887.77049  20942883.012 6  82184376.147 6        40.900
 21  1  1  0 44 30.0000000  0 11G01G32G21G23G16G08G26G18G20G27G10
  24246737.758 5 127417500.474 5        36.300    24246746.215 6  99286380.76345
        19.600    24246746.21145
  24793628.070 6 130291381.416 6        38.300    24793634.543 6 101525771.77248
        31.400    24793633.40648
  22513050.984 8 118306890.787 8        46.400                    92187207.07448
        33.500    22513053.93048
  22298277.313 7 117178255.209 7        44.800    22298282.059 8  91307751.49149
        34.400    22298281.45349  22298282.121 5  87503253.648 5        36.500
  22928304.273 7 120489142.579 7        43.700                    93887575.21948
        31.400    22928307.35248
  21049936.430 9 110618170.858 9        50.300    21049943.367 9  86196005.81149
        54.100    21049942.00849  21049938.332 6  82604517.440 6        40.600
  25279927.492 2                        31.800    25279935.332 4 103517104.73514
        22.800    25279935.67246  25279933.574 2  99203948.21512        31.800
  24925617.750 4 130985003.29814        34.500    24925623.527 6 102066272.89955
        18.300    24925622.65645
  22357255.219 7 117488191.549 7        43.400                    91549245.29448
        30.900    22357258.16848
  20262872.172 9 106482131.993 9        52.800    20262878.301 9  82973117.70149
        54.900    20262877.93049  20262874.258 7  79515921.724 7        43.400
  20945317.227 9 110068394.059 9        52.700    20945323.477 9  85767613.48849
        55.200    20945323.34449  20945318.801 7  82193934.060 7        41.400
 21  1  1  0 45  0.0000000  0 11G01G32G21G23G16G08G26G18G20G27G10
  24227605.188 5 127316956.705 5        35.900    24227612.855 5  99208034.96245
        19.300    24227612.44945
  24776190.047 5 130199749.557 5        37.700    24776196.539 5 101454370.32548
        31.500    24776196.51248
  22501360.461 8 118245456.453 8        46.200                    92139336.19648
        33.500    22501363.28548
  22312519.164 8 117253096.113 8        45.100    22312524.047 8  91366069.09348
        33.400    22312523.07448  22312523.688 5  87559141.331 5        37.100
  22948067.742 7 120593002.011 7        43.700                    93968504.63748
        31.600    22948071.43048
  21039524.680 9 110563458.022 9        49.700    21039531.652 9  86153372.43249
        54.100    21039530.69949  21039527.332 7  82563660.439 7        41.100
  25301127.648 4 132958330.04614        34.000    25301134.363 5 103603915.38457
        26.200    25301134.37947
  24944145.125 5 131082362.637 5        36.400    24944151.270 6 102142137.25945
        19.900    24944150.80545
  22372232.188 7 117566896.928 7        43.400                    91610574.15048
        31.900    22372235.63748
  20266695.273 9 106502222.703 9        51.900    20266701.531 9  82988772.79149
        55.000    20266701.00449  20266697.316 7  79530924.509 7        43.500
  20947859.648 9 110081754.227 9        52.600    20947865.590 9  85778024.01149
        55.000    20947865.62949  20947861.266 7  82203910.820 7        41.100
 21  1  1  0 45 30.0000000  0 11G01G32G21G23G16G08G26G18G20G27G10
  24208492.625 5 127216521.543 5        35.300    24208501.066 6  99129773.84846
        20.100    24208501.31646
  24758763.445 5 130108174.127 5        37.500    24758771.621 5 101383012.82248
        32.500    24758770.62548
  22489709.219 8 118184233.371 8        45.100                    92091629.92548
        32.900    22489712.52348
  22326837.734 7 117328340.727 7        44.700    22326842.266 8  91424701.26249
        34.300    22326841.59849  22326842.551 5  87615330.518 5        36.100
  22967875.875 7 120697094.949 7        44.100                    94049616.00548
        30.400    22967879.61748
  21029178.172 9 110509085.602 9        49.700    21029185.246 9  86111004.31749
        54.300    21029184.06649  21029180.422 7  82523057.677 7        41.400
  25322311.523 4 133069667.323 4        34.600    25322321.520 4 103690671.65847
        25.200    25322322.02047
  24962671.406 3 131179720.046 3        33.300    24962676.668 5 102218000.22045
        17.400    24962676.85545
  22387275.836 7 117645950.810 7        43.300                    91672174.58048
        30.900    22387278.87148
  20270604.414 9 106522764.387 9        52.300    20270610.484 9  83004779.29649
        54.900    20270609.98449  20270606.586 7  79546264.088 7        43.000
  20950508.477 9 110095674.260 9        52.700    20950514.902 9  85788870.79749
        54.900    20950514.38749  20950509.602 7  82214305.658 7        41.000
 21  1  1  0 46  0.0000000  0 11G01G32G21G23G16G08G26G18G20G27G10
  24189402.031 5 127116196.082 5        37.600    24189410.238 5  99051598.14046
        21.700    24189409.03546
  24741348.805 5 130016658.133 5        37.100    24741356.508 5 101311701.72148
        31.200    24741355.38748
  22478099.594 8 118123221.918 8        45.800                    92044088.56448
        33.500    22478102.61748
  22341232.586 7 117403986.871 7        44.900    22341237.488 8  91483646.30948
        33.700    22341236.73048  22341237.199 5  87671819.519 5        35.900
  22987728.828 7 120801418.939 7        43.500                    94130907.43148
        31.700    22987731.70348
  21018896.375 9 110455055.246 9        49.900    21018903.375 9  86068902.74549
        54.200    21018902.35949  21018898.605 6  82482710.329 6        40.800
  25343490.555 5 133180943.05415        36.200    25343497.473 5 103777380.06157
        26.900    25343496.81647
  24981198.344 5 131277074.919 5        36.500    24981202.391 5 102293861.10445
        15.600    24981202.32445
  22402384.539 7 117725350.850 7        42.700                    91734044.74348
        30.500    22402388.34048
  20274599.227 9 106543757.459 9        52.800    20274605.414 9  83021137.53449
        55.400    20274604.80149  20274601.043 7  79561940.729 7        43.200
  20953263.891 9 110110153.535 9        53.500    20953270.133 9  85800153.35649
        55.000    20953269.73449  20953264.875 7  82225118.131 7        41.100
 21  1  1  0 46 30.0000000  0 10G01G32G21G23G16G08G18G20G27G10
  24170331.953 5 127015981.208 5        37.600    24170339.809 6  98973508.62346
        22.200    24170339.59046
  24723946.547 6 129925204.742 6        38.600    24723953.750 6 101240439.40048
        32.600    24723953.16848
  22466530.039 8 118062422.331 8        45.900                    91996712.27648
        33.000    22466532.77748
  22355704.078 7 117480032.100 7        44.300    22355708.563 8  91542902.33549
        34.400    22355707.55949  22355708.461 5  87728606.540 5        36.200
  23007624.250 7 120905971.001 7        44.200                    94212376.56748
        30.900    23007627.57448
  21008680.445 9 110401369.360 9        49.300    21008687.281 9  86027069.58349
        54.100    21008686.35949  21008682.516 7  82442620.212 7        41.300
  24999722.180 3 131374426.600 3        32.600    24999729.469 6 102369719.64245
        16.300    24999727.72745
  22417559.664 7 117805094.639 7        42.600                    91796182.74947
        29.600    22417562.93447
  20278679.695 9 106565202.116 9        52.500    20278686.086 9  83037847.65049
        55.200    20278685.55149  20278681.938 7  79577954.585 7        43.200
  20956125.578 9 110125191.326 9        52.400    20956131.516 9  85811871.11549
        55.000    20956131.27049  20956126.836 6  82236347.641 6        40.900
 21  1  1  0 47  0.0000000  0 10G01G32G21G23G16G08G18G20G27G10
  24151282.484 5 126915877.589 5        36.600    24151290.449 5  98895505.77945
        19.600    24151289.84845  24151286.832 2  94774844.00612        31.000
  24706556.656 6 129833816.739 6        39.600    24706562.801 5 101169227.97048
        31.700    24706561.19548
  22455000.219 8 118001834.248 8        46.200                    91949500.81048
        32.400    22455003.14548
  22370250.164 7 117556473.790 7        44.100    22370254.633 8  91602467.27649
        34.200    22370253.78149  22370254.473 5  87785689.585 5        36.000
  23027562.703 7 121010748.662 7        42.800                    94294021.49048
        30.600    23027565.86748
  20998530.117 9 110348029.131 9        49.700    20998537.129 9  85985505.78149
        54.500    20998536.14849  20998532.328 7  82402788.222 7        41.300
  25018248.289 4 131471774.042 4        34.700    25018253.316 5 102445574.80645
        19.000    25018252.34445
  22432799.852 7 117885179.942 7        43.300                    91858586.90748
        30.400    22432802.73848
  20282846.609 9 106587098.340 9        51.400    20282852.949 9  83054909.63249
        55.000    20282852.22749  20282848.664 7  79594305.653 7        43.000
  20959093.453 9 110140786.532 9        53.600    20959099.262 9  85824023.24049
        54.900    20959098.83649  20959094.117 7  82247993.410 7        41.400
 21  1  1  0 47 30.0000000  0 10G01G32G21G23G16G08G18G20G27G10
  24132254.805 5 126815886.205 5        35.400    24132263.598 6  98817590.48846
        21.100    24132263.27046  24132258.086 1  94700175.164 1        30.500
  24689178.539 6 129742497.127 6        38.600    24689184.523 5 101098069.81748
        30.400    24689183.43848
  22443511.117 8 117941457.887 8        45.100                    91902454.32848
        32.700    22443513.78148
  22384871.352 7 117633309.553 7        44.300    22384876.219 8  91662339.29348
        33.800    22384875.08248  22384875.875 5  87843066.952 5        35.600
  23047543.773 7 121115749.523 7        42.800                    94375840.33747
        29.800    23047546.77747
  20988445.992 9 110295036.563 9        50.000    20988453.066 9  85944212.86149
        54.500    20988451.80549  20988448.223 7  82363215.849 7        41.900
  25036771.484 5 131569116.628 5        36.500    25036777.773 6 102521426.10546
        20.900    25036776.96146
  22448103.922 7 117965604.488 7        43.400                    91921255.36948
        30.200    22448106.95348
  20287099.484 9 106609446.384 9        52.300    20287105.734 9  83072323.69549
        54.900    20287104.86349  20287101.414 7  79610994.139 7        43.200
  20962166.789 9 110156938.354 9        53.200    20962172.859 9  85836609.08149
        54.900    20962172.52349  20962167.930 6  82260054.862 6        40.700
 21  1  1  0 48  0.0000000  0 10G01G32G21G23G16G08G18G20G27G10
  24113249.508 5 126716007.707 5        36.900    24113256.586 6  98739763.06246
        21.100    24113256.70346  24113251.820 1  94625590.584 1        30.400
  24671814.156 5 129651248.553 5        37.400    24671820.887 5 101026967.05648
        31.000    24671819.84848
  22432062.055 8 117881293.435 8        46.300                    91855572.95348
        33.800    22432064.89148
  22399567.414 7 117710536.658 7        44.600    22399571.668 8  91722516.25648
        33.200    22399571.12948  22399571.836 5  87900736.579 5        35.100
  23067566.297 7 121220969.749 7        43.000                    94457830.12947
        29.800    23067569.48447
  20978428.180 9 110242393.091 9        49.600    20978435.078 9  85903191.97949
        54.400    20978434.18449  20978430.570 7  82323904.197 7        41.100
  25055294.414 5 131666453.360 5        36.700    25055299.352 6 102597272.96145
        17.800    25055298.56645
  22463472.203 7 118046365.477 7        42.600                    91984185.99248
        30.700    22463475.36348
  20291438.148 9 106632246.145 9        51.600    20291444.207 9  83090089.73849
        55.000    20291443.62949  20291439.977 7  79628019.935 7        43.600
  20965346.344 9 110173645.679 9        52.800    20965352.168 9  85849627.78549
        54.900    20965351.73049  20965347.012 7  82272531.106 7        41.200
 21  1  1  0 48 30.0000000  0 10G01G32G21G23G16G08G18G20G27G10
  24094263.188 5 126616242.519 5        36.600    24094272.668 6  98662023.91046
        20.100    24094271.58646  24094266.941 1  94551090.60711        29.700
  24654464.055 6 129560073.812 6        38.300    24654471.125 6 100955921.81848
        32.900    24654470.43848
  22420653.406 8 117821340.948 8        46.000                    91808856.75248
        33.900    22420656.66048
  22414337.281 7 117788152.329 7        44.400    22414341.465 8  91782996.00548
        33.600    22414340.60548  22414341.492 5  87958696.315 5        36.400
  23087630.617 7 121326407.093 7        43.400                    94539989.09747
        29.700    23087633.64547
  20968477.086 9 110190099.892 9        50.700    20968484.391 9  85862444.04049
        54.500    20968483.01649  20968479.156 7  82284854.089 7        41.300
  25073815.172 5 131763783.217 5        36.600    25073819.949 5 102673114.32845
        18.300    25073820.27745
  22478904.344 7 118127460.673 7        42.600                    92047377.04147
        29.400    22478907.17647
  20295862.719 9 106655497.428 9        52.400    20295868.863 9  83108207.61149
        54.900    20295868.18449  20295864.477 7  79645382.900 7        43.000
  20968630.922 9 110190907.246 9        52.600    20968636.793 9  85863078.36249
        54.900    20968636.62949  20968631.891 6  82285421.243 6        40.900
 21  1  1  0 49  0.0000000  0 10G01G32G21G23G16G08G18G20G27G10
  24075300.313 5 126516591.709 5        35.600    24075309.035 6  98584373.98846
        20.600    24075308.62546  24075304.395 1  94476676.09411        30.300
  24637129.516 6 129468976.026 6        39.600    24637135.973 6 100884936.57048
        33.400    24637135.19548
  22409284.977 8 117761600.297 8        45.200                    91762305.63848
        33.400    22409288.25848
  22429180.586 8 117866154.299 8        45.000    22429184.680 8  91843776.76648
        33.500    22429184.13748  22429184.902 5  88016944.522 5        36.600
  23107734.867 7 121432058.614 7        43.200                    94622314.94048
        30.600    23107738.47748
  20958593.172 9 110138158.946 9        50.000    20958600.066 9  85821970.57849
        54.500    20958598.88349  20958595.215 7  82246067.003 7        41.300
  25092334.570 5 131861105.551 5        35.600    25092339.180 4 102748949.96544
        14.800    25092339.42644
  22494399.156 7 118208887.864 7        43.000                    92110826.80147
        28.900    22494402.08247
  20300373.234 9 106679200.665 9        52.100    20300379.383 9  83126677.66949
        54.900    20300378.71149  20300375.031 7  79663083.354 7        43.500
  20972021.195 9 110208722.379 9        52.400    20972026.746 9  85876960.28849
        54.900    20972026.68049  20972021.867 6  82298724.769 6        40.800
 21  1  1  0 49 30.0000000  0 10G01G32G21G23G16G08G18G20G27G10
  24056360.344 5 126417056.486 5        37.300    24056367.582 6  98506814.01346
        21.300    24056367.55146  24056364.055 2  94402347.77312        31.900
  24619808.867 6 129377958.400 6        39.100    24619815.512 5 100814013.72848
        32.500    24619814.79348
  22397957.867 8 117702072.071 8        47.400                    91715920.02549
        34.200    22397960.07449
  22444097.211 7 117944540.256 7        44.100    22444101.273 8  91904856.74048
        33.200    22444100.55548  22444101.027 5  88075479.485 5        35.800
  23127880.461 7 121537922.445 7        42.700                    94704806.22348
        30.100    23127883.65648
  20948776.484 9 110086572.412 9        50.200    20948783.539 9  85781773.27749
        54.600    20948782.12149  20948778.711 7  82207544.602 7        41.100
  25110852.992 4 131958419.818 4        34.600    25110859.211 5 102824779.29245
        16.900    25110857.34045
  22509957.328 7 118290644.571 7        43.100                    92174533.34847
        29.700    22509959.74247
  20304969.766 9 106703356.036 9        51.600    20304976.063 9  83145500.03449
        55.000    20304975.41049  20304971.719 7  79681121.465 7        43.100
  20975516.109 9 110227090.214 9        52.300    20975522.219 9  85891272.89149
        54.900    20975522.15649  20975517.035 7  82312440.987 7        41.300
 21  1  1  0 50  0.0000000  0  9G01G32G21G23G16G08G20G27G10
  24037441.750 5 126317637.984 5        36.400    24037449.313 6  98429345.07546
        21.800    24037449.34446  24037445.531 1  94328106.738 1        30.500
  24602504.289 5 129287024.318 5        37.300    24602511.883 5 100743156.00648
        31.800    24602510.52748
  22386670.461 8 117642756.148 8        46.600                    91669699.82449
        34.400    22386673.07049
  22459085.414 7 118023308.192 7        44.100    22459090.488 8  91966234.34948
        33.000    22459089.73048  22459090.445 5  88134299.700 5        36.200
  23148064.813 7 121643995.660 7        42.700                    94787460.68648
        30.200    23148068.60548
  20939027.586 9 110035342.076 9        51.000    20939034.719 9  85741853.53349
        54.600    20939033.40249  20939029.758 7  82169288.181 7        41.700
  22525577.172 7 118372729.028 7        42.600                    92238495.24747
        29.800    22525580.50047
  20309652.461 9 106727964.140 9        52.800    20309658.648 9  83164675.18349
        55.000    20309658.20749  20309654.391 7  79699497.638 7        43.400
  20979116.484 9 110246010.300 9        52.300    20979122.621 9  85906015.81849
        54.900    20979122.44949  20979117.434 7  82326569.631 7        41.100
 21  1  1  0 50 30.0000000  0  9G01G32G21G23G16G08G20G27G10
  24018544.609 5 126218336.36715        36.400    24018552.402 6  98351967.19756
        21.500    24018552.21946  24018548.820 1  94253952.91611        30.100
  24585216.648 5 129196176.075 5        37.100    24585223.289 5 100672365.19048
        31.900    24585222.18048
  22375422.703 8 117583652.439 8        46.700                    91623645.01949
        34.300    22375425.92249
  22474146.711 7 118102454.884 7        44.000    22474151.621 8  92027907.08148
        32.700    22474150.94548  22474151.816 5  88193402.709 5        36.000
  23168289.594 7 121750274.653 7        43.100                    94870275.46948
        30.200    23168292.77348
  20929346.867 9 109984469.307 9        51.000    20929353.676 9  85702212.42149
        54.600    20929352.59049  20929348.762 7  82131298.784 7        41.300
  22541259.031 7 118455138.308 7        42.400                    92302710.25648
        30.200    22541262.35548
  20314421.359 9 106753024.361 9        51.800    20314427.641 9  83184202.61449
        54.900    20314426.98849  20314423.109 7  79718211.437 7        43.000
  20982821.750 9 110265480.909 9        51.500    20982827.816 9  85921187.73049
        55.000    20982827.73449  20982822.902 6  82341109.393 6        40.900
 21  1  1  0 51  0.0000000  0  9G01G32G21G23G16G08G20G27G10
  23999670.977 6 126119152.65316        38.100    23999678.527 6  98274681.24356
        21.500    23999678.39146  23999673.766 1  94179887.10511        30.200
  24567945.594 5 129105416.661 5        37.700    24567952.664 6 100601643.59548
        32.000    24567951.93448
  22364216.352 8 117524761.041 8        46.000                    91577755.65449
        34.300    22364219.37149
  22489279.539 7 118181977.846 7        44.100    22489284.461 8  92089873.02148
        33.800    22489283.92248  22489284.578 5  88252786.771 5        36.100
  23188552.414 7 121856757.175 7        42.900                    94953248.86647
        29.400    23188556.00847
  20919734.797 9 109933955.821 9        51.000    20919741.430 9  85662851.26549
        54.700    20919740.41049  20919736.367 6  82093577.666 6        40.900
  22557003.008 7 118537870.230 7        42.600                    92367176.68347
        29.900    22557005.41847
  20319276.227 9 106778536.788 9        52.300    20319282.496 9  83204082.42649
        55.000    20319281.69149  20319278.234 7  79737262.909 7        43.400
  20986631.266 9 110285501.042 9        52.200    20986637.383 9  85936787.84049
        54.900    20986637.48849  20986632.688 7  82356059.494 7        41.300
 21  1  1  0 51 30.0000000  0  9G01G32G21G23G16G08G20G27G10
  23980820.023 6 126020087.337 6        38.900    23980826.914 5  98197487.44546
        21.800    23980826.64146  23980822.660 1  94105909.833 1        30.600
  24550692.570 6 129014748.894 6        38.700    24550699.070 5 100530993.38748
        32.300    24550697.89148
  22353049.898 8 117466082.010 8        46.100                    91532031.75249
        34.300    22353052.80949
  22504483.281 7 118261874.376 7        43.800    22504487.773 7  92152130.04748
        32.300    22504487.05948  22504488.520 5  88312449.770 5        35.900
  23208854.195 7 121963440.955 7        42.900                    95036379.08547
        28.900    23208857.04747
  20910191.055 9 109883802.920 9        50.400    20910197.770 9  85623771.08849
        54.800    20910196.63349  20910192.785 7  82056125.833 7        41.100
  22572806.859 7 118620921.825 7        42.000                    92431892.23347
        29.400    22572809.71547
  20324217.070 9 106804501.253 9        51.800    20324223.250 9  83224314.47649
        54.900    20324222.66049  20324219.055 7  79756651.972 7        43.300
  20990545.398 9 110306069.403 9        52.600    20990551.348 9  85952815.14849
        54.900    20990551.35249  20990546.918 6  82371419.010 6        40.900
 21  1  1  0 52  0.0000000  0  9G01G32G21G23G16G08G20G27G10
  23961990.195 5 125921141.64915        37.100    23961999.082 6  98120386.93256
        21.500    23961998.80946  23961994.594 1  94032021.86111        30.600
  24533457.031 5 128924176.098 5        37.300    24533463.461 5 100460417.18248
        32.600    24533462.77048
  22341924.016 8 117407615.637 8        45.500                    91486473.57049
        34.000    22341926.90249
  22519758.234 7 118342142.382 7        43.400    22519762.402 8  92214676.56148
        32.200    22519761.70748  22519762.742 5  88372390.160 5        35.900
  23229192.898 7 122070323.049 7        43.000                    95119663.82547
        28.700    23229195.85247
  20900715.867 9 109834012.599 9        51.000    20900722.824 9  85584973.43949
        54.900    20900721.77049  20900718.168 7  82018944.758 7        41.400
  22588670.906 7 118704291.595 7        41.700                    92496855.65847
        29.100    22588674.48447
  20329243.922 9 106830918.257 9        52.300    20329250.168 9  83244899.14549
        55.000    20329249.80149  20329246.242 7  79776378.940 7        43.200
  20994563.656 9 110327185.423 9        52.500    20994569.605 9  85969269.19449
        54.900    20994569.44549  20994564.699 7  82387187.456 7        41.200
 21  1  1  0 52 30.0000000  0  9G01G32G21G23G16G08G20G27G10
  23943183.641 4                        34.300    23943193.285 6  98043370.29016
        20.100    23943192.99646  23943187.750 1  93958223.79711        29.700
  24516239.734 5 128833701.266 5        36.900    24516246.867 6 100389917.33748
        32.400    24516246.27348
  22330838.438 8 117349361.727 8        46.400                    91441080.94049
        34.000    22330842.03149
  22535102.211 7 118422779.230 7        43.400    22535107.109 8  92277510.46748
        32.200    22535106.54348  22535106.984 5  88432605.994 5        35.500
  23249569.313 7 122177400.313 7        43.700                    95203100.65548
        30.200    23249572.11748
  20891310.680 9 109784586.304 9        51.000    20891317.473 9  85546459.45149
        55.000    20891316.34849  20891312.441 7  81982035.519 7        41.000
  22604595.719 7 118787976.880 7        41.600                    92562064.98047
        27.700    22604599.36347
  20334357.078 9 106857787.726 9        52.100    20334363.289 9  83265836.39749
        55.000    20334362.87949  20334359.273 7  79796443.790 7        43.100
  20998686.023 9 110348847.860 9        53.000    20998691.941 9  85986149.01549
        54.900    20998691.66849  20998687.137 7  82403363.954 7        41.500
 21  1  1  0 53  0.0000000  0  9G01G32G21G23G16G08G20G27G10
  23924402.414 5 125723612.36915        37.200    23924410.199 6  97966468.09356
        22.600    23924409.30146  23924404.852 1  93884516.26611        30.600
  24499043.016 6 128743327.427 6        38.600    24499049.414 6 100319496.18148
        33.300    24499048.82048
  22319793.734 8 117291320.608 8        45.600                    91395854.12049
        34.400    22319796.99649
  22550517.156 7 118503782.480 7        43.800    22550521.547 8  92340629.87248
        32.600    22550521.07048  22550522.035 5  88493095.447 5        36.200
  23269982.008 7 122284669.749 7        43.200                    95286687.21147
        28.700    23269985.36747
  20881974.563 9 109735526.120 9        51.100    20881981.457 9  85508230.73249
        55.100    20881980.52049  20881976.637 7  81945399.656 7        41.400
  22620580.648 7 118871975.315 7        42.500                    92627518.29647
        28.900    22620583.56647
  20339556.422 9 106885109.751 9        51.700    20339562.711 9  83287126.28349
        55.000    20339561.96949  20339558.469 7  79816846.607 7        42.800
  21002911.977 9 110371055.726 9        53.000    21002917.977 9  86003453.85649
        54.900    21002917.64149  21002913.133 6  82419947.777 6        40.900
 21  1  1  0 53 30.0000000  0  9G01G32G21G23G16G08G20G27G10
  23905642.750 5 125625030.470 5        36.900    23905650.629 6  97889651.05746
        24.000    23905650.89146  23905646.340 2  93810899.963 2        31.300
  24481863.898 5 128653057.489 5        36.800    24481872.074 6 100249155.95048
        32.800    24481870.22748
  22308789.281 8 117233492.441 8        45.900                    91350793.22049
        34.200    22308792.62149
  22566000.734 7 118585149.526 7        43.100    22566005.105 8  92404032.75548
        32.400    22566004.57848  22566005.570 5  88553856.515 5        36.000
  23290430.945 7 122392129.339 7        43.600                    95370421.95348
        30.100    23290434.11348
  20872708.961 9 109686833.748 9        51.100    20872715.758 9  85470288.61649
        54.900    20872714.62949  20872710.785 7  81909038.478 7        41.300
  22636623.945 7 118956284.457 7        42.400                    92693213.73147
        28.500    22636627.61347
  20344841.875 9 106912884.229 9        51.800    20344847.945 9  83308768.73249
        54.900    20344847.37149  20344843.762 7  79837587.287 7        43.000
  21007241.484 9 110393807.805 9        52.000    21007247.348 9  86021182.76249
        54.900    21007247.08649  21007242.605 6  82436937.950 6        40.700
 21  1  1  0 54  0.0000000  0  9G01G32G21G23G16G08G20G27G10
  23886907.023 5 125526571.093 5        37.500    23886914.047 6  97812929.48646
        22.000    23886913.84846  23886909.285 1  93737375.10711        30.600
  24464707.680 6 128562894.103 6        38.000    24464713.879 6 100178898.79648
        33.100    24464712.87948
  22297825.688 8 117175876.765 8        46.100                    91305897.90349
        34.500    22297828.57449
  22581553.102 7 118666877.532 7        43.200    22581557.137 7  92467716.92148
        31.400    22581556.84048  22581558.105 5  88614887.169 5        35.100
  23310915.641 7 122499776.471 7        43.100                    95454302.82647
        28.700    23310918.30547
  20863513.266 9 109638510.386 9        50.500    20863520.125 9  85432634.05049
        55.000    20863519.02349  20863515.211 7  81872952.848 7        41.700
  22652726.469 7 119040901.716 7        42.600                    92759149.25547
        28.600    22652729.13747
  20350213.500 9 106941110.879 9        52.000    20350219.133 9  83330763.52049
        55.000    20350218.64549  20350215.086 7  79858665.624 7        43.200
  21011674.016 9 110417102.610 9        52.100    21011680.289 9  86039334.56449
        55.000    21011680.16849  21011675.277 7  82454333.452 7        41.300
 21  1  1  0 54 30.0000000  0  9G01G32G21G23G16G08G20G27G10
  23868193.070 5 125428235.217 5        36.800    23868201.758 6  97736304.14746
        21.300    23868201.55546  23868197.004 2  93663942.555 2        31.900
  24447570.445 6 128472840.390 6        38.000    24447577.477 6 100108727.06148
        32.300    24447576.62548
  22286902.398 8 117118473.537 8        46.300                    91261168.13149
        35.500    22286904.82049
  22597173.523 7 118748964.024 7        43.500    22597177.984 8  92531680.42348
        32.200    22597177.52348  22597178.473 5  88676185.523 5        35.100
  23331434.766 7 122607607.651 7        42.800                    95538327.12147
        29.300    23331438.32847
  20854388.344 9 109590557.819 9        51.000    20854394.848 9  85395268.41949
        55.000    20854393.94549  20854390.086 7  81837144.115 7        41.700
  22668886.539 7 119125825.223 7        42.100                    92825323.41547
        27.800    22668889.62547
  20355670.477 9 106969789.750 9        51.600    20355676.711 9  83353110.69249
        55.000    20355675.98049  20355672.453 7  79880081.662 7        43.200
  21016210.359 9 110440939.135 9        52.500    21016216.164 9  86057908.48949
        54.900    21016216.11349  21016211.359 6  82472133.442 6        40.600
 21  1  1  0 55  0.0000000  0  9G01G32G21G23G16G08G20G27G10
  23849504.063 5 125330024.003 5        35.100    23849512.602 6  97659775.94145
        19.600    23849511.97345  23849508.008 2  93590603.058 2        31.800
  24430455.219 6 128382899.646 6        38.500    24430462.395 6 100038643.39549
        34.000    24430461.64549
  22276019.680 8 117061283.449 8        46.700                    91216604.42949
        35.500    22276022.14549
  22612861.875 7 118831406.829 7        43.000    22612866.355 8  92595921.56748
        31.900    22612866.08648  22612866.637 5  88737749.958 5        35.700
  23351989.422 7 122715620.807 7        43.200                    95622493.21547
        28.700    23351992.44147
  20845334.250 9 109542978.006 9        51.400    20845340.875 9  85358193.23349
        55.100    20845339.72749  20845336.012 7  81801613.751 7        41.600
  22685105.258 7 119211052.300 7        41.900                    92891734.10847
        28.500    22685107.87147
  20361213.891 9 106998921.165 9        51.100    20361220.160 9  83375810.48449
        54.900    20361219.49249  20361215.898 7  79901835.634 7        43.400
  21020849.086 9 110465316.504 9        51.500    21020855.039 9  86076903.84549
        54.900    21020854.78149  21020850.035 6  82490337.350 6        40.700
 21  1  1  0 55 30.0000000  0  9G01G32G21G23G16G08G20G27G10
  23830839.094 5 125231938.136 5        36.300    23830848.117 6  97583345.42846
        22.600    23830847.41446  23830842.918 2  93517357.14912        31.200
  24413362.195 5 128293074.826 5        37.600    24413369.113 6  99968650.04548
        33.600    24413368.41848
  22265176.883 8 117004306.525 8        47.100                    91172206.83349
        35.500    22265179.65249
  22628617.523 7 118914203.325 7        42.600    22628621.844 8  92660438.30248
        32.800    22628621.66448  22628622.582 5  88799578.476 5        35.700
  23372576.766 7 122823812.680 7        43.400                    95706798.55647
        29.000    23372580.44547
  20836351.289 9 109495772.770 9        50.700    20836358.172 9  85321409.93549
        55.200    20836356.83649  20836353.141 7  81766363.093 7        41.300
  22701380.406 7 119296580.789 7        41.900                    92958379.69247
        29.300    22701383.60247
  20366843.438 9 107028505.004 9        52.000    20366849.813 9  83398862.82049
        54.900    20366849.13749  20366845.629 7  79923927.458 7        43.400
  21025590.609 9 110490233.450 9        52.100    21025596.719 9  86096319.65149
        54.900    21025596.44549  21025591.727 6  82508944.152 6        40.200
 21  1  1  0 56  0.0000000  0  9G01G32G21G23G16G08G20G27G10
  23812197.914 5 125133978.144 5        36.200    23812205.801 6  97507013.01446
        21.100    23812205.64846  23812201.148 1  93444205.215 1        30.800
  24396291.867 6 128203368.556 6        38.400    24396298.621 6  99898749.05448
        33.100    24396297.68448
  22254374.859 8 116947542.670 8        46.200                    91127975.27449
        35.100    22254377.97349
  22644439.750 7 118997350.659 7        43.800    22644444.281 8  92725228.43948
        32.000    22644444.04348  22644444.746 5  88861669.049 5        35.200
  23393198.813 7 122932180.507 7        43.200                    95791240.99547
        27.400    23393202.39847
  20827439.578 9 109448943.049 9        51.000    20827446.578 9  85284919.24349
        55.400    20827445.50449  20827441.680 7  81731392.844 7        41.900
  22717712.867 7 119382408.073 7        42.100                    93025258.09947
        29.400    22717716.18447
  20372559.086 9 107058540.914 9        52.100    20372565.363 9  83422267.41749
        55.000    20372564.81649  20372561.352 7  79946356.858 7        42.700
  21030434.500 9 110515688.446 9        51.900    21030440.469 9  86116154.71949
        54.900    21030440.07849  21030435.836 7  82527952.792 7        41.000
 21  1  1  0 56 30.0000000  0  9G01G32G21G23G16G08G20G27G10
  23793580.984 5 125036145.002 5        36.800    23793589.023 6  97430779.38746
        22.900    23793589.08646  23793585.102 2  93371147.98612        31.600
  24379244.789 6 128113783.978 6        38.300    24379250.598 6  99828942.91248
        33.500    24379250.25848
  22243613.633 8 116890991.770 8        46.500                    91083909.65949
        35.200    22243616.56649
  22660328.867 7 119080846.400 7        43.200    22660333.188 7  92790290.06948
        32.100    22660332.52348  22660333.195 5  88924019.757 5        35.000
  23413853.984 7 123040722.248 7        43.600                    95875818.97647
        28.200    23413856.93047
  20818600.305 9 109402491.067 9        51.300    20818607.297 9  85248722.90349
        55.400    20818606.17249  20818602.254 7  81696704.683 7        41.300
  22734100.945 7 119468531.739 7        42.000                    93092367.43347
        27.800    22734104.77747
  20378360.859 9 107089028.890 9        51.500    20378367.164 9  83446024.29349
        55.000    20378366.60949  20378363.297 7  79969123.867 7        42.900
  21035380.703 9 110541680.332 9        52.700    21035386.566 9  86136408.14949
        55.000    21035386.51649  21035381.848 7  82547362.304 7        41.500
 21  1  1  0 57  0.0000000  0  9G01G32G21G23G16G08G20G27G10
  23774987.773 5 124938439.499 5        37.500    23774995.973 6  97354645.23246
        21.700    23774995.83246  23774990.531 1  93298186.117 1        30.500
  24362221.172 6 128024324.177 6        39.400    24362227.703 6  99759233.98749
        34.900    24362226.83649
  22232892.828 8 116834653.905 8        46.300                    91040010.04049
        35.500    22232895.68449
  22676283.445 7 119164688.060 7        42.900    22676287.375 8  92855621.23148
        31.300    22676287.39848  22676287.609 5  88986628.832 5        35.300
  23434541.125 7 123149434.986 7        42.500                    95960530.19347
        28.100    23434544.78547
  20809832.773 9 109356418.101 9        51.200    20809839.836 9  85212821.89649
        55.000    20809838.73849  20809834.871 7  81662299.558 7        41.600
  22750546.375 7 119554949.655 7        41.200                    93159706.06747
        28.100    22750549.37147
  20384248.492 9 107119968.955 9        51.500    20384254.797 9  83470133.43249
        55.200    20384254.21149  20384250.824 7  79992228.445 7        43.000
  21040428.852 9 110568207.972 9        51.900    21040434.520 9  86157079.04049
        54.900    21040434.72749  21040429.773 6  82567171.908 6        40.900
 21  1  1  0 57 30.0000000  0  9G01G32G21G23G16G08G20G27G10
  23756418.836 5 124840862.455 5        35.000    23756428.305 6  97278611.25546
        21.300    23756428.10546  23756423.191 2  93225320.190 2        31.400
  24345221.680 6 127934992.075 6        38.400    24345228.496 6  99689624.54249
        34.200    24345227.68049
  22222212.602 8 116778529.319 8        46.700                    90996276.61649
        35.200    22222215.32849
  22692303.000 7 119248873.015 7        42.600    22692307.621 8  92921219.87748
        32.300    22692307.01248  22692308.180 5  89049494.185 5        35.300
  23455260.758 7 123258315.519 7        43.300                    96045372.15847
        28.200    23455263.61747
  20801137.844 9 109310726.020 9        51.000    20801144.832 9  85177217.67449
        55.400    20801143.72349  20801140.129 7  81628178.847 7        41.700
  22767047.297 7 119641659.224 7        41.600                    93227271.98847
        28.000    22767049.48447
  20390222.188 9 107151360.901 9        52.200    20390228.516 9  83494594.67549
        55.000    20390228.03149  20390224.563 7  80015670.488 7        43.000
  21045578.672 9 110595269.999 9        52.100    21045584.438 9  86178166.34349
        54.900    21045584.37949  21045579.336 7  82587380.582 7        41.200
 21  1  1  0 58  0.0000000  0  9G01G32G21G23G16G08G20G27G10
  23737876.234 5 124743415.044 5        37.400    23737884.504 6  97202678.18446
        21.800    23737883.75846  23737878.914 1  93152551.071 1        30.700
  24328246.203 5 127845790.998 5        37.600    24328253.586 6  99620117.24248
        33.600    24328252.55148
  22211573.211 8 116722618.214 8        45.900                    90952709.53549
        35.300    22211575.97349
  22708387.984 7 119333399.116 7        43.100    22708392.563 7  92987084.35348
        31.400    22708391.65248  22708393.320 5  89112614.309 5        35.900
  23476011.211 7 123367361.086 7        42.600                    96130342.71047
        27.200    23476014.28547
  20792516.164 9 109265417.088 9        51.400    20792522.578 9  85141912.02549
        55.000    20792521.65249  20792518.066 7  81594344.263 7        41.600
  22783601.969 6 119728658.687 6        40.900                    93295063.75047
        28.100    22783605.33247
  20396282.086 9 107183205.071 9        52.000    20396288.348 9  83519408.30949
        55.000    20396287.60549  20396284.234 7  80039450.224 7        43.000
  21050829.375 9 110622865.535 9        51.600    21050835.520 9  86199669.36349
        55.000    21050835.28949  21050830.801 7  82607987.647 7        41.100
 21  1  1  0 58 30.0000000  0 10G01G32G21G23G16G08G22G20G27G10
  23719357.563 6 124646097.635 6        38.000    23719366.039 6  97126846.49346
        22.500    23719365.69946  23719360.652 2  93079879.02412        31.200
  24311297.961 6 127756723.608 6        39.000    24311304.703 6  99550714.09049
        35.100    24311303.69949
  22200973.844 8 116666920.339 8        46.000                    90909308.61549
        35.800    22200976.97349
  22724536.953 7 119418263.403 7        42.800    22724541.453 7  93053212.38848
        31.300    22724540.52748  22724541.781 5  89175986.968 5        35.800
  23496792.703 7 123476569.278 7        42.700                    96215440.00747
        27.600    23496796.00847
  20783967.094 9 109220491.773 9        51.300    20783973.625 9  85106905.28949
        55.100    20783972.68849  20783968.867 7  81560796.137 7        41.400
  25263208.484 5 132759061.01415        36.100

  22800212.070 7 119815945.108 7        41.600                    93363079.13047
        28.100    22800215.27047
  20402427.883 9 107215500.926 9        51.600    20402433.980 9  83544573.90249
        55.000    20402433.28949  20402429.836 7  80063567.247 7        42.700
  21056182.078 9 110650992.895 9        52.200    21056188.105 9  86221586.79449
        54.900    21056187.88749  21056183.121 7  82628991.850 7        41.300
 21  1  1  0 59  0.0000000  0 10G01G32G21G23G16G08G22G20G27G10
  23700862.703 5 124548910.758 5        36.500    23700871.250 6  97051116.46146
        21.500    23700870.25446  23700866.781 2  93007304.418 2        31.200
  24294375.273 6 127667792.625 6        39.300    24294381.824 6  99481417.23049
        35.100    24294381.48449
  22190415.664 8 116611435.444 8        46.100                    90866073.65349
        36.000    22190418.80949
  22740749.547 7 119503463.005 7        41.800    22740754.359 7  93119601.66448
        30.400    22740753.90248  22740754.031 5  89239610.040 5        35.000
  23517604.398 7 123585937.458 7        42.000                    96300661.95247
        27.900    23517607.98047
  20775491.477 9 109175951.862 9        51.400    20775498.000 9  85072198.86049
        55.300    20775497.08649  20775493.305 7  81527535.810 7        41.400
  25241869.758 6 132646925.211 6        39.300                   103361241.37556
        21.800    25241871.98846
  22816876.328 7 119903515.932 7        41.000                    93431316.13147
        27.900    22816879.04747
  20408659.352 9 107248248.017 9        51.500    20408665.316 9  83570091.11349
        54.900    20408664.99249  20408661.266 7  80088021.242 7        43.100
  21061635.766 9 110679650.387 9        51.700    21061641.414 9  86243917.31349
        54.900    21061641.12549  21061636.848 6  82650391.937 6        40.900
 21  1  1  0 59 30.0000000  0 10G01G32G21G23G16G08G22G20G27G10
  23682393.648 5 124451855.769 5        37.400    23682402.594 6  96975489.27146
        22.300    23682402.44946  23682398.266 2  92934828.358 2        31.200
  24277478.742 6 127579001.528 6        38.700    24277484.793 6  99412229.35349
        34.600    24277484.64849
  22179898.211 8 116556163.999 8        46.400                    90823005.00549
        36.200    22179901.27749
  22757026.531 7 119588995.881 7        42.700    22757030.859 7  93186250.66048
        31.100    22757030.01648  22757030.875 5  89303482.002 5        35.100
  23538446.852 7 123695462.488 7        41.800                    96386006.12647
        28.000    23538450.28947
  20767089.281 9 109131799.621 9        51.600    20767096.152 9  85037794.52549
        55.800    20767095.13749  20767091.445 7  81494565.004 7        41.700
  25220541.586 4 132534845.606 4        34.800                   103273906.79745
        16.300    25220543.99245
  22833594.406 6 119991369.389 6        40.900                    93499773.36747
        27.400    22833597.30147
  20414976.742 9 107281446.734 9        51.100    20414982.922 9  83595960.23949
        55.000    20414982.41849  20414978.840 7  80112812.485 7        43.000
  21067189.539 9 110708837.242 9        52.100    21067195.512 9  86266660.32649
        54.900    21067195.33249  21067190.543 7  82672187.327 7        41.300
 21  1  1  1  0  0.0000000  0 10G01G32G21G23G16G08G22G20G27G10
  23663950.656 6 124354933.369 6        38.100    23663958.813 6  96899965.35346
        22.000    23663957.89146  23663953.813 1  92862451.279 1        30.800
  24260608.898 6 127490353.183 6        39.700    24260616.172 6  99343152.75849
        34.800    24260614.92249
  22169420.867 8 116501105.977 8        46.600                    90780102.66849
        36.500    22169423.79749
  22773365.695 7 119674859.380 7        42.700    22773370.090 8  93253157.29448
        31.200    22773369.36348  22773370.629 5  89367600.841 5        35.000
  23559318.102 7 123805142.080 7        41.400                    96471470.72947
        27.300    23559321.18447
  20758761.422 9 109088036.390 9        51.100    20758768.371 9  85003693.30149
        55.700    20758767.32449  20758763.555 7  81461884.663 7        41.100
  25199225.094 6 132422824.421 6        39.900                   103186617.36545
        18.300    25199225.50045
  22850365.641 7 120079502.834 7        41.600                    93568448.79647
        27.700    22850368.96547
  20421380.188 9 107315096.813 9        50.800    20421386.414 9  83622181.07049
        55.000    20421385.79349  20421382.359 7  80137940.774 7        43.000
  21072843.758 9 110738551.985 9        51.600    21072849.945 9  86289814.67049
        54.900    21072849.80549  21072845.203 7  82694376.900 7        41.400
 21  1  1  1  0 30.0000000  0 10G01G32G21G23G16G08G22G20G27G10
  23645531.875 5 124258144.303 5        37.900    23645540.188 6  96824545.34446
        23.300    23645540.13346  23645536.078 3  92790173.789 3        32.300
  24243767.711 6 127401850.689 6        39.400    24243775.020 6  99274189.76949
        35.100    24243773.41449
  22158983.945 8 116446261.487 8        46.600                    90737366.70949
        36.600    22158987.07449
  22789766.969 7 119761050.919 7        42.000    22789771.426 7  93320319.53448
        31.500    22789770.94948  22789772.508 4  89431964.668 4        34.900
  23580218.414 7 123914973.231 7        41.800                    96557053.41947
        26.000    23580221.30147
  20750508.016 9 109044663.876 9        51.400    20750514.641 9  84969896.53849
        55.300    20750513.86749  20750510.020 7  81429496.093 7        41.800
  25177916.813 1 132310863.040 1        30.700                   103099374.91845
        16.900    25177921.19545
  22867190.141 7 120167913.776 7        41.700                    93637340.42047
        28.700    22867192.64147
  20427869.539 9 107349198.055 9        50.900    20427875.676 9  83648753.45549
        55.000    20427875.05949  20427871.461 7  80163405.976 7        42.900
  21078598.617 9 110768793.247 9        51.200    21078604.543 9  86313379.30349
        54.900    21078604.26249  21078599.785 6  82716959.655 6        40.900
 21  1  1  1  1  0.0000000  0 10G01G32G21G23G16G08G22G20G27G10
  23627139.500 6 124161489.513 6        38.700    23627147.043 6  96749229.95846
        22.300    23627147.02046  23627142.387 2  92717996.467 2        31.300
  24226954.820 6 127313497.091 6        40.100    24226961.684 6  99205342.82049
        36.100    24226960.45349
  22148588.625 8 116391630.674 8        47.000                    90694797.26849
        36.800    22148591.21949
  22806231.242 7 119847568.057 7        42.600    22806235.355 7  93387735.48148
        31.400    22806235.10948  22806235.984 5  89496571.621 5        35.200
  23601146.891 7 124024952.990 7        42.000                    96642751.92947
        27.400    23601149.78947
  20742329.258 9 109001683.943 9        51.000    20742336.086 9  84936405.68449
        55.600    20742335.09449  20742331.293 7  81397400.696 7        42.100
  25156625.383 6 132198963.931 6        40.700                   103012180.84046
        22.500    25156627.64846
  22884066.422 6 120256600.204 6        40.700                    93706446.75547
        25.700    22884068.84847
  20434444.453 9 107383750.447 9        50.700    20434450.863 9  83675677.39249
        55.200    20434450.17649  20434446.449 7  80189208.087 7        43.400
  21084453.367 9 110799559.716 9        50.900    21084459.559 9  86337353.18349
        55.000    21084459.09449  21084454.281 6  82739934.645 6        40.500
 21  1  1  1  1 30.0000000  0 10G01G32G21G23G16G08G22G20G27G10
  23608772.805 6 124064969.432 6        39.000    23608779.840 6  96674019.51946
        22.300    23608779.36746  23608775.375 2  92645919.896 2        31.700
  24210170.883 6 127225295.081 6        40.600    24210177.344 6  99136614.00249
        35.900    24210176.69149
  22138232.938 8 116337213.417 8        47.300                    90652394.20349
        36.600    22138236.02049
  22822756.555 7 119934407.935 7        42.900    22822760.758 7  93455402.91748
        31.000    22822759.78548  22822760.973 5  89561419.585 5        35.100
  23622102.938 7 124135078.670 7        41.600                    96728564.15247
        26.700    23622106.13347
  20734225.164 9 108959097.607 9        51.500    20734232.234 9  84903221.53349
        55.600    20734231.05549  20734227.566 7  81365599.210 7        41.800
  25135341.672 3 132087128.933 3        32.400                   102925036.60344
        14.800    25135345.32844
  22900993.281 6 120345559.499 6        40.400                    93775765.67847
        25.600    22900997.59447
  20441105.406 9 107418753.424 9        51.400    20441111.664 9  83702952.42149
        55.000    20441111.04349  20441107.281 7  80215346.657 7        43.000
  21090407.922 9 110830849.817 9        51.200    21090413.563 9  86361735.08849
        55.000    21090413.39549  21090408.617 7  82763300.627 7        41.300
 21  1  1  1  2  0.0000000  0 10G01G32G21G23G16G08G22G20G27G10
  23590430.367 6 123968585.138 6        38.900    23590439.016 6  96598914.90546
        22.500    23590439.02046  23590434.379 3  92573944.582 3        32.200
  24193415.234 6 127137247.889 6        39.700    24193422.211 6  99068005.79649
        36.300    24193421.98049
  22127918.648 8 116283009.514 8        46.700                    90610157.41649
        37.200    22127921.46549
  22839342.156 7 120021568.156 7        42.300    22839346.465 7  93523319.95247
        29.400    22839345.82047  22839346.785 4  89626506.749 4        34.900
  23643086.883 7 124245347.870 7        41.100                    96814488.22447
        26.700    23643089.94947
  20726196.609 9 108916906.645 9        50.800    20726203.559 9  84870345.46549
        55.500    20726202.10249  20726198.707 7  81334092.975 7        41.700
  25114074.938 6 131975359.355 6        39.100                   102837943.58347
        25.300    25114076.75447
  22917974.313 7 120434789.468 7        41.200                    93845295.51647
        26.400    22917976.94147
  20447851.977 9 107454207.006 9        51.300    20447858.199 9  83730578.58249
        54.900    20447857.66449  20447853.961 7  80241821.710 7        43.300
  21096461.516 9 110862662.101 9        50.900    21096467.465 9  86386523.88449
        54.900    21096467.33649  21096462.609 6  82787056.550 6        40.400
 21  1  1  1  2 30.0000000  0 10G01G32G21G23G16G08G22G20G27G10
  23572115.508 6 123872337.354 6        38.400    23572123.453 6  96523916.67846
        22.900    23572123.14546  23572119.012 2  92502071.320 2        31.900
  24176690.602 6 127049358.475 6        39.800    24176697.352 6  98999520.56949
        35.800    24176696.38749
  22117644.211 8 116229019.169 8        46.600                    90568087.03149
        36.200    22117647.07849
  22855988.508 7 120109046.133 7        43.600    22855993.113 7  93591484.61948
        30.500    22855992.16448  22855993.074 4  89691831.208 4        34.600
  23664097.141 7 124355758.366 7        41.100                    96900522.34747
        25.300    23664100.44147
  20718243.469 9 108875112.729 9        51.300    20718250.375 9  84837778.77349
        54.900    20718249.00849  20718245.555 7  81302883.242 7        42.400
  25092818.883 5 131863657.773 5        37.500                   102750903.42246
        21.500    25092820.28146
  22935005.219 7 120524287.588 7        41.200                    93915034.30047
        26.500    22935008.34047
  20454684.273 9 107490110.927 9        51.700    20454690.813 9  83758555.67149
        55.000    20454690.01249  20454686.434 7  80268633.087 7        42.600
  21102614.063 9 110894995.191 9        51.300    21102620.074 9  86411718.51049
        54.900    21102619.80949  21102615.238 6  82811201.411 6        40.900
 21  1  1  1  3  0.0000000  0 10G01G32G21G23G16G08G22G20G27G10
  23553826.727 6 123776226.953 6        39.200    23553834.242 6  96449025.46046
        22.800    23553833.94546  23553829.328 3  92430300.55713        32.700
  24159997.180 6 126961629.895 6        40.200    24160003.090 6  98931160.64749
        36.400    24160002.58649
  22107411.086 8 116175242.613 8        46.600                    90526183.21849
        36.800    22107413.67249
  22872695.258 7 120196839.405 7        42.400    22872699.578 7  93659894.96348
        30.400    22872698.96148  22872699.813 4  89757391.085 4        34.400
  23685133.734 6 124466307.031 6        40.800                    96986664.16147
        26.500    23685137.39547
  20710366.227 9 108833717.648 9        51.400    20710373.117 9  84805522.86949
        55.100    20710371.91049  20710368.496 7  81271971.327 7        41.600
  25071575.445 5 131752025.74815        36.900                   102663917.47555
        19.000    25071577.09445
  22952086.547 6 120614051.560 6        40.800                    93984980.22447
        27.300    22952089.73847
  20461602.461 9 107526465.091 9        52.300    20461608.629 9  83786883.57249
        54.900    20461607.86749  20461604.305 7  80295780.668 7        42.300
  21108865.938 9 110927847.741 9        51.900    21108871.895 9  86437317.91349
        54.900    21108871.59449  21108866.863 6  82835734.169 6        40.900
 21  1  1  1  3 30.0000000  0 10G01G32G21G23G16G08G22G20G27G10
  23535562.813 5 123680254.401 5        37.900    23535570.445 6  96374241.70146
        21.100    23535569.97746  23535566.590 3  92358632.790 3        33.100
  24143333.164 6 126874064.900 6        40.200    24143340.195 7  98862928.19149
        36.200    24143339.69549
  22097218.578 8 116121679.572 8        46.400                    90484445.77149
        36.900    22097221.03949
  22889460.891 7 120284945.015 7        41.800    22889465.371 7  93728548.67448
        30.200    22889464.83248  22889465.730 5  89823184.266 5        35.200
  23706196.211 6 124576990.327 6        40.800                    97072910.86647
        26.100    23706199.68047
  20702565.383 9 108792722.765 9        51.300    20702572.047 9  84773578.80849
        55.200    20702570.94549  20702566.852 7  81241358.275 7        42.200
  25050346.992 5 131640465.210 5        37.800                   102576987.20446
        23.000    25050348.85546
  22969219.023 7 120704078.819 7        41.300                    94055131.34547
        27.000    22969220.92647
  20468605.750 9 107563268.834 9        50.800    20468612.090 9  83815561.80349
        55.000    20468611.49649  20468607.793 7  80323263.973 7        42.600
  21115215.836 9 110961217.943 9        50.700    21115221.750 9  86463320.65649
        55.000    21115221.69949  21115217.270 6  82860653.448 6        40.900
 21  1  1  1  4  0.0000000  0 10G01G32G21G23G16G08G22G20G27G10
  23517326.578 6 123584421.572 6        38.300    23517335.344 6  96299566.80246
        23.200    23517335.17646  23517330.355 3  92287069.367 3        32.900
  24126702.625 6 126786667.533 6        40.200    24126708.813 6  98794826.36649
        36.700    24126708.20749
  22087066.484 8 116068331.140 8        46.900                    90442875.58649
        37.400    22087069.31649
  22906286.234 7 120373361.620 7        42.400    22906290.551 7  93797444.73748
        30.600    22906289.85248  22906291.145 4  89889209.636 4        34.100
  23727283.773 6 124687806.675 6        40.900                    97159261.24947
        26.200    23727286.68447
  20694840.578 9 108752130.667 9        51.100    20694847.477 9  84741948.60649
        55.000    20694846.50449  20694842.766 7  81211045.996 7        41.600
  25029130.539 4 131528978.606 4        34.900                   102490114.55645
        18.600    25029133.02745
  22986399.883 7 120794368.212 7        41.100                    94125486.72247
        27.700    22986402.53547
  20475695.133 9 107600523.106 9        50.900    20475701.277 9  83844591.08849
        55.000    20475700.78949  20475697.109 7  80351083.699 7        42.600
  21121664.227 9 110995105.415 9        50.700    21121670.332 9  86489726.48649
        55.000    21121670.25049  21121665.754 6  82885959.042 6        40.900
 21  1  1  1  4 30.0000000  0 10G01G32G21G23G16G08G22G20G27G10
  23499117.156 6 123488728.066 6        38.900    23499124.797 6  96225000.43446
        23.900    23499125.05946  23499119.734 3  92215610.021 3        32.400
  24110103.359 6 126699439.547 6        40.100    24110110.305 6  98726856.54249
        36.900    24110109.43049
  22076954.969 8 116015196.243 8        46.800                    90401471.77149
        37.300    22076958.08249
  22923169.664 7 120462085.238 7        42.500    22923173.918 7  93866580.01848
        31.600    22923173.58248  22923174.828 5  89955464.290 5        35.300
  23748396.172 6 124798752.358 6        40.900                    97245712.41247
        25.000    23748399.79747
  20687192.734 9 108711941.172 9        51.700    20687199.848 9  84710632.11149
        55.300    20687198.59849  20687194.918 7  81181034.364 7        41.600
  25007930.586 5 131417567.10815        36.800                   102403300.49356
        21.500    25007932.35946
  23003630.969 7 120884916.024 7        41.100                    94196043.44747
        26.500    23003633.51247
  20482869.883 9 107638226.317 9        51.800    20482876.109 9  83873970.20849
        55.100    20482875.35549  20482871.824 7  80379238.685 7        42.900
  21128211.016 9 111029507.385 9        51.600    21128216.984 9  86516533.22049
        54.900    21128216.84449  21128212.125 6  82911648.849 6        40.800
 21  1  1  1  5  0.0000000  0 10G01G32G21G23G16G08G22G20G27G10
  23480934.359 6 123393174.832 6        39.000    23480941.949 6  96150543.42846
        22.900    23480941.70746  23480937.547 2  92144255.323 2        31.900
  24093537.180 6 126612384.255 6        40.500    24093544.293 6  98659021.24249
        37.100    24093543.01649
  22066884.594 8 115962274.849 8        47.100                    90360234.33349
        37.400    22066887.28549
  22940111.063 7 120551113.677 7        42.100    22940116.117 7  93935952.81047
        29.600    22940115.04747  22940116.160 4  90021946.551 4        34.400
  23769532.555 7 124909824.709 7        41.300                    97332262.29847
        25.500    23769535.14847
  20679622.297 9 108672156.706 9        51.100    20679628.969 9  84679631.23449
        55.300    20679627.91849  20679624.039 7  81151325.166 7        42.500
  24986743.719 4 131306232.971 4        34.500                   102316546.46945
        19.600    24986746.14545
  23020909.984 7 120975720.059 7        41.100                    94266799.83347
        27.500    23020913.28547
  20490129.883 9 107676378.445 9        52.100    20490136.188 9  83903699.12849
        55.000    20490135.59449  20490131.969 7  80407728.896 7        42.700
  21134855.133 9 111064422.603 9        50.800    21134860.918 9  86543739.88849
        55.000    21134860.71149  21134856.156 6  82937721.887 6        40.600
 21  1  1  1  5 30.0000000  0 10G01G32G21G23G16G08G22G20G27G10
  23462777.602 6 123297763.080 6        39.000    23462785.453 6  96076196.62446
        23.800    23462784.50046  23462780.832 3  92073006.299 3        32.700
  24077004.969 7 126525504.969 7        41.000    24077011.563 6  98591323.11149
        37.300    24077010.66049
  22056854.656 8 115909567.403 8        46.700                    90319163.60149
        37.300    22056857.44549
  22957110.578 7 120640444.654 7        42.400    22957115.016 7  94005561.37747
        29.700    22957114.45347  22957115.102 4  90088654.764 4        34.300
  23790692.836 7 125021021.612 7        41.800                    97418909.22347
        25.600    23790695.73047
  20672128.844 9 108632778.918 9        51.300    20672135.809 9  84648947.24649
        55.100    20672134.60249  20672131.012 7  81121919.709 7        41.900
  24965573.078 5 131194978.24915        37.900                   102229854.60956
        23.500    24965575.37946
  23038238.117 7 121066778.491 7        41.100                    94337754.43947
        27.300    23038241.03147
  20497475.328 9 107714979.564 9        50.700    20497481.715 9  83933777.92049
        54.900    20497481.10549  20497477.438 7  80436554.392 7        42.500
  21141596.320 9 111099849.865 9        50.500    21141602.730 9  86571345.55949
        54.900    21141602.36349  21141597.887 6  82964177.333 6        40.800
 21  1  1  1  6  0.0000000  0 10G01G32G21G23G16G08G22G20G27G10
  23444647.375 6 123202493.066 6        38.800    23444656.008 6  96001960.27546
        23.300    23444655.74246  23444651.813 3  92001863.130 3        32.600
  24060506.180 6 126438804.161 6        40.600    24060512.547 6  98523764.05649
        37.300    24060512.19949
  22046865.398 8 115857073.356 8        47.100                    90278259.15549
        37.300    22046868.26649
  22974167.234 7 120730075.127 7        43.100    22974170.867 7  94075403.29147
        28.900    22974170.02747  22974171.477 4  90155586.618 4        34.600
  23811875.727 7 125132339.879 7        41.100                    97505650.74046
        24.100    23811878.35246
  20664713.297 9 108593809.002 9        50.900    20664719.918 9  84618581.08249
        55.700    20664719.05949  20664715.281 7  81092818.790 7        42.400
  24944417.719 5 131083804.28715        36.100                   102143225.50756
        20.400    24944418.32446
  23055613.773 6 121158088.544 6        40.900                    94408905.11247
        26.000    23055616.37147
  20504906.273 9 107754028.837 9        50.900    20504912.453 9  83964205.91649
        54.900    20504912.03149  20504908.375 7  80465714.576 7        42.100
  21148435.039 9 111135787.124 9        50.900    21148441.328 9  86599348.61949
        55.000    21148441.17249  21148436.301 6  82991013.604 6        40.500
 21  1  1  1  6 30.0000000  0 10G01G32G21G23G16G08G22G20G27G10
  23426546.859 6 123107366.003 6        39.200    23426553.855 6  95927835.31647
        25.700    23426553.83647  23426549.348 3  91930826.739 3        32.800
  24044042.008 6 126352285.331 6        40.900    24044049.102 6  98456346.80749
        37.100    24044047.82449
  22036916.867 8 115804792.980 8        47.300                    90237521.20449
        38.200    22036919.78149
  22991279.703 7 120820002.978 7        42.600    22991283.703 7  94145476.95147
        28.900    22991282.96547  22991283.621 4  90222740.544 4        34.000
  23833081.102 7 125243777.666 7        41.100                    97592485.36646
        24.100    23833085.05946
  20657375.250 9 108555249.063 9        51.200    20657382.074 9  84588534.37549
        55.300    20657381.05949  20657377.594 7  81064024.048 7        41.800
  24923274.727 3                        32.000
        19.000    24923279.76645
  23073036.992 6 121249647.944 6        40.900                    94480250.11046
        24.400    23073039.35246
  20512422.344 9 107793526.429 9        51.900    20512428.797 9  83994983.25349
        54.900    20512428.24249  20512424.371 7  80495209.497 7        43.000
  21155370.914 9 111172233.300 9        51.400    21155376.734 9  86627748.24349
        55.100    21155376.53549  21155371.770 7  83018229.898 7        41.200
 21  1  1  1  7  0.0000000  0 10G01G32G21G23G16G08G22G20G27G10
  23408471.852 6 123012383.390 6        39.600    23408479.414 7  95853822.93847
        26.200    23408479.14847  23408474.781 3  91859898.206 3        32.300
  24027613.688 6 126265952.129 6        40.800    24027620.566 6  98389074.18349
        37.600    24027619.32049
  22027009.086 8 115752727.250 8        47.200                    90196950.51049
        37.900    22027011.98049
  23008448.492 7 120910226.313 7        42.700    23008452.637 7  94215780.84248
        30.200    23008452.24248  23008453.090 4  90290115.052 4        34.400
  23854309.547 7 125355331.656 7        41.300                    97679410.55447
        25.800    23854312.39847
  20650116.016 9 108517101.362 9        51.100    20650123.035 9  84558808.89249
        55.500    20650121.92649  20650118.070 7  81035537.111 7        41.600
  24902154.641 6 130861708.87516        38.000                   101970164.10656
        22.600    24902155.48046
  23090506.695 6 121341455.374 6        40.500                    94551788.35846
        24.800    23090509.98046
  20520024.047 9 107833472.639 9        50.700    20520030.008 9  84026110.16549
        55.000    20520029.66849  20520026.168 7  80525039.469 7        43.000
  21162402.930 9 111209187.443 9        50.500    21162408.777 9  86656543.68049
        55.000    21162408.55149  21162404.012 6  83045825.523 6        40.400
 21  1  1  1  7 30.0000000  0 10G01G32G21G23G16G08G22G20G27G10
  23390424.516 6 122917544.655 6        39.400    23390431.930 7  95779922.67547
        25.600    23390431.85247  23390427.801 2  91789077.157 2        31.600
  24011220.813 7 126179806.228 7        41.100    24011227.141 7  98321947.52749
        37.600    24011226.28949
  22017141.914 8 115700875.101 8        47.600                    90156546.26549
        37.700    22017144.70349
  23025672.492 7 121000741.211 7        43.000    23025677.234 7  94286311.92847
        29.300    23025676.62147  23025677.297 4  90357707.370 4        34.000
  23875558.992 6 125466998.813 6        40.400                    97766423.89146
        23.800    23875562.31646
  20642935.195 9 108479365.537 9        51.300    20642942.066 9  84529404.35649
        55.400    20642941.02749  20642937.223 7  81007357.769 7        42.300
  24881047.188 6 130750790.22416        38.300                   101883734.08356
        22.200    24881048.81346
  23108023.992 6 121433507.071 6        40.400                    94623516.94947
        26.100    23108027.06647
  20527710.555 9 107873865.817 9        51.600    20527716.742 9  84057585.35049
        55.000    20527716.09849  20527712.465 7  80555203.187 7        42.300
  21169531.039 9 111246646.658 9        50.700    21169537.219 9  86685732.67949
        54.900    21169536.82449  21169532.160 6  83073798.319 6        40.600
 21  1  1  1  8  0.0000000  0 10G01G32G21G23G16G08G22G20G27G10
  23372403.477 6 122822851.206 6        38.600    23372412.715 6  95706135.60647
        25.300    23372412.62947  23372408.527 3  91718364.543 3        32.600
  23994863.398 7 126093851.222 7        41.400    23994870.613 7  98254969.61349
        37.900    23994869.76649
  22007315.547 8 115649236.827 8        47.500                    90116308.64849
        37.900    22007318.06349
  23042951.852 7 121091545.754 7        42.600    23042956.477 7  94357068.70747
        28.900    23042955.75847  23042957.168 4  90425515.954 4        34.200
  23896829.367 6 125578776.472 6        39.900                    97853523.36446
        24.100    23896832.49646
  20635833.234 9 108442044.289 9        51.100    20635840.051 9  84500322.86349
        54.900    20635838.99249  20635835.363 7  80979488.016 7        41.500
  24859955.203 5 130639960.72215        35.500                   101797373.41056
        22.500    24859958.58646
  23125587.008 6 121525801.202 6        40.400                    94695434.45446
        24.500    23125589.85946
  20535482.313 9 107914706.174 9        51.700    20535488.520 9  84089409.00849
        55.000    20535487.70349  20535484.313 7  80585700.849 7        42.400
  21176755.141 9 111284609.908 9        50.600    21176761.391 9  86715314.43749
        54.900    21176761.19549  21176756.422 6  83102147.498 6        40.800
 21  1  1  1  8 30.0000000  0 10G01G32G21G23G16G08G22G20G27G10
  23354413.047 6 122728303.741 6        39.700    23354420.844 7  95632462.29347
        25.400    23354420.68047  23354415.828 3  91647760.962 3        32.100
  23978544.141 7 126008090.075 7        41.300    23978550.590 6  98188142.75849
        37.400    23978549.54749
  21997529.906 8 115597812.471 8        47.200                    90076237.73449
        37.900    21997532.35549
  23060286.195 7 121182637.283 7        42.300    23060290.410 7  94428049.12447
        29.400    23060289.55947  23060291.402 4  90493538.841 4        34.300
  23918121.375 6 125690662.229 6        39.600                    97940707.04447
        25.400    23918124.26247
  20628810.406 9 108405138.878 9        51.400    20628817.266 9  84471565.39949
        55.700    20628816.02049  20628812.250 7  80951928.777 7        41.800
  24838882.844 5 130529222.018 5        35.700                   101711083.49645
        19.900    24838885.08645
  23143195.844 7 121618335.667 7        41.300                    94767539.22047
        25.500    23143198.71147
  20543339.047 9 107955993.355 9        52.300    20543345.305 9  84121580.82649
        55.000    20543344.45349  20543340.727 7  80616532.180 7        42.500
  21184074.930 9 111323075.505 9        51.200    21184080.855 9  86745287.63549
        54.900    21184081.01649  21184076.324 6  83130871.832 6        40.800
 21  1  1  1  9  0.0000000  0 10G01G32G21G23G16G08G22G20G27G10
  23336448.828 6 122633903.020 6        39.400    23336456.977 7  95558903.31147
        25.800    23336456.59847  23336452.500 3  91577266.929 3        32.600
  23962261.195 7 125922525.745 7        41.000    23962268.332 7  98121469.27649
        37.500    23962267.63749
  21987784.508 8 115546602.321 8        47.200                    90036333.73849
        37.800    21987787.75449
  23077674.906 7 121274013.263 7        42.600    23077678.742 7  94499251.17547
        29.700    23077678.39847  23077679.426 3  90561774.149 3        33.700
  23939431.672 6 125802653.270 6        40.000                    98027972.78047
        25.400    23939435.56647
  20621866.930 9 108368650.561 9        50.500    20621873.887 9  84443132.94749
        55.300    20621872.52349  20621868.590 7  80924681.013 7        41.800
  24817829.086 6 130418576.01716        38.800                   101624865.87356
        22.900    24817830.91446
  23160850.086 6 121711108.061 6        39.900                    94839829.39647
        25.700    23160852.81647
  20551280.555 9 107997726.926 9        52.000    20551286.766 9  84154100.49149
        55.000    20551286.14849  20551282.695 7  80647696.847 7        42.000
  21191490.008 9 111362041.910 9        51.200    21191496.023 9  86775651.06949
        55.000    21191495.99649  21191491.004 6  83159970.120 6        39.900
 21  1  1  1  9 30.0000000  0 10G01G32G21G23G16G08G22G20G27G10
  23318513.445 6 122539649.898 6        40.100    23318521.066 7  95485459.39147
        25.100    23318520.56347  23318516.383 3  91506883.176 3        32.900
  23946016.898 7 125837161.364 7        41.000    23946023.973 6  98054951.58949
        38.100    23946023.30149
  21978080.148 8 115495605.992 8        47.300                    89996596.35749
        38.600    21978083.46949
  23095116.281 7 121365671.193 7        42.000    23095121.164 7  94570672.93847
        28.300    23095120.21147  23095120.813 4  90630220.004 4        34.300
  23960762.930 6 125914746.760 6        39.900                    98115318.36046
        23.900    23960766.33246
  20615003.156 9 108332581.295 9        51.000    20615010.191 9  84415027.03549
        55.200    20615008.74249  20615005.035 7  80897746.182 7        41.800
  24796791.766 6 130308024.685 6        39.200                   101538722.00846
        22.900    24796793.39546
  23178548.984 6 121804115.984 6        39.900                    94912303.09446
        23.000    23178551.51646
  20559306.930 9 108039906.599 9        51.900    20559313.211 9  84186967.75949
        54.900    20559312.70349  20559309.031 7  80679194.652 7        42.100
  21198999.906 9 111401507.466 9        50.900    21199006.219 9  86806403.44749
        54.900    21199006.08249  21199001.082 6  83189441.149 6        40.500
 21  1  1  1 10  0.0000000  0 10G01G32G21G23G16G08G22G20G27G10
  23300605.711 6 122445545.416 6        40.200    23300613.473 7  95412131.23147
        26.800    23300612.92247  23300609.059 3  91436610.346 3        32.600
  23929811.969 7 125752000.109 7        42.200    23929817.961 7  97988592.17449
        37.900    23929817.53149
  21968416.734 8 115444823.418 8        47.600                    89957025.52849
        38.200    21968419.65249
  23112611.938 7 121457608.718 7        41.000    23112616.219 7  94642312.57047
        29.300    23112615.41847  23112616.352 4  90698874.660 4        34.200
  23982112.758 6 126026940.712 6        39.900                    98202742.21546
        22.600    23982115.57846
  20608219.383 9 108296932.848 9        51.400    20608226.398 9  84387249.02249
        55.300    20608225.16049  20608221.406 7  80871125.581 7        42.300
  24775772.875 6 130197570.105 6        38.200                   101452653.58846
        21.500    24775774.61346
  23196291.883 6 121897357.076 6        39.900                    94984958.49047
        25.700    23196294.70747
  20567418.578 9 108082532.139 9        51.700    20567424.664 9  84220182.45449
        54.900    20567424.08249  20567420.598 7  80711025.403 7        42.300
  21206605.000 9 111441470.738 9        51.400    21206610.781 9  86837543.66449
        54.900    21206610.61349  21206606.063 6  83219283.855 6        40.700
 21  1  1  1 10 30.0000000  0 10G01G32G21G23G16G08G22G20G27G10
  23282726.305 6 122351590.099 6        38.800    23282734.586 6  95338919.31347
        25.700    23282733.79747  23282730.008 3  91366448.978 3        33.800
  23913645.484 7 125667044.745 7        41.000    23913651.754 7  97922393.20949
        37.500    23913650.62549
  21958793.961 8 115394255.233 8        47.200                    89917621.75349
        37.700    21958796.61349
  23130159.258 7 121549823.134 7        42.000    23130164.078 7  94714167.95247
        29.500    23130163.03947  23130163.555 3  90767736.055 3        33.800
  24003480.734 6 126139231.733 6        39.400                    98290241.69346
        22.600    24003483.95746
  20601515.922 9 108261706.365 9        51.400    20601523.000 9  84359799.81249
        55.000    20601521.69549  20601518.156 7  80844820.091 7        42.300
  24754771.453 5 130087213.730 5        37.900                   101366661.59146
        20.400    24754773.79746
  23214078.680 6 121990828.920 6        39.500                    95057793.68847
        25.300    23214082.06347
  20575614.617 9 108125602.956 9        51.900    20575620.738 9  84253744.12949
        55.000    20575620.28949  20575616.625 7  80743188.653 7        42.700
  21214304.031 9 111481929.837 9        51.200    21214310.082 9  86869070.24649
        54.900    21214309.82049  21214304.922 6  83249496.794 6        40.400
 21  1  1  1 11  0.0000000  0 11G01G32G21G23G16G08G14G22G20G27G10
  23264875.492 6 122257784.773 6        39.800    23264883.531 6  95265824.31046
        24.900    23264883.12946  23264879.586 3  91296399.550 3        33.500
  23897518.594 6 125582298.389 6        40.800    23897525.172 7  97856357.09649
        38.000    23897524.47349
  21949211.930 8 115343901.292 8        47.800                    89878384.92549
        38.000    21949214.36749
  23147759.078 7 121642311.889 7        42.200    23147764.031 7  94786237.10547
        28.500    23147763.00847  23147763.859 3  90836802.311 3        33.800
  24024866.688 6 126251617.154 6        38.100                    98377814.76346
        22.900    24024870.43846
  20594893.109 9 108226903.382 9        51.700    20594900.129 9  84332680.60649
        55.200    20594898.96149  20594895.434 7  80818830.853 7        42.100
  25213747.117 4                        34.300    25213751.387 6 103246096.90516
        39.000
  24733791.422 6 129976957.948 6        38.500                   101280747.96746
        21.500    24733792.60546
  23231909.641 6 122084529.570 6        39.800                    95130807.16047
        25.100    23231912.77347
  20583895.063 9 108169118.684 9        51.900    20583901.648 9  84287652.47549
        55.200    20583901.03549  20583897.508 7  80775684.179 7        42.300
  21222097.352 9 111522883.151 9        50.700    21222103.000 9  86900981.91349
        55.000    21222102.96549  21222098.184 6  83280078.822 6        40.000
 21  1  1  1 11 30.0000000  0 11G01G32G21G23G16G08G14G22G20G27G10
  23247054.648 7 122164130.165 7        41.100    23247061.738 7  95192846.72347
        26.800    23247061.85247  23247056.977 3  91226462.733 3        32.700
  23881431.586 7 125497763.900 7        42.100    23881438.879 7  97790486.07849
        38.300    23881438.02349
  21939670.578 8 115293761.293 8        47.400                    89839314.79549
        37.700    21939673.48449
  23165411.117 7 121735072.364 7        42.700    23165415.684 7  94858517.98147
        28.600    23165415.10947  23165415.656 4  90906071.518 4        34.300
  24046270.828 6 126364094.233 6        38.900                    98465459.22846
        23.500    24046274.27746
  20588351.477 9 108192525.342 9        50.300    20588358.348 9  84305892.52549
        55.700    20588356.93449  20588353.465 7  80793158.943 7        42.100
  25196128.883 5 132406539.14915        37.300    25196133.156 5 103173960.82355
        19.300    25196133.66045
  24712831.016 6 129866804.405 6        38.800                   101194914.08046
        20.900    24712831.24646
  23249783.203 6 122178456.657 6        39.700                    95203997.09047
        25.400    23249786.46947
  20592260.375 9 108213078.801 9        50.800    20592266.852 9  84321907.10949
        55.000    20592266.24249  20592262.820 7  80808511.541 7        41.700
  21229984.094 9 111564328.908 9        50.000    21229990.086 9  86933277.31649
        54.900    21229989.90249  21229985.320 6  83311028.597 6        39.900
 21  1  1  1 12  0.0000000  0 11G01G32G21G23G16G08G14G22G20G27G10
  23229261.039 6 122070627.603 6        40.200    23229269.211 7  95119987.62147
        26.400    23229268.43847  23229264.043 3  91156639.500 3        33.600
  23865387.008 7 125413444.779 7        41.600    23865393.152 6  97724782.87449
        37.700    23865392.36349
  21930169.852 8 115243835.990 8        47.200                    89800411.97149
        38.200    21930172.77349
  23183114.234 7 121828102.514 7        42.200    23183118.742 7  94931009.00447
        29.600    23183117.92647  23183118.672 4  90975542.056 4        34.700
  24067691.078 6 126476661.141 6        38.800                    98553173.69346
        22.000    24067694.35546
  20581890.617 9 108158574.454 9        51.400    20581897.578 9  84279437.29449
        55.000    20581896.42649  20581892.848 7  80767806.006 7        42.000
  25178566.203 4 132314243.747 4        34.000    25178569.898 5 103102042.28845
        18.300    25178569.47345
  24691887.711 5 129756755.525 5        36.900                   101109161.71546
        21.500    24691889.15646
  23267699.602 6 122272608.023 6        39.200                    95277361.77347
        25.700    23267702.68047
  20600710.469 9 108257483.310 9        50.300    20600716.688 9  84356508.03149
        54.900    20600716.21549  20600712.625 7  80841670.758 7        42.500
  21237964.453 9 111606265.883 9        50.000    21237970.414 9  86965955.47049
        54.900    21237970.14549  21237965.305 6  83342345.178 6        40.500
 21  1  1  1 12 30.0000000  0 11G01G32G21G23G16G08G14G22G20G27G10
  23211497.367 7 121977277.369 7        41.500    23211504.699 7  95047247.23847
        28.100    23211504.28547  23211499.984 3  91086929.947 3        32.600
  23849382.391 7 125329343.586 7        41.500    23849389.531 7  97659249.48849
        38.400    23849388.37149
  21920710.430 8 115194124.817 8        47.900                    89761676.00649
        38.500    21920713.19949
  23200867.789 7 121921399.370 7        41.900    23200872.305 7  95003707.85947
        28.400    23200871.50047  23200872.801 3  91045211.809 3        33.700
  24089129.070 6 126589314.372 6        39.200                    98640955.41346
        22.500    24089132.25046
  20575511.484 9 108125051.476 9        51.300    20575518.309 9  84253315.48749
        55.000    20575517.39849  20575513.293 7  80742772.617 7        42.100
  25161058.766 5 132222237.638 5        37.100    25161060.883 4 103030349.15145
        19.000    25161061.34045
  24670967.602 6 129646812.796 6        38.800                   101023492.05446
        23.200    24670968.41846
  23285658.461 6 122366981.318 6        39.400                    95350899.39446
        24.600    23285661.35946
  20609244.867 9 108302331.374 9        50.300    20609251.094 9  84391454.58249
        55.300    20609250.31649  20609246.801 7  80875161.197 7        42.400
  21246037.727 9 111648691.910 9        49.700    21246043.520 9  86999014.71849
        54.800    21246043.41049  21246038.719 6  83374026.961 6        40.200
 21  1  1  1 13  0.0000000  0 11G01G32G21G23G16G08G14G22G20G27G10
  23193763.344 7 121884080.183 7        41.200    23193769.965 7  94974626.09047
        27.500    23193769.64147  23193764.961 3  91017334.696 3        32.600
  23833421.156 7 125245463.302 7        42.200    23833427.633 7  97593888.23149
        38.300    23833426.88749
  21911291.258 8 115144627.681 8        47.900                    89723106.82849
        38.200    21911294.23449
  23218671.688 7 122014960.375 7        41.400    23218676.242 7  95076612.52147
        28.200    23218675.54747  23218676.668 3  91115078.754 3        33.500
  24110581.180 6 126702051.061 6        39.100                    98728802.16546
        22.800    24110584.84046
  20569214.242 9 108091958.075 9        51.000    20569220.875 9  84227528.43449
        55.600    20569219.78149  20569216.281 7  80718060.037 7        41.800
  25143605.023 5 132130523.16815        37.000    25143609.793 6 102958883.29156
        20.100    25143609.22346
  24650066.008 6 129536978.026 6        38.200                   100937906.53846
        22.600    24650067.65246
  23303658.797 6 122461573.705 6        39.800                    95424607.74746
        22.600    23303661.59846
  20617863.320 9 108347622.447 9        51.500    20617869.586 9  84426746.31749
        54.900    20617868.96949  20617865.457 7  80908982.420 7        42.400
  21254203.664 9 111691605.238 9        50.700    21254209.758 9  87032453.68249
        54.900    21254209.59449  21254205.109 6  83406072.621 6        40.500
 21  1  1  1 13 30.0000000  0 11G01G32G21G23G16G08G14G22G20G27G10
  23176056.883 7 121791036.866 7        41.000    23176064.277 7  94902124.82447
        28.700    23176064.11347  23176059.188 3  90947854.317 3        33.300
  23817501.398 7 125161806.855 7        41.000    23817508.098 7  97528701.41649
        38.100    23817507.25449  23817504.117 2  93464914.95512        31.400
  21901913.203 8 115095344.663 8        47.800                    89684704.49249
        38.100    21901915.89549
  23236525.516 7 122108782.920 7        42.200    23236530.473 7  95149720.99847
        28.100    23236529.70747  23236530.328 3  91185141.06313        33.000
  24132050.023 6 126814868.600 6        39.200                    98816711.93046
        22.300    24132053.27046
  20562998.602 9 108059295.480 9        51.000    20563005.285 9  84202077.05349
        55.600    20563004.28149  20563000.555 7  80693669.120 7        41.700
  25126207.516 4 132039103.120 4        34.600    25126212.074 5 102887646.87045
        17.400    25126212.23445
  24629185.586 6 129427253.107 6        38.600                   100852406.64246
        23.000    24629187.33646
  23321699.875 6 122556383.190 6        39.600                    95498485.26646
        24.100    23321703.18446
  20626566.219 9 108393356.047 9        52.000    20626572.500 9  84462382.87949
        55.000    20626571.91049  20626568.336 7  80943134.128 7        42.200
  21262462.516 9 111735004.110 9        50.300    21262468.520 9  87066270.97949
        54.800    21262468.06649  21262463.598 6  83438480.866 6        39.600
 21  1  1  1 14  0.0000000  0 11G01G32G21G23G16G08G14G22G20G27G10
  23158380.766 6 121698148.207 6        40.300    23158388.617 7  94829744.09847
        27.800    23158388.31647  23158383.609 3  90878489.425 3        33.400
  23801625.258 7 125078377.305 7        42.200    23801631.707 6  97463691.38449
        38.000    23801631.05949  23801628.285 1  93402613.716 1        30.700
  21892575.695 8 115046275.846 8        47.800                    89646469.05549
        38.500    21892578.32449
  23254429.172 7 122202864.506 7        42.200    23254433.602 7  95223031.32947
        27.400    23254433.35547  23254433.707 3  91255396.789 3        33.100
  24153533.609 6 126927764.641 6        39.200                    98904682.88346
        22.200    24153536.81346
  20556865.203 9 108027065.370 9        51.400    20556872.250 9  84176962.68049
        55.500    20556871.00449  20556867.457 7  80669601.181 7        42.600
  25108867.977 5 131947980.183 5        35.700    25108872.828 6 102816641.92645
        19.300    25108873.07445
  24608327.703 6 129317639.808 6        38.700                   100766993.71046
        23.900    24608328.46546
  23339783.320 6 122651407.404 6        40.000                    95572530.11047
        25.300    23339785.67247
  20635353.180 9 108439531.704 9        50.200    20635359.398 9  84498363.90749
        54.900    20635358.72349  20635355.219 7  80977615.965 7        42.400
  21270812.930 9 111778886.750 9        50.200    21270819.156 9  87100465.25149
        54.900    21270818.65649  21270814.156 6  83471250.378 6        40.000
 21  1  1  1 14 30.0000000  0 11G01G32G21G23G16G08G14G22G20G27G10
  23140733.664 6 121605414.878 6        39.900    23140741.473 7  94757484.41147
        27.000    23140741.13347  23140737.207 3  90809240.59813        32.900
  23785792.898 7 124995177.545 7        42.600    23785799.355 7  97398860.40749
        37.800    23785799.00449  23785795.035 1  93340484.05711        29.900
  21883279.227 9 114997421.319 9        48.800                    89608400.60249
        38.500    21883281.91049
  23272381.266 7 122297202.567 7        42.300    23272385.281 7  95296541.50147
        27.800    23272384.81347  23272386.270 3  91325844.048 3        33.600
  24175031.664 6 127040736.453 6        39.000                    98992712.85046
        21.300    24175035.28546
  20550814.797 9 107995268.864 9        51.100    20550821.379 9  84152186.18249
        55.900    20550820.41449  20550816.863 7  80645857.048 7        42.100
  25091585.750 5 131857156.792 5        36.600    25091589.133 5 102745870.44445
        18.300    25091589.69145
  24587489.977 6 129208140.168 6        38.400                   100681669.34046
        23.200    24587491.45346
  23357905.523 6 122746644.173 6        40.200                    95646740.53246
        24.300    23357909.16046
  20644224.016 9 108486148.803 9        51.800    20644230.402 9  84534688.91249
        55.200    20644229.96549  20644226.137 7  81012427.411 7        42.300
  21279255.438 9 111823251.387 9        51.300    21279261.316 9  87135035.09649
        54.900    21279261.18449  21279256.316 6  83504379.801 6        40.200
 21  1  1  1 15  0.0000000  0 11G01G32G21G23G16G08G14G22G20G27G10
  23123117.125 6 121512837.771 6        40.500    23123125.031 7  94685346.42547
        27.200    23123124.20747  23123119.926 3  90740108.403 3        32.600
  23770005.023 7 124912210.657 7        41.600    23770011.840 7  97334210.87949
        37.700    23770010.64149  23770007.125 1  93278528.250 1        29.500
  21874023.273 8 114948780.674 8        47.800                    89570498.80449
        38.400    21874025.86749
  23290381.289 7 122391794.673 7        41.600    23290386.051 7  95370249.64047
        26.400    23290385.14547  23290386.156 3  91396481.005 3        33.700
  24196542.883 6 127153780.940 6        38.600                    99080799.46946
        21.700    24196545.84046
  20544846.867 9 107963907.446 9        52.100    20544853.770 9  84127748.71349
        56.100    20544852.52049  20544848.840 7  80622437.797 7        41.800
  25074360.719 5 131766635.688 5        35.400    25074364.148 6 102675334.48245
        19.000    25074363.75045
  24566675.336 6 129098756.088 6        40.300                   100596435.04046
        23.000    24566676.72346
  23376068.594 6 122842091.343 6        40.500                    95721114.95146
        24.100    23376071.67646
  20653178.914 9 108533206.949 9        50.100    20653185.398 9  84571357.58649
        55.100    20653184.85549  20653181.258 7  81047568.225 7        42.500
  21287789.008 9 111868096.266 9        49.700    21287795.129 9  87169979.16549
        54.800    21287795.11749  21287790.164 6  83537867.864 6        40.500
 21  1  1  1 15 30.0000000  0 11G01G32G21G23G16G08G14G22G20G27G10
  23105529.609 6 121420417.616 6        39.900    23105537.863 7  94613330.76947
        27.000    23105537.82047  23105532.953 3  90671093.400 3        33.200
  23754260.984 7 124829479.587 7        42.000    23754268.277 7  97269745.12749
        38.100    23754267.37949  23754264.047 2  93216748.507 2        31.000
  21864807.984 9 114900354.373 9        48.000                    89532764.03649
        38.700    21864810.43449
  23308429.344 7 122486638.238 7        41.600    23308434.137 7  95444153.69647
        27.800    23308433.18047  23308434.387 3  91467305.724 3        33.900
  24218068.352 6 127266896.015 6        38.400                    99168941.06546
        21.500    24218071.30146
  20538961.992 9 107932982.945 9        52.100    20538968.777 9  84103651.69349
        55.600    20538967.78949  20538964.309 7  80599344.822 7        41.600
  25057191.188 3                        32.900    25057195.910 5 102605030.14815
        14.800    25057196.31344
  24545881.805 6 128989489.454 6        38.200                   100511292.21846
        22.500    24545883.85946
  23394271.195 6 122937746.540 6        40.600                    95795651.47346
        22.900    23394274.00846
  20662217.867 9 108580705.543 9        52.200    20662223.934 9  84608369.47449
        55.100    20662223.60949  20662219.910 7  81083037.959 7        42.000
  21296413.977 9 111913419.555 9        51.300    21296419.902 9  87205296.01349
        54.800    21296419.90249  21296414.965 6  83571713.195 6        39.800
 21  1  1  1 16  0.0000000  0 11G01G32G21G23G16G08G14G22G20G27G10
  23087973.234 6 121328155.462 6        39.800    23087980.738 7  94541438.20447
        26.700    23087980.26647  23087976.301 3  90602196.331 3        33.100
  23738564.133 6 124746987.574 6        40.800    23738571.055 7  97205465.65749
        38.300    23738570.38349  23738566.305 1  93155147.381 1        30.000
  21855633.219 9 114852142.353 9        48.000                    89495196.22649
        38.600    21855636.07849
  23326524.742 7 122581731.003 7        41.800    23326529.441 7  95518251.97547
        27.600    23326528.66447  23326530.023 3  91538316.554 3        33.100
  24239606.031 6 127380078.380 6        38.900                    99257135.10946
        21.500    24239609.11746
  20533160.664 9 107902496.845 9        51.400    20533167.645 9  84079896.29049
        55.200    20533166.40249  20533162.945 7  80576579.233 7        42.300
  25040083.414 5 131586511.237 5        37.700    25040087.727 6 102534977.68456
        21.300    25040087.37546
  24525111.797 6 128880342.493 6        38.300                   100426242.64346
        24.600    24525114.11746
  23412513.695 6 123033607.603 6        40.600                    95870348.38946
        24.000    23412516.15646
  20671340.211 9 108628644.333 9        52.100    20671346.469 9  84645724.36349
        55.000    20671345.95749  20671342.656 7  81118836.367 7        42.300
  21305129.430 9 111959219.772 9        51.100    21305135.133 9  87240984.50149
        54.700    21305135.05549  21305130.238 6  83605914.661 6        40.400
 21  1  1  1 16 30.0000000  0 11G01G32G21G23G16G08G14G22G20G27G10
  23070446.227 6 121236052.008 6        39.900    23070454.238 7  94469669.32547
        26.700    23070453.57847  23070449.629 3  90533417.851 3        33.400
  23722912.133 7 124664737.516 7        41.400    23722919.086 7  97141374.70149
        38.100    23722918.15249  23722915.094 2  93093726.90912        31.200
  21846499.484 9 114804144.578 9        48.000                    89457795.37249
        38.200    21846502.28149
  23344667.891 7 122677070.327 7        42.100    23344672.000 7  95592542.35747
        28.400    23344671.23047  23344672.547 3  91609511.525 3        33.400
  24261156.141 6 127493325.955 6        39.000                    99345379.95346
        22.300    24261159.36746
  20527443.227 9 107872450.290 9        50.900    20527449.813 9  84056483.39349
        55.800    20527448.80949  20527445.133 7  80554141.901 7        42.300
  25023033.898 6 131496913.187 6        38.300    25023037.441 5 102465161.00646
        20.900    25023036.84046
  24504365.531 6 128771316.720 6        39.200                   100341287.54446
        24.200    24504366.54746
  23430794.031 6 123129672.238 6        40.500                    95945203.95846
        22.800    23430796.80946
  20680546.234 9 108677022.659 9        50.200    20680552.563 9  84683421.75249
        55.000    20680551.85549  20680548.445 7  81154963.032 7        41.800
  21313935.320 9 112005494.951 9        49.700    21313940.988 9  87277043.08549
        54.700    21313940.78149  21313936.172 6  83640470.809 6        40.000
 21  1  1  1 17  0.0000000  0 11G01G32G21G23G16G08G14G22G20G27G10
  23052949.688 6 121144107.835 6        39.400    23052957.379 7  94398024.53847
        27.100    23052957.12547  23052953.426 3  90464758.318 3        33.600
  23707307.008 7 124582732.109 7        41.400    23707313.957 6  97077474.40049
        38.100    23707312.62949  23707309.082 1  93032489.082 1        30.700
  21837406.438 9 114756361.136 9        48.200                    89420561.52849
        38.800    21837409.21549
  23362856.117 7 122772653.495 7        41.400    23362861.254 7  95667022.75347
        28.200    23362860.00447  23362860.996 3  91680888.551 3        33.300
  24282718.430 6 127606635.852 6        39.400                    99433673.39946
        22.200    24282721.86346
  20521809.359 9 107842844.699 9        51.300    20521816.141 9  84033414.10049
        55.200    20521815.14849  20521811.277 7  80532033.813 7        42.600
  25006043.133 5 131407627.851 5        35.400    25006047.316 5 102395588.03045
        18.300    25006046.11745
  24483641.836 6 128662413.803 6        39.700                   100256428.15846
        23.800    24483642.89846
  23449112.398 6 123225938.046 6        39.400                    96020216.26746
        22.800    23449115.39846
  20689835.836 9 108725839.699 9        52.700    20689842.129 9  84721460.99849
        54.900    20689841.48849  20689838.016 7  81191417.309 7        41.700
  21322831.211 9 112052243.058 9        51.300    21322836.836 9  87313470.18049
        54.400    21322836.62149  21322832.105 6  83675380.107 6        39.700
 21  1  1  1 17 30.0000000  0 11G01G32G21G23G16G08G14G22G20G27G10
  23035483.664 6 121052323.487 6        39.800    23035491.320 7  94326504.30547
        26.400    23035491.11347  23035487.594 4  90396218.043 4        34.300
  23691749.602 7 124500974.298 7        42.500    23691755.734 6  97013767.01749
        38.000    23691754.60949  23691750.715 1  92971436.189 1        30.500
  21828354.391 8 114708791.881 8        47.500                    89383494.58749
        38.300    21828357.17649
  23381091.086 7 122868477.907 7        41.400    23381095.516 7  95741691.11747
        28.800    23381094.75047  23381095.711 3  91752445.721 3        32.900
  24304292.383 6 127720005.521 6        38.200                    99522013.39146
        21.500    24304295.32446
  20516259.664 9 107813681.114 9        50.800    20516266.473 9  84010689.22449
        55.900    20516265.52749  20516261.578 7  80510255.785 7        42.500
  24989112.320 5 131318657.884 5        36.500    24989116.813 5 102326260.61745
        19.000    24989115.51645
  24462942.602 6 128553635.873 6        40.200                   100171666.14446
        22.900    24462943.59046
  23467469.039 6 123322402.547 6        39.200                    96095383.39046
        22.300    23467471.95746
  20699208.617 9 108775094.810 9        51.300    20699215.133 9  84759841.59449
        55.000    20699214.48849  20699210.867 7  81228198.732 7        41.700
  21331816.297 9 112099462.148 9        50.500    21331822.590 9  87350264.27649
        54.400    21331822.23449  21331817.223 6  83710641.112 6        39.800
 21  1  1  1 18  0.0000000  0 11G01G32G21G23G16G08G14G22G20G27G10
  23018047.984 6 120960700.033 6        39.600    23018056.203 7  94255109.43747
        25.900    23018055.71147  23018051.563 3  90327798.007 3        33.300
  23676238.695 7 124419467.144 7        42.200    23676245.574 7  96950254.94749
        38.800    23676244.66849  23676240.637 2  92910570.48612        31.200
  21819343.188 8 114661436.792 8        47.600                    89346594.52349
        38.600    21819345.87949
  23399371.500 7 122964541.228 7        41.900    23399375.758 7  95816545.62647
        27.600    23399375.21147  23399375.449 3  91824181.316 3        32.300
  24325876.156 5 127833432.151 5        36.300                    99610397.75645
        19.000    24325879.18845
  20510794.570 9 107784961.298 9        51.000    20510801.414 9  83988310.14849
        56.100    20510800.29349  20510796.547 7  80488809.185 7        42.200
  24972243.313 5 131230005.936 5        37.400    24972245.969 5 102257181.17245
        18.300    24972245.45345
  24442266.242 6 128444984.847 6        39.200                   100087003.03346
        22.800    24442267.97346
  23485862.680 6 123419063.665 6        39.000                    96170703.74746
        24.000    23485866.50046
  20708664.984 9 108824787.545 9        50.800    20708671.285 9  84798563.19849
        55.000    20708670.73049  20708667.199 7  81265306.933 7        42.200
  21340891.109 9 112147150.551 9        49.800    21340897.633 9  87387424.07449
        54.600    21340897.26249  21340891.898 6  83746252.595 6        40.100
 21  1  1  1 18 30.0000000  0 11G01G32G21G23G16G08G14G22G20G27G10
  23000644.273 6 120869239.127 6        40.500    23000651.734 7  94183841.24247
        28.200    23000651.17247  23000646.672 4  90259499.308 4        34.200
  23660777.609 7 124338214.591 7        41.700    23660783.129 6  96886941.27649
        38.300    23660782.65649  23660778.980 2  92849894.893 2        31.400
  21810372.898 9 114614296.868 9        48.500                    89309862.12149
        38.400    21810375.51249
  23417696.742 7 123060841.789 7        41.600    23417701.266 7  95891585.01747
        27.400    23417700.73847  23417701.395 3  91896094.063 3        33.200
  24347470.656 5 127946913.299 5        36.700                    99698824.57946
        20.900    24347474.93446
  20505414.094 9 107756687.645 9        50.900    20505421.180 9  83966278.73049
        55.400    20505420.04349  20505416.094 7  80467695.738 7        42.000
  24955434.406 5 131141675.410 5        37.600    24955438.992 6 102188352.23946
        21.100    24955438.38746
  24421615.492 6 128336463.404 6        38.900                   100002440.90146
        22.800    24421616.95346
  23504294.180 6 123515920.117 6        38.700                    96246176.29346
        21.700    23504297.54346
  20718204.523 9 108874918.198 9        51.400    20718210.887 9  84837626.04249
        55.000    20718210.28549  20718206.703 7  81302742.145 7        41.900
  21350055.219 9 112195307.282 9        51.100    21350061.160 9  87424948.79849
        54.200    21350060.98849  21350056.188 6  83782213.757 6        39.700
 21  1  1  1 19  0.0000000  0 11G01G32G21G23G16G08G14G22G20G27G10
  22983270.266 6 120777940.189 6        40.200    22983278.250 7  94112699.25547
        27.900    22983277.74247  22983273.766 4  90191321.595 4        34.300
  23645363.664 6 124257218.122 6        40.800    23645370.395 7  96823827.16949
        38.000    23645369.66049  23645366.063 2  92789410.52512        31.200
  21801443.391 9 114567371.304 9        48.200                    89273296.75149
        38.400    21801445.84049
  23436066.180 6 123157375.796 6        40.900    23436071.020 7  95966806.32247
        26.600    23436070.68847  23436071.637 3  91968181.119 3        33.100
  24369074.953 5 128060445.451 5        36.100                    99787291.19545
        19.000    24369078.75845
  20500118.734 9 107728859.990 9        51.900    20500125.738 9  83944594.83649
        55.900    20500124.61349  20500120.789 7  80446915.349 7        42.500
  24938686.633 5 131053667.747 5        36.500    24938690.758 5 102119774.78345
        17.400    24938688.97345
  24400989.555 6 128228072.103 6        39.600                    99917980.16646
        24.700    24400990.34046
  23522761.961 6 123612968.397 6        38.600                    96321798.28046
        21.500    23522764.55546
  20727827.133 9 108925484.797 9        51.900    20727833.262 9  84877028.58049
        55.100    20727832.94949  20727829.410 7  81340502.929 7        42.100
  21359307.328 9 112243929.145 9        51.500    21359313.484 9  87462835.96749
        54.400    21359313.52349  21359308.793 6  83818522.302 6        39.900
 21  1  1  1 19 30.0000000  0 11G01G32G21G23G16G08G14G22G20G27G10
  22965928.008 6 120686804.626 6        40.900    22965935.461 7  94041684.56947
        28.200    22965934.66447  22965931.082 3  90123265.874 3        33.500
  23630000.367 7 124176481.512 7        41.800    23630006.730 7  96760915.52649
        38.000    23630006.05949  23630002.430 2  92729120.168 2        31.400
  21792554.211 9 114520660.152 9        48.100                    89236898.45449
        38.700    21792556.97749
  23454480.422 6 123254141.445 6        40.900    23454484.863 7  96042208.10847
        27.100    23454483.84047  23454485.316 3  92040441.207 3        33.600
  24390689.156 5 128174026.690 5        37.600                    99875796.07545
        19.300    24390692.93045
  20494908.688 9 107701480.607 9        51.500    20494915.531 9  83923260.25749
        56.100    20494914.60549  20494910.484 7  80426469.713 7        41.900
  24922000.430 5 130965986.235 5        35.400    24922006.328 5 102051451.53645
        17.400    24922005.47345
  24380388.609 6 128119813.371 6        39.000                    99833622.71946
        23.000    24380389.25846
  23541266.375 6 123710206.739 6        39.800                    96397568.41846
        21.100    23541268.63346
  20737532.633 9 108976487.406 9        50.200    20737538.898 9  84916770.85149
        55.000    20737538.39549  20737534.789 7  81378589.256 7        41.600
  21368648.227 9 112293014.924 9        49.400    21368654.277 9  87501084.62449
        54.400    21368654.17649  21368649.730 6  83855177.263 6        40.400
 21  1  1  1 20  0.0000000  0 11G01G32G21G23G16G08G14G22G20G27G10
  22948616.063 6 120595832.899 6        40.500    22948623.961 7  93970797.56847
        28.300    22948624.28947  22948619.699 3  90055332.497 3        33.100
  23614686.813 7 124096007.303 7        42.400    23614693.086 7  96698208.35149
        39.000    23614691.94549  23614688.203 2  92669025.847 2        31.300
  21783706.188 9 114474163.143 9        48.300                    89200667.01549
        38.800    21783708.98049
  23472938.297 6 123351135.820 6        40.400    23472942.129 7  96117788.13947
        26.200    23472941.53147  23472942.594 3  92112872.077 3        32.600
  24412311.742 5 128287654.364 5        37.500                    99964337.11946
        20.100    24412315.00046
  20489783.945 9 107674550.014 9        51.200    20489790.805 9  83902275.37249
        56.100    20489789.90649  20489785.910 7  80406359.191 7        42.100
  24905378.820 5 130878633.038 5        37.300    24905383.762 6 101983384.00946
        20.100    24905382.74646
  24359811.930 6 128011688.842 6        39.600                    99749369.86446
        24.100    24359813.62946
  23559805.352 6 123807632.737 6        38.300                    96473484.77646
        20.600    23559808.37546
  20747320.867 9 109027924.999 9        50.000    20747327.113 9  84956852.07949
        55.000    20747326.63349  20747322.816 7  81417000.445 7        41.600
  21378077.125 9 112342562.377 9        49.600    21378082.629 9  87539693.03449
        54.400    21378082.58649  21378078.320 6  83892177.018 6        39.800
 21  1  1  1 20 30.0000000  0 11G01G32G21G23G16G08G14G22G20G27G10
  22931336.281 6 120505025.966 6        39.800    22931344.230 7  93900038.97847
        28.600    22931344.30147  22931339.430 3  89987522.200 3        33.500
  23599423.266 7 124015798.590 7        42.300    23599430.301 7  96635708.04849
        39.100    23599429.11349  23599425.504 2  92609129.653 2        31.200
  21774898.727 9 114427880.382 9        48.500                    89164602.53749
        38.600    21774901.57449
  23491438.328 6 123448356.645 6        40.200    23491442.844 7  96193544.62547
        26.900    23491442.12547  23491443.340 3  92185472.045 3        32.400
  24433942.906 5 128401325.476 5        37.900                   100052912.01746
        21.300    24433946.41846
  20484745.172 9 107648069.994 9        51.500    20484751.824 9  83881641.58949
        55.600    20484750.79349  20484747.082 7  80386585.161 7        42.300
  24888820.180 6 130791610.869 6        38.800    24888822.680 5 101915574.52646
        20.900    24888822.32846
  24339263.172 6 127903700.680 6        39.900                    99665223.24647
        26.200    24339265.10947
  23578380.266 5 123905244.321 5        37.300                    96549545.72845
        19.900    23578382.87945
  20757191.789 9 109079797.092 9        50.600    20757198.098 9  84997271.88549
        55.000    20757197.40649  20757193.730 7  81455736.101 7        42.100
  21387593.008 9 112392569.720 9        50.000    21387598.973 9  87578659.80149
        54.300    21387598.76649  21387594.391 6  83929520.155 6        39.700
 21  1  1  1 21  0.0000000  0 11G01G32G21G23G16G08G14G22G20G27G10
  22914088.109 6 120414384.550 6        40.500    22914095.773 7  93829409.32047
        27.800    22914095.60247  22914090.363 3  89919835.469 3        32.900
  23584210.664 7 123935858.358 7        42.200    23584217.273 7  96573416.97149
        38.600    23584217.13749  23584213.695 2  92549434.088 2        31.700
  21766132.477 9 114381811.912 9        48.200                    89128705.02449
        38.900    21766135.06349
  23509981.625 6 123545801.443 6        39.900    23509986.195 7  96269475.60447
        26.700    23509985.35547  23509986.527 3  92258239.232 3        32.200
  24455581.789 5 128515038.289 5        37.700                   100141519.37346
        21.100    24455585.34846
  20479792.141 9 107622041.954 9        51.300    20479798.914 9  83861359.99949
        55.100    20479797.80549  20479794.375 7  80367148.634 7        42.600
  24872323.758 6 130704922.395 6        38.200    24872327.277 6 101848025.05846
        20.900    24872326.60546
  24318740.023 6 127795850.514 6        39.300                    99581184.16647
        25.400    24318741.70747
  23596990.125 5 124003039.103 5        37.600                    96625749.48545
        19.300    23596991.92645
  20767145.570 9 109132103.073 9        51.200    20767151.566 9  85038029.78649
        55.000    20767150.80149  20767147.430 7  81494795.719 7        42.100
  21397196.375 9 112443035.123 9        51.600    21397202.215 9  87617983.48749
        54.300    21397202.05549  21397197.109 6  83967205.325 6        39.600
 21  1  1  1 21 30.0000000  0 11G01G32G21G23G16G08G14G22G20G27G10
  22896870.648 6 120323909.424 6        40.000    22896879.477 7  93758909.32347
        27.600    22896879.00047  22896873.598 3  89852272.928 3        33.000
  23569050.773 7 123856189.495 7        41.300    23569056.949 7  96511337.35649
        38.700    23569056.37949  23569052.480 2  92489941.12012        31.500
  21757406.414 9 114335957.949 9        48.600                    89092974.66349
        38.900    21757409.43049
  23528567.328 6 123643467.690 6        40.300    23528571.141 7  96345579.16347
        26.500    23528570.75047  23528571.391 3  92331171.829 3        32.000
  24477228.477 5 128628789.511 5        37.200                   100230156.72446
        20.100    24477231.34846
  20474925.391 9 107596467.274 9        52.100    20474932.168 9  83841431.67149
        56.100    20474931.03149  20474927.363 7  80348050.650 7        42.200
  24855891.047 5 130618570.18615        37.100    24855894.996 5 101780737.62455
        19.000    24855893.67245
  24298243.039 6 127688140.193 6        39.700                    99497254.09246
        24.800    24298244.69146
  23615633.563 5 124101014.986 5        37.100                    96702094.31546
        20.100    23615637.06346
  20777181.219 9 109184842.217 9        50.200    20777187.559 9  85079125.21349
        55.000    20777186.68849  20777183.430 7  81534178.846 7        42.100
  21406886.672 9 112493956.626 9        49.600    21406892.184 9  87657662.58349
        54.300    21406892.22349  21406887.375 6  84005231.154 6        39.400
 21  1  1  1 22  0.0000000  0 11G01G32G21G23G16G08G14G22G20G27G10
  22879686.570 7 120233601.679 7        41.600    22879693.754 7  93688539.69147
        28.300    22879693.34047  22879689.320 4  89784835.394 4        34.100
  23553942.594 7 123776795.258 7        43.900    23553948.895 7  96449471.71249
        38.800    23553948.07049  23553944.598 2  92430653.203 2        31.300
  21748722.023 9 114290318.599 9        48.400                    89057411.54149
        39.000    21748724.28549
  23547193.750 6 123741353.206 6        39.500    23547197.980 7  96421853.59447
        25.100    23547197.51647  23547198.434 3  92404268.085 3        32.500
  24498881.266 6 128742576.329 6        38.000                   100318821.73346
        20.900    24498884.50846
  20470145.344 9 107571347.507 9        51.600    20470151.973 9  83821857.82349
        56.100    20470150.83649  20470147.094 7  80329292.392 7        42.600
  24839521.680 4 130532557.143 4        34.200    24839526.770 5 101713714.43845
        16.300    24839525.67645
  24277773.281 6 127580572.192 6        38.600                    99413434.88347
        25.200    24277775.26247
  23634311.859 5 124199169.742 5        36.200                    96778578.50846
        21.700    23634315.57046
  20787299.367 9 109238014.106 9        52.100    20787305.895 9  85120557.84949
        55.000    20787304.96549  20787301.328 7  81573885.099 7        41.800
  21416662.516 9 112545332.575 9        50.200    21416668.523 9  87697695.77549
        53.800    21416668.54349  21416663.629 6  84043596.271 6        39.900
 21  1  1  1 22 30.0000000  0 11G01G32G21G23G16G08G14G22G20G27G10
  22862533.133 7 120143461.902 7        41.400    22862540.258 7  93618300.94947
        29.300    22862540.25847  22862534.715 3  89717523.276 3        33.200
  23538886.891 7 123697678.394 7        43.600    23538893.238 7  96387822.19949
        39.000    23538892.71949  23538889.176 2  92371572.41112        31.400
  21740077.867 9 114244893.890 9        48.600                    89022015.66449
        39.300    21740080.61349
  23565861.086 6 123839455.385 6        38.800    23565866.195 7  96498296.82346
        24.800    23565865.94146  23565866.531 3  92477526.215 3        32.500
  24520540.352 5 128856396.178 5        36.500                   100407512.49245
        19.900    24520543.57045
  20465451.797 9 107546683.609 9        50.900    20465458.676 9  83802639.20249
        55.200    20465457.37549  20465453.789 7  80310874.539 7        42.300
  24823219.469 5 130446885.679 5        35.900    24823224.563 6 101646957.46345
        19.000    24823223.55545
  24257331.906 6 127473147.840 6        39.600                    99329727.63546
        24.800    24257332.85546
  23653024.344 5 124297501.314 5        37.700                    96855200.48345
        19.900    23653027.24645
  20797499.898 9 109291617.874 9        51.700    20797506.230 9  85162327.00449
        55.400    20797505.52049  20797502.070 7  81613913.897 7        41.700
  21426525.430 9 112597160.822 9        50.300    21426531.563 9  87738081.43749
        54.000    21426531.09449  21426526.496 6  84082299.208 6        39.400
 21  1  1  1 23  0.0000000  0 11G01G32G21G23G16G08G14G22G20G27G10
  22845412.219 7 120053490.900 7        41.700    22845419.176 7  93548193.70947
        29.000    22845419.13347  22845414.613 3  89650337.150 3        33.000
  23523884.578 7 123618841.887 7        42.500    23523891.379 7  96326391.15849
        38.800    23523890.77049  23523886.281 2  92312701.03012        31.400
  21731474.602 9 114199683.779 9        48.000                    88986787.01149
        39.100    21731477.28549
  23584570.734 6 123937771.757 6        39.900    23584575.574 7  96574906.98447
        25.200    23584575.35547  23584575.988 3  92550944.300 3        32.500
  24542205.156 5 128970246.596 5        37.200                   100496227.10445
        19.300    24542208.23845
  20460845.648 9 107522477.236 9        51.900    20460852.230 9  83783777.09049
        55.400    20460851.19949  20460847.477 7  80292798.343 7        42.100
  24806981.734 5 130361558.385 5        35.700    24806987.602 6 101580468.60045
        18.600    24806986.32445
  24236917.508 6 127365869.045 6        40.100                    99246133.76947
        25.900    24236918.14547
  23671769.242 5 124396007.388 5        37.000                    96931958.49146
        20.600    23671771.56346
  20807782.453 9 109345652.887 9        51.200    20807788.770 9  85204432.20049
        55.000    20807788.09449  20807784.777 7  81654264.703 7        41.700
  21436473.766 9 112649439.538 9        50.600    21436479.781 9  87778818.10149
        53.700    21436479.59849  21436474.723 6  84121338.519 6        39.600
 21  1  1  1 23 30.0000000  0 11G01G32G21G23G16G08G14G22G20G27G10
  22828323.250 7 119963689.204 7        41.700    22828330.711 7  93478218.38747
        28.700    22828330.03947  22828325.652 3  89583277.549 3        33.900
  23508936.336 7 123540288.422 7        42.500    23508943.426 7  96265180.67349
        38.900    23508942.40249  23508938.629 3  92254040.974 3        32.200
  21722911.664 9 114154687.220 9        48.700                    88951724.77349
        39.200    21722914.75449
  23603319.922 6 124036299.628 6        40.000    23603324.559 7  96651681.93647
        25.800    23603323.85947  23603325.238 3  92624520.28513        32.400
  24563874.875 5 129084125.085 5        37.300                   100584963.60445
        19.300    24563878.68445
  20456326.352 9 107498729.269 9        51.200    20456333.230 9  83765272.18049
        55.700    20456332.09849  20456328.309 7  80275064.489 7        41.800
  24790813.281 5 130276577.608 5        37.700    24790814.805 5 101514249.77845
        18.600    24790814.86345
  24216530.781 6 127258737.542 6        40.600                    99162654.68046
        24.600    24216531.62546
  23690546.992 5 124494685.698 5        35.700                    97008850.64945
        19.300    23690549.89545
  20818146.844 9 109400118.129 9        51.400    20818153.211 9  85246872.63349
        54.900    20818152.51249  20818148.836 7  81694936.789 7        41.800
  21446507.094 9 112702166.482 9        51.000    21446513.391 9  87819904.03049
        53.800    21446513.05949  21446508.461 6  84160712.511 6        39.400
 21  1  1  1 24  0.0000000  0 11G01G32G21G23G16G08G14G22G20G27G10
  22811267.117 7 119874057.820 7        41.600    22811274.750 7  93408375.77847
        28.600    22811274.45747  22811269.426 3  89516345.016 3        33.900
  23494042.977 7 123462021.100 7        42.800    23494049.301 7  96204193.16049
        39.200    23494048.34849  23494044.820 3  92195594.597 3        32.100
  21714390.234 9 114109905.856 9        48.700                    88916830.20349
        39.800    21714393.13349
  23622108.688 6 124135036.761 6        40.200    23622113.859 7  96728619.94947
        26.200    23622113.06647  23622114.004 2  92698252.545 2        31.300
  24585550.789 5 129198028.717 5        37.000                   100673719.66745
        19.300    24585554.14545
  20451894.836 9 107475441.184 9        50.800    20451901.711 9  83747125.62049
        55.600    20451900.63749  20451896.680 7  80257674.003 7        42.200
  24774708.102 5 130191945.968 5        37.900    24774711.426 6 101448303.06346
        22.300    24774711.09046
  24196173.539 6 127151755.335 6        40.700                    99079291.93947
        25.500    24196173.59047
  23709357.500 5 124593534.145 5        36.300                    97085875.40945
        19.300    23709360.58245
  20828593.141 9 109455013.119 9        51.900    20828599.309 9  85289647.93949
        55.500    20828598.60249  20828595.289 7  81735929.786 7        42.200
  21456625.938 9 112755339.910 9        50.000    21456631.840 9  87861337.86349
        53.800    21456631.72349  21456626.848 6  84200419.959 6        39.200
 21  1  1  1 24 30.0000000  0 11G01G32G21G23G16G08G14G22G20G27G10
  22794243.234 7 119784597.432 7        41.600    22794250.551 7  93338666.44547
        28.200    22794250.04347  22794245.805 4  89449540.268 4        34.500
  23479204.180 7 123384042.787 7        42.400    23479210.805 7  96143430.82749
        39.800    23479209.45349  23479206.598 3  92137364.025 3        32.000
  21705909.406 9 114065339.154 9        48.500                    88882102.89649
        39.200    21705912.43049
  23640938.242 6 124233980.592 6        40.900    23640942.082 6  96805719.02747
        26.000    23640941.45747  23640942.305 2  92772139.181 2        31.600
  24607229.773 5 129311954.741 5        36.100                   100762493.16945
        19.000    24607233.21545
  20447550.930 9 107452614.025 9        50.900    20447557.852 9  83729338.21449
        55.900    20447556.67249  20447552.867 7  80240627.757 7        42.500
  24758669.797 6 130107666.135 6        38.200    24758673.266 6 101382630.41546
        21.500    24758672.99246
  24175843.398 6 127044923.790 6        39.700                    98996046.59347
        26.300    24175844.19947
  23728199.984 5 124692550.390 5        35.700                    97163030.89345
        19.300    23728202.97345
  20839120.641 9 109510336.976 9        51.700    20839127.219 9  85332757.43049
        55.100    20839126.51249  20839122.875 7  81777243.046 7        42.100
  21466828.836 9 112808957.755 9        50.900    21466834.789 9  87903117.99949
        53.700    21466834.80549  21466830.320 6  84240459.245 6        39.400
 21  1  1  1 25  0.0000000  0 11G01G32G21G23G16G08G14G22G20G27G10
  22777252.008 7 119695308.737 7        41.600    22777259.578 7  93269090.87647
        28.900    22777258.79347  22777254.043 4  89382863.699 4        34.100
  23464420.508 7 123306356.325 7        43.100    23464427.305 7  96082895.91949
        40.000    23464426.64549  23464423.418 2  92079351.400 2        31.700
  21697469.438 9 114020986.897 9        48.000                    88847542.69649
        39.400    21697472.40249
  23659805.039 6 124333128.661 6        40.200    23659809.172 6  96882977.27846
        24.000    23659808.51246  23659810.234 2  92846178.291 2        31.900
  24628912.742 5 129425901.311 5        37.000                   100851282.69145
        19.000    24628916.40645
  20443295.141 9 107430249.282 9        51.900    20443301.730 9  83711911.13749
        55.800    20443300.95749  20443297.102 7  80223926.811 7        42.400
  24742698.609 5 130023740.615 5        37.900    24742702.262 5 101317233.89645
        18.300    24742701.36345
  24155543.164 6 126938245.297 6        40.000                    98912920.52647
        26.500    24155545.20347
  23747072.844 4 124791732.253 4        34.700                    97240315.43745
        17.400    23747076.26245
  20849729.953 9 109566088.925 9        51.300    20849736.316 9  85376200.49549
        54.900    20849735.80549  20849732.043 7  81818875.976 7        42.000
  21477116.523 9 112863017.936 9        50.900    21477122.391 9  87945242.81649
        54.000    21477122.11349  21477117.418 6  84280828.852 6        39.800
 21  1  1  1 25 30.0000000  0 11G01G32G21G23G16G08G14G22G20G27G10
  22760293.695 7 119606192.650 7        42.000    22760301.324 7  93199649.82147
        28.600    22760300.80547  22760296.578 4  89316315.980 4        34.700
  23449693.414 7 123228964.715 7        42.600    23449700.402 7  96022590.76849
        39.900    23449699.45749  23449696.336 3  92021558.967 3        32.000
  21689070.617 9 113976849.469 9        48.500                    88813149.90449
        39.100    21689073.00449
  23678710.438 6 124432478.610 6        39.700    23678715.262 7  96960392.80546
        24.900    23678714.39846  23678715.621 3  92920368.230 3        32.800
  24650599.266 5 129539865.253 5        35.500                   100940085.77945
        18.300    24650602.88345
  20439127.313 9 107408348.382 9        51.900    20439134.207 9  83694845.49749
        55.400    20439133.28149  20439129.488 7  80207572.238 7        42.700
  24726796.656 5 129940171.923 5        37.600    24726799.176 6 101252115.43146
        20.100    24726799.81346
  24135272.555 6 126831721.693 6        40.000                    98829915.16147
        26.700    24135273.62947
  23765978.313 5 124891077.864 5        35.900                    97317727.59145
        17.400    23765981.08645
  20860420.406 9 109622268.265 9        50.900    20860427.188 9  85419976.59449
        55.300    20860426.32849  20860422.863 7  81860828.069 7        41.500
  21487487.336 9 112917518.592 9        50.700    21487493.359 9  87987710.86749
        53.700    21487493.20749  21487488.559 6  84321527.408 6        39.000
 21  1  1  1 26  0.0000000  0 11G01G32G21G23G16G08G14G22G20G27G10
  22743368.711 7 119517249.961 7        41.400    22743376.129 7  93130343.86847
        28.500    22743375.80547  22743371.430 4  89249897.798 4        34.600
  23435023.523 7 123151870.864 7        43.100    23435030.227 7  95962517.63949
        39.900    23435029.04749  23435025.242 3  91963988.870 3        32.100
  21680712.281 9 113932926.156 9        48.400                    88778923.94749
        39.800    21680714.68849
  23697654.414 6 124532028.048 6        40.300    23697658.703 7  97037963.78747
        26.400    23697658.44147  23697659.082 2  92994706.982 2        31.900
  24672289.203 5 129653844.252 5        36.700                   101028900.56145
        19.300    24672292.76645
  20435048.234 9 107386912.537 9        51.400    20435055.090 9  83678142.24049
        56.200    20435054.14849  20435050.625 7  80191564.954 7        42.500
  24710962.063 5 129856962.711 5        37.600    24710966.516 6 101187277.05146
        20.600    24710965.85546
  24115030.773 6 126725354.705 6        40.600                    98747031.79547
        26.800    24115032.77747
  23784913.914 5 124990584.761 5        37.300                    97395265.44345
        19.300    23784917.41845
  20871192.258 9 109678874.275 9        50.600    20871198.758 9  85464085.16349
        55.000    20871198.02749  20871194.449 7  81903098.774 7        41.600
  21497941.805 9 112972457.808 9        50.500    21497948.027 9  88030520.64149
        53.400    21497947.64549  21497943.355 6  84362553.453 6        39.100
 21  1  1  1 26 30.0000000  0 11G01G32G21G23G16G08G14G22G20G27G10
  22726475.844 7 119428481.221 7        41.600    22726483.652 7  93061173.44647
        28.600    22726483.64547  22726479.414 4  89183609.526 4        34.300
  23420410.047 7 123075077.612 7        43.800    23420416.273 7  95902678.74749
        40.400    23420415.77749  23420412.066 2  91906643.247 2        31.700
  21672394.859 9 113889217.444 9        48.200                    88744865.21749
        39.600    21672397.34849
  23716635.484 6 124631774.325 6        40.500    23716640.352 7  97115688.16747
        26.300    23716639.35947  23716639.605 1  93069192.874 1        30.500
  24693981.164 5 129767834.983 5        36.900                   101117724.48146
        20.900    24693984.86746
  20431057.758 9 107365942.638 9        51.200    20431064.625 9  83661802.05549
        55.800    20431063.78549  20431060.223 7  80175905.615 7        42.500
  24695195.453 5 129774115.410 5        35.400    24695200.750 6 101122720.64945
        19.000    24695199.97745
  24094819.977 7 126619146.022 7        41.000                    98664271.80847
        25.900    24094821.63747
  23803879.719 5 125090250.790 5        37.800                    97472927.22546
        20.100    23803882.89846
  20882045.438 9 109735906.021 9        50.600    20882051.480 9  85508525.46749
        55.300    20882050.85949  20882047.289 7  81945687.388 7        41.600
  21508479.789 9 113027833.364 9        50.500    21508485.715 9  88073670.42849
        53.500    21508485.44149  21508480.938 6  84403905.347 6        39.800
 21  1  1  1 27  0.0000000  0 11G01G32G21G23G16G08G14G22G20G27G10
  22709617.266 6 119339887.529 6        40.700    22709625.137 7  92992139.41947
        29.100    22709624.73447  22709620.637 4  89117451.877 4        34.300
  23405854.195 7 122998588.004 7        42.700    23405860.961 7  95843076.44449
        40.400    23405860.14549  23405857.016 3  91849524.414 3        32.000
  21664118.039 9 113845723.745 9        48.400                    88710974.01749
        39.800    21664120.56649
  23735653.875 6 124731715.345 6        40.800    23735658.371 7  97193564.26647
        25.600    23735657.68847  23735658.371 1  93143824.175 1        29.500
  24715676.195 5 129881835.169 5        37.600                   101206555.73845
        19.000    24715677.46545
  20427156.344 9 107345440.440 9        51.400    20427163.551 9  83645826.31249
        55.400    20427162.26249  20427158.785 7  80160595.529 7        42.500
  24679500.328 5 129691632.754 5        36.900    24679504.336 5 101058448.47645
        19.300    24679503.95345
  24074640.719 6 126513097.838 6        40.700                    98581636.87546
        24.900    24074641.22746
  23822875.109 6 125190074.067 6        38.300                    97550711.59945
        19.600    23822878.53545
  20892978.711 9 109793362.893 9        50.900    20892985.172 9  85553297.04849
        54.900    20892984.79749  20892981.043 7  81988593.494 7        41.500
  21519099.797 9 113083643.495 9        50.000    21519105.785 9  88117158.84149
        53.500    21519105.83649  21519101.082 6  84445581.726 6        39.400
 21  1  1  1 27 30.0000000  0 12G01G32G21G23G16G28G08G14G22G20G27G10
  22692792.445 7 119251469.251 7        42.400    22692799.832 7  92923242.08047
        29.300    22692799.02347  22692795.391 4  89051425.324 4        34.500
  23391357.023 7 122922404.545 7        42.400    23391363.418 7  95783712.70849
        40.400    23391363.16049  23391359.375 3  91792634.195 3        32.400
  21655882.008 9 113802444.078 9        48.400                    88677249.59949
        40.000    21655884.73049
  23754708.555 6 124831848.269 6        39.300    23754712.426 7  97271589.89746
        22.500    23754712.30146  23754713.191 1  93218598.73411        30.900
  24737369.648 5 129995842.493 5        36.600                   101295392.67145
        19.000    24737372.46145
  25502333.516 5                        36.800

  20423344.000 9 107325406.391 9        51.000    20423351.320 9  83630215.36549
        55.200    20423349.98449  20423346.164 7  80145635.039 7        42.100
  24663874.586 5 129609516.843 5        36.900    24663878.184 6 100994462.00146
        20.400    24663878.03146
  24054490.422 6 126407212.217 6        40.100                    98499128.61947
        25.100    24054491.72347
  23841900.570 6 125290051.851 6        39.000                    97628616.40146
        20.400    23841902.99246
  20903993.180 9 109851243.709 9        50.600    20903999.688 9  85598398.96749
        55.100    20903999.11349  20903995.613 7  82031816.182 7        41.700
  21529802.516 9 113139885.794 9        50.700    21529808.449 9  88160984.01149
        53.500    21529808.37549  21529803.938 6  84487580.844 6        39.600
 21  1  1  1 28  0.0000000  0 12G01G32G21G23G16G28G08G14G22G20G27G10
  22676000.195 7 119163227.482 7        41.300    22676007.523 7  92854482.29348
        30.200    22676007.46948  22676002.613 3  88985530.493 3        33.700
  23376918.898 7 122846530.444 7        42.700    23376925.059 7  95724590.03549
        41.000    23376924.69149  23376920.734 3  91735974.894 3        32.200
  21647687.531 9 113759379.652 9        48.600                    88643692.91049
        39.900    21647690.14149
  23773798.648 6 124932170.983 6        39.600    23773803.500 6  97349763.43546
        22.500    23773803.03946  23773804.113 3  93293515.019 3        32.400
  24759065.836 5 130109855.039 5        36.400                   101384233.55345
        18.300    24759068.51245
  25486202.680 1 133930896.022 1        29.600                   104361758.56054
        14.800    25486207.48044
  20419620.938 9 107305842.379 9        50.800    20419627.992 9  83614970.67549
        55.800    20419627.10249  20419623.359 7  80131025.532 7        42.200
  24648318.508 5 129527770.544 5        37.900    24648322.809 6 100930763.54545
        19.600    24648322.19945
  24034372.125 6 126301489.838 6        40.500                    98416747.55547
        26.000    24034373.93847
  23860955.141 6 125390182.589 6        38.600                    97706640.29246
        21.300    23860957.72346
  20915087.914 9 109909547.944 9        49.600    20915094.570 9  85643830.82049
        55.200    20915094.05949  20915090.500 7  82075355.027 7        41.300
  21540587.125 9 113196558.544 9        49.600    21540592.977 9  88205144.60049
        53.500    21540592.73449  21540588.262 6  84529901.393 6        39.000
 21  1  1  1 28 30.0000000  0 12G01G32G21G23G16G28G08G14G22G20G27G10
  22659242.039 7 119075162.946 7        41.300    22659249.969 7  92785860.60248
        30.100    22659249.55948  22659245.836 4  88919768.051 4        34.900
  23362539.547 7 122770968.473 7        43.000    23362546.793 7  95665710.58149
        40.600    23362545.69149  23362541.965 3  91679548.788 3        32.300
  21639533.242 9 113716530.182 9        48.300                    88610303.72449
        39.700    21639536.22349
  23792925.125 6 125032681.007 6        38.800    23792929.305 6  97428082.93946
        22.300    23792928.89146  23792930.387 3  93368571.171 3        32.200
  24780761.750 5 130223869.275 5        36.400                   101473075.86045
        17.400    24780764.31645
  25470121.711 5 133846380.65115        37.100                   104295902.51555
        17.800    25470124.52745
  20415987.828 9 107286749.175 9        51.300    20415994.824 9  83600092.84549
        56.400    20415993.79349  20415989.852 7  80116767.608 7        42.400
  24632833.055 5 129446396.319 5        37.400    24632837.430 5 100867354.98845
        17.800    24632835.88745
  24014285.156 6 126195933.014 6        40.200                    98334495.51247
        26.000    24014286.92247
  23880037.680 5 125490464.041 5        37.300                    97784781.69245
        18.300    23880040.96145
  20926263.680 9 109968274.684 9        49.600    20926269.758 9  85689591.91349
        55.100    20926269.23849  20926265.813 7  82119209.410 7        41.600
  21551452.992 9 113253659.612 9        49.000    21551458.797 9  88249638.93849
        53.400    21551458.73849  21551453.941 6  84572541.836 6        39.300
 21  1  1  1 29  0.0000000  0 12G01G32G21G23G16G28G08G14G22G20G27G10
  22642518.211 7 118987276.604 7        41.500    22642525.742 7  92717377.77648
        30.400    22642525.19948  22642520.641 4  88854138.697 4        34.300
  23348220.727 7 122695721.760 7        43.400    23348228.145 7  95607076.76949
        40.900    23348226.86749  23348223.254 2  91623358.038 2        31.900
  21631420.289 9 113673895.595 9        48.100                    88577081.98349
        40.100    21631422.91049
  23812086.164 6 125133376.137 6        39.200    23812091.273 7  97506546.66847
        25.100    23812090.78547  23812091.480 2  93443765.584 2        31.600
  24802457.750 5 130337882.685 5        36.900                   101561917.40345
        18.300    24802461.21945
  25454084.703 5 133762111.157 5        35.800                   104230237.93445
        16.300    25454087.79345
  20412444.633 9 107268128.422 9        50.700    20412451.480 9  83585583.16249
        55.500    20412450.27049  20412446.734 7  80102862.500 7        42.300
  24617419.438 5 129365396.898 5        36.500    24617424.188 5 100804238.53145
        19.300    24617422.48045
  23994230.883 6 126090543.960 6        40.200                    98252374.21247
        26.700    23994232.25047
  23899148.289 5 125590894.098 5        36.900                    97863038.81945
        19.000    23899151.39545
  20937519.117 9 110027423.320 9        50.200    20937525.633 9  85735681.74949
        55.000    20937524.81649  20937521.273 7  82163378.812 7        41.300
  21562400.047 9 113311187.202 9        49.000    21562405.926 9  88294465.63049
        53.300    21562405.94549  21562401.207 6  84615500.718 6        39.400
 21  1  1  1 29 30.0000000  0 12G01G32G21G23G16G28G08G14G22G20G27G10
  22625827.383 7 118899569.144 7        41.100    22625835.098 7  92649034.33847
        29.600    22625834.73047  22625830.031 4  88788642.912 4        34.400
  23333962.422 7 122620793.023 7        43.200    23333969.109 7  95548690.73949
        41.600    23333968.09449  23333964.586 3  91567404.759 3        32.500
  21623347.898 9 113631475.719 9        48.700                    88544027.53449
        39.800    21623350.39149
  23831283.406 6 125234253.840 6        39.600    23831288.367 7  97585152.65247
        25.700    23831287.98447  23831288.863 3  93519096.323 3        32.900
  24824153.531 5 130451893.101 5        36.900                   101650756.69145
        16.900    24824155.96945
  25438096.219 3 133678089.842 3        33.900                   104164766.68445
        15.600    25438099.48445
  20408991.180 9 107249981.056 9        51.300    20408998.016 9  83571442.35449
        55.600    20408996.85949  20408993.340 7  80089310.889 7        42.900
  24602078.086 5 129284774.634 5        36.800    24602081.859 6 100741416.01446
        20.400    24602081.14546
  23974208.047 6 125985324.329 6        40.000                    98170384.90547
        26.000    23974209.11347
  23918287.297 5 125691470.263 5        35.200                    97941409.89345
        18.300    23918290.90245
  20948854.914 9 110086992.840 9        49.500    20948861.266 9  85782099.54749
        55.000    20948860.58649  20948856.680 6  82207862.542 6        40.400
  21573427.828 9 113369139.157 9        49.100    21573433.844 9  88339622.99849
        53.300    21573433.68049  21573428.836 6  84658776.504 6        39.100
 21  1  1  1 30  0.0000000  0 12G01G32G21G23G16G28G08G14G22G20G27G10
  22609171.242 7 118812041.336 7        41.200    22609178.832 7  92580830.88147
        29.700    22609178.14847  22609174.098 4  88723281.263 4        34.800
  23319765.281 7 122546185.143 7        43.600    23319771.664 7  95490554.73349
        41.400    23319770.84849  23319767.410 3  91511691.089 3        32.400
  21615316.867 9 113589270.522 9        48.700                    88511140.37349
        40.400    21615319.31349
  23850514.555 6 125335311.829 6        39.200    23850518.793 7  97663899.10346
        24.800    23850518.47346  23850520.047 3  93594561.660 3        33.500
  24845846.945 5 130565897.556 5        36.100                   101739591.35145
        18.600    24845850.43845
  25422156.117 5 133594319.128 5        36.700                   104099490.72445
        16.900    25422157.27345
  20405628.281 9 107232308.276 9        51.200    20405634.996 9  83557671.35849
        55.800    20405633.81649  20405630.051 7  80076113.683 7        42.400
  24586808.195 5 129204532.075 5        36.200    24586813.680 6 100678889.35946
        20.400    24586812.21146
  23954218.094 6 125880275.968 6        40.100                    98088529.05347
        25.400    23954218.91047
  23937453.172 4 125792190.756 4        34.600                    98019893.35745
        17.400    23937457.34845
  20960270.461 9 110146982.473 9        49.800    20960276.730 9  85828844.70249
        55.400    20960276.39549  20960272.656 7  82252659.995 7        41.700
  21584536.266 9 113427513.398 9        49.600    21584542.289 9  88385109.42149
        53.400    21584542.10949  21584537.066 6  84702367.699 6        39.100
 21  1  1  1 30 30.0000000  0 12G01G32G21G23G16G28G08G14G22G20G27G10
  22592549.242 6 118724693.783 6        40.600    22592557.367 7  92512767.89448
        30.400    22592557.43448  22592552.352 4  88658054.231 4        34.100
  23305628.906 7 122471900.717 7        43.700    23305636.031 7  95432670.76749
        41.500    23305635.07849  23305630.887 2  91456218.956 2        31.800
  21607326.133 9 113547280.035 9        49.100                    88478420.51749
        40.400    21607329.07049
  23869778.711 6 125436547.436 6        39.000    23869783.473 7  97742783.97646
        24.100    23869782.76646  23869783.586 3  93670159.659 3        32.200
  24867540.563 5 130679893.697 5        37.700                   101828419.47745
        19.900    24867543.92245
  25406263.141 6 133510800.908 6        38.300                   104034411.63745
        17.400    25406266.35545
  20402355.750 9 107215110.875 9        50.700    20402362.320 9  83544270.77349
        55.700    20402361.16049  20402357.531 7  80063271.475 7        42.200
  24571611.539 5 129124671.418 5        37.700    24571615.414 6 100616660.25945
        19.300    24571614.20345
  23934260.617 6 125775400.546 6        40.400                    98006807.96847
        25.700    23934262.01247
  23956647.648 5 125893053.530 5        35.400                    98098487.66845
        19.000    23956651.62545
  20971766.156 9 110207391.018 9        49.300    20971772.281 9  85875916.28949
        55.000    20971771.69949  20971768.305 6  82297770.249 6        40.900
  21595724.391 9 113486307.666 9        48.800    21595730.422 9  88430923.13549
        53.200    21595730.47349  21595725.383 6  84746272.488 6        38.500
 21  1  1  1 31  0.0000000  0 12G01G32G21G23G16G28G08G14G22G20G27G10
  22575962.273 7 118637527.066 7        41.800    22575969.855 7  92444845.81947
        29.700    22575969.76647  22575965.156 5  88592962.259 5        35.000
  23291555.148 7 122397942.481 7        43.800    23291561.977 7  95375040.97549
        41.600    23291561.15249  23291557.406 3  91400990.431 3        32.300
  21599376.344 8 113505504.190 8        47.800                    88445867.91449
        40.000    21599379.16049
  23889076.164 6 125537958.169 6        38.200    23889080.793 7  97821805.31946
        24.100    23889079.78546  23889081.340 2  93745888.452 2        31.400
  24889230.891 5 130793878.992 5        36.400                   101917239.16145
        17.400    24889234.23445
  25390417.797 5 133427537.522 5        35.700                   103969531.04045
        16.900    25390420.70345
  20399173.688 9 107198390.007 9        50.400    20399180.625 9  83531241.52249
        55.700    20399179.32849  20399175.742 7  80050785.087 7        42.900
  24556487.063 5 129045195.129 5        37.200    24556491.398 6 100554730.63146
        20.600    24556490.32046
  23914337.008 6 125670699.734 6        40.300                    97925222.95047
        27.400    23914338.30147
  23975868.570 5 125994055.994 5        35.700                    98177190.85645
        18.300    23975871.25845
  20983340.641 9 110268217.452 9        49.500    20983347.117 9  85923313.49949
        55.100    20983346.59449  20983343.203 7  82343192.585 7        41.000
  21606991.930 9 113545519.716 9        48.500    21606997.824 9  88477062.39549
        53.000    21606997.83649  21606993.020 6  84790489.267 6        39.000
 21  1  1  1 31 30.0000000  0 12G01G32G21G23G16G28G08G14G22G20G27G10
  22559409.617 7 118550542.324 7        41.800    22559417.172 7  92377065.54047
        29.800    22559416.65647  22559412.410 5  88528006.166 5        35.000
  23277544.352 7 122324313.583 7        43.500    23277551.133 7  95317667.81249
        41.600    23277550.04749  23277546.848 3  91346007.792 3        32.900
  21591467.578 9 113463943.211 9        48.500                    88413482.74249
        39.900    21591470.35549
  23908407.094 6 125639541.960 6        38.400    23908411.809 7  97900961.52547
        25.200    23908411.46147  23908412.098 1  93821746.48311        30.800
  24910920.125 5 130907850.727 5        37.500                   102006048.31845
        17.800    24910922.40245
  25374621.930 5 133344531.480 5        35.400                   103904850.92545
        15.600    25374625.97345
  20396083.086 9 107182147.204 9        50.500    20396089.785 9  83518584.78649
        56.200    20396088.62549  20396084.754 7  80038655.733 7        42.600
  24541436.727 5 128966105.889 5        37.300    24541441.500 6 100493102.63246
        20.100    24541441.15246
  23894446.492 7 125566175.343 7        41.300                    97843775.37347
        26.700    23894447.80947
  23995113.992 4 126095196.402 4        34.600                    98256001.57945
        18.600    23995117.46545
  20994995.352 9 110329461.241 9        49.300    20995001.508 9  85971035.91349
        55.000    20995001.00849  20994997.324 7  82388926.558 7        41.100
  21618338.891 9 113605147.831 9        48.600    21618344.691 9  88523525.86149
        52.900    21618344.57049  21618339.930 6  84835016.768 6        38.600
 21  1  1  1 32  0.0000000  0 12G01G32G21G23G16G28G08G14G22G20G27G10
  22542892.000 7 118463740.377 7        42.200    22542899.160 7  92309427.68747
        29.800    22542899.40647  22542895.344 5  88463186.574 5        35.100
  23263596.633 7 122251016.930 7        43.700    23263603.086 7  95260553.54749
        41.800    23263602.53949  23263598.930 3  91291273.296 3        32.400
  21583599.734 9 113422597.544 9        49.200                    88381265.33749
        40.400    21583602.46949
  23927771.250 6 125741296.573 6        39.000    23927775.152 7  97980250.79447
        25.400    23927774.90647  23927776.563 3  93897732.027 3        32.100
  24932603.617 5 131021806.519 5        37.000                   102094845.03245
        19.600    24932608.13745
  25358876.852 5 133261784.931 5        37.400                   103840373.07645
        17.400    25358880.05545
  20393083.234 9 107166383.817 9        50.800    20393090.090 9  83506301.62149
        55.500    20393089.07049  20393085.117 7  80026884.364 7        42.500
  24526460.180 5 128887406.339 5        37.500    24526465.371 6 100431778.26045
        19.300    24526464.87945
  23874590.094 6 125461829.299 6        40.600                    97762466.78047
        26.800    23874591.10247
  24014387.375 4 126196472.919 4        34.900                    98334918.29245
        17.800    24014390.03545
  21006728.734 9 110391121.496 9        49.800    21006734.879 9  86019082.86349
        55.000    21006734.36349  21006730.711 7  82434971.546 7        41.000
  21629764.711 9 113665189.964 9        50.100    21629770.344 9  88570311.93449
        53.300    21629770.36349  21629765.797 6  84879853.430 6        39.600
 21  1  1  1 32 30.0000000  0 12G01G32G21G23G16G28G08G14G22G20G27G10
  22526409.156 7 118377121.595 7        42.100    22526416.508 7  92241932.56948
        31.000    22526416.00448  22526412.391 5  88398503.763 5        35.800
  23249711.930 7 122178054.886 7        43.900    23249718.730 7  95203700.01149
        42.000    23249718.34449  23249714.168 3  91236788.670 3        32.100
  21575772.820 9 113381466.085 9        48.300                    88349214.85649
        40.800    21575775.63349
  23947165.695 6 125843219.056 6        38.100    23947170.207 6  98059670.90846
        22.500    23947170.09046  23947171.113 2  93973842.988 2        31.500
  24954285.820 5 131135743.560 5        36.500                   102183627.06645
        17.400    24954290.01245
  25343180.625 5 133179299.774 5        36.800                   103776098.90344
        14.800    25343182.89844
  20390174.617 9 107151099.857 9        50.300    20390181.625 9  83494392.03749
        55.800    20390180.61749  20390176.750 7  80015470.996 7        42.200
  24511559.406 5 128809098.427 5        36.400    24511564.477 6 100370759.10646
        20.900    24511564.09046
  23854767.852 6 125357663.154 6        40.200                    97681298.36747
        25.600    23854769.32847
  24033684.766 5 126297882.904 5        36.900                    98413939.02945
        17.800    24033687.38345
  21018541.164 9 110453196.879 9        49.800    21018547.555 9  86067453.28449
        55.200    21018546.88749  21018543.285 7  82481326.533 7        41.000
  21641268.625 9 113725643.613 9        50.300    21641274.508 9  88617418.67949
        53.000    21641274.03549  21641269.867 6  84924997.392 6        39.100
 21  1  1  1 33  0.0000000  0 12G01G32G21G23G16G28G08G14G22G20G27G10
  22509960.813 7 118290687.209 7        41.500    22509968.523 7  92174581.11648
        31.000    22509968.41448  22509963.500 4  88333958.613 4        34.900
  23235892.281 7 122105430.761 7        43.600    23235898.723 7  95147109.78249
        42.100    23235898.06649  23235894.340 2  91182556.369 2        31.900
  21567986.758 9 113340550.195 9        48.300                    88317332.35749
        40.600    21567989.52749
  23966592.117 5 125945307.799 5        37.700    23966597.180 6  98139220.54846
        22.200    23966595.99646  23966597.164 1  94050078.06411        29.400
  24975963.406 5 131249659.485 5        36.900                   102272392.74045
        18.300    24975966.99645
  25327534.625 5 133097079.075 5        37.700                   103712030.84645
        16.900    25327537.16445
  20387358.023 9 107136297.434 9        50.700    20387365.004 9  83482857.67849
        56.000    20387363.80949  20387359.852 7  80004417.243 7        42.400
  24496734.211 5 128731185.097 5        37.600    24496738.430 6 100310047.47046
        22.200    24496737.56646
  23834980.297 6 125253678.932 6        40.200                    97600271.74147
        27.600    23834981.66447
  24053007.227 5 126399424.816 5        37.500                    98493062.57645
        19.000    24053010.47345
  21030432.625 9 110515686.923 9        50.400    21030439.328 9  86116146.81149
        55.000    21030438.40249  21030434.664 7  82527991.148 7        41.000
  21652850.492 9 113786507.164 9        49.600    21652856.535 9  88664844.82449
        52.700    21652855.89849  21652851.980 6  84970447.439 6        39.900
 21  1  1  1 33 30.0000000  0 12G01G32G21G23G16G28G08G14G22G20G27G10
  22493548.664 7 118204437.935 7        42.200    22493555.535 7  92107373.94148
        31.800    22493555.47348  22493550.984 4  88269551.730 4        34.500
  23222137.633 7 122033147.292 7        43.800    23222144.168 7  95090785.00649
        42.300    23222142.88749  23222139.105 3  91128578.406 3        32.600
  21560241.695 9 113299849.577 9        48.100                    88285617.59149
        40.500    21560244.62549
  23986050.750 5 126047560.119 5        37.900    23986055.270 6  98218897.70446
        21.700    23986054.62546  23986054.543 1  94126435.31311        29.000
  24997635.258 4 131363551.824 4        34.900                   102361140.03145
        19.000    24997639.89145
  25311938.523 5 133015124.694 5        36.400                   103648170.22245
        17.400    25311942.42645
  20384632.828 9 107121977.207 9        50.700    20384639.832 9  83471699.05049
        55.800    20384638.72349  20384634.809 7  79993723.550 7        42.800
  24481983.289 6 128653668.781 6        38.500    24481987.234 6 100249645.15546
        21.100    24481986.89546
  23815227.875 6 125149878.202 6        40.800                    97519388.05047
        27.000    23815229.42247
  24072354.516 5 126501095.769 5        36.900                    98572286.68645
        17.800    24072357.19545
  21042402.641 9 110578590.585 9        49.300    21042409.262 9  86165162.64649
        55.100    21042408.56649  21042404.906 6  82574964.658 6        40.400
  21664510.344 9 113847778.438 9        48.800    21664516.141 9  88712588.66749
        52.900    21664515.63749  21664511.328 6  85016201.969 6        39.100
 21  1  1  1 34  0.0000000  0 12G01G32G21G23G16G28G08G14G22G20G27G10
  22477171.734 7 118118374.171 7        42.900    22477178.168 7  92040311.28248
        31.900    22477177.91848  22477174.172 5  88205283.368 5        35.500
  23208447.555 7 121961206.797 7        43.400    23208454.168 7  95034727.48649
        42.200    23208453.13349  23208449.324 3  91074856.648 3        32.800
  21552537.352 9 113259363.570 9        48.200                    88254070.05949
        40.200    21552540.27349
  24005539.383 5 126149973.384 5        37.600    24005543.637 6  98298700.23246
        23.000    24005543.93046  24005544.148 1  94202912.76311        29.700
  25019304.078 5 131477418.208 5        36.700                   102449866.99345
        17.800    25019308.08245
  25296393.617 3 132933438.764 3        33.800                   103584518.76345
        15.600    25296396.95745
  20382000.156 9 107108140.110 9        51.100    20382006.582 9  83460916.89749
        56.100    20382005.54349  20382001.680 7  79983390.663 7        42.000
  24467307.883 5 128576551.397 5        36.800    24467311.523 6 100189553.70745
        19.600    24467310.94945
  23795510.773 7 125046263.149 7        41.200                    97438649.06647
        27.600    23795512.04347
  24091726.930 5 126602894.439 5        36.800                    98651610.34945
        15.600    24091728.94545
  21054451.648 9 110641906.462 9        50.000    21054458.066 9  86214499.68849
        55.000    21054457.41049  21054453.563 6  82622245.994 6        40.500
  21676246.859 9 113909454.905 9        50.200    21676252.391 9  88760648.24949
        53.000    21676252.46949  21676247.848 6  85062259.070 6        38.400
 21  1  1  1 34 30.0000000  0 12G01G32G21G23G16G28G08G14G22G20G27G10
  22460829.266 7 118032496.926 7        42.100    22460836.453 7  91973393.98048
        31.600    22460836.04348  22460831.137 5  88141154.306 5        35.000
  23194823.383 7 121889612.384 7        43.900    23194830.266 7  94978939.63249
        42.100    23194829.01649  23194825.418 3  91021393.274 3        33.400
  21544873.961 9 113219092.719 9        48.300                    88222690.17149
        40.600    21544876.99249
  24025058.117 5 126252545.490 5        36.900    24025062.230 6  98378626.49046
        20.400    24025062.36346  24025063.172 1  94279508.77411        30.300
  25040966.172 5 131591255.395 5        36.600                   102538571.28245
        18.300    25040970.72745
  25280901.078 5 132852023.732 5        35.600                   103521078.46645
        15.600    25280904.02745
  20379458.867 9 107094787.150 9        50.700    20379465.773 9  83450511.98649
        55.400    20379464.53549  20379460.738 7  79973419.293 7        42.200
  24452708.578 5 128499835.681 5        36.800    24452713.367 6 100129775.17845
        19.000    24452712.60945
  23775828.750 7 124942835.330 7        41.400                    97358055.97647
        27.900    23775830.07447
  24111122.180 5 126704818.521 5        35.400                    98731031.76745
        16.300    24111124.33245
  21066578.313 9 110705633.877 9        50.100    21066584.797 9  86264157.40249
        55.100    21066584.31649  21066580.363 7  82669834.649 7        41.100
  21688060.328 9 113971534.693 9        49.800    21688065.828 9  88809022.11049
        52.800    21688065.92249  21688061.113 6  85108617.325 6        39.300
