     2.11           OBSERVATION DATA    G (GPS)             RINEX VERSION / TYPE
teqc  2015Jun23                         20150825 00:11:18UTCPGM / RUN BY / DATE
ZIMM                                                        MARKER NAME
14001M004                                                   MARKER NUMBER
TRIMBLE NETR9       SWISSTOPO                               OBSERVER / AGENCY
5429R49141          TRIMBLE NETR9       5.03                REC # / TYPE / VERS
99390               TRM29659.00     NONE                    ANT # / TYPE
  4331297.3384   567555.6379  4633133.7172                  APPROX POSITION XYZ
        0.0000        0.0000        0.0000                  ANTENNA: DELTA H/E/N
     1     1                                                WAVELENGTH FACT L1/2
    10    C1    L1    S1    C2    L2    S2    P2    C5    L5# / TYPES OF OBSERV
          S5                                                # / TYPES OF OBSERV
    30.0000                                                 INTERVAL
Linux2.6.32-279.el6.x86_64|x86_64|gcc|Win64-MinGW64|=       COMMENT
     2.11           OBSERVATION DATA    M (MIXED)           COMMENT
NetR9 5.03          Receiver Operator   24-AUG-15 00:00:00  COMMENT
L2C CARRIER PHASE MEASUREMENTS: PHASE SHIFTS REMOVED        COMMENT
L2C PHASE MATCHES L2 P PHASE                                COMMENT
GLONASS C/A & P PHASE MATCH: PHASE SHIFTS REMOVED           COMMENT
GIOVE-A if present is mapped to satellite ID 51             COMMENT
GIOVE-B if present is mapped to satellite ID 52             COMMENT
Forced Modulo Decimation to 30 seconds                      COMMENT
teqc edited: all GLONASS satellites excluded                COMMENT
teqc edited: all Galileo satellites excluded                COMMENT
  2015     8    24     0     0    0.0000000     GPS         TIME OF FIRST OBS
                                                            END OF HEADER
 15  8 24  0  0  0.0000000  0  9G05G07G02G20G28G06G30G09G13
  21193504.039 9 111372613.928 9        51.700    21193507.895 9  86783909.91249
        44.300    21193507.36349
  20686589.570 9 108708797.637 9        51.400    20686593.781 9  84708184.85949
        45.600    20686593.14149
  22710247.281 8 119343171.133 8        45.200                    92994692.37048
        33.900    22710249.47748
  24963671.789 6 131184983.815 6        39.000                   102222076.58345
        19.600    24963674.85945
  24241954.852 7 127392333.433 7        41.800                    99266777.58846
        22.500    24241958.88746
  24488823.141 6 128689579.665 6        40.000    24488831.723 6 100277684.66946
        22.900    24488830.63346  24488828.027 1  96099450.095 1        28.600
  20429022.680 9 107355273.446 9        55.100    20429029.633 9  83653501.34049
        48.000    20429029.09849  20429026.371 7  80167927.957 7        43.000
  22567336.852 8 118592202.571 8        46.600    22567343.676 8  92409565.11049
        34.800    22567343.46949  22567341.449 5  88559164.337 5        36.800
  23397760.461 7 122956066.841 7        44.000                    95809947.78047
        28.100    23397764.09847
 15  8 24  0  0 30.0000000  0  9G05G07G02G20G28G06G30G09G13
  21183670.172 9 111320937.143 9        51.200    21183674.906 9  86743642.29049
        44.300    21183674.08249
  20693253.344 9 108743815.901 9        51.900    20693257.219 9  84735471.82749
        45.600    20693256.56349
  22723194.875 7 119411209.988 7        44.600                    93047709.66148
        33.800    22723196.35948
  24943165.422 6 131077221.167 6        38.900                   102138105.65045
        18.600    24943169.09445
  24223070.648 6 127293098.962 6        40.600                    99189452.06945
        19.600    24223074.59845
  24509099.125 6 128796134.367 6        39.500    24509108.039 7 100360714.29747
        25.000    24509107.04747  24509105.090 1  96179020.120 1        29.900
  20423132.320 9 107324318.956 9        54.500    20423139.352 9  83629380.97549
        48.100    20423138.37949  20423135.707 7  80144812.603 7        43.100
  22582336.273 8 118671022.931 8        47.000    22582342.078 8  92470983.55749
        36.200    22582341.94549  22582339.219 5  88618023.686 5        36.900
  23380904.219 7 122867485.809 7        44.000                    95740923.60647
        29.000    23380907.70347
 15  8 24  0  1  0.0000000  0  9G05G07G02G20G28G06G30G09G13
  21173921.992 9 111269709.430 9        50.700    21173926.105 9  86703724.59849
        44.600    21173925.72749
  20700002.258 9 108779282.811 9        50.800    20700006.547 9  84763108.38449
        45.600    20700005.91849
  22736212.078 7 119479617.531 7        43.500                    93101014.23848
        33.600    22736214.51248
  24922676.352 6 130969551.947 6        38.100                   102054207.55345
        19.300    24922680.42245
  24204197.422 6 127193919.922 6        40.600                    99112169.74746
        22.500    24204202.02746
  24529379.453 6 128902706.632 6        40.100    24529387.922 6 100443757.59446
        21.800    24529386.69146  24529384.906 1  96258603.245 1        27.800
  20417340.547 9 107293883.910 9        55.000    20417347.797 9  83605665.37149
        48.200    20417347.11349  20417344.445 7  80122085.153 7        43.400
  22597367.156 8 118750011.305 8        47.300    22597373.262 8  92532532.92349
        35.900    22597373.02049  22597370.527 5  88677008.487 5        36.400
  23364070.219 7 122779023.071 7        43.300                    95671991.60147
        28.600    23364073.91447
 15  8 24  0  1 30.0000000  0  9G05G07G02G20G28G06G30G09G13
  21164259.344 9 111218932.612 9        51.300    21164263.691 9  86664158.25049
        44.300    21164263.44149
  20706836.570 9 108815197.047 9        51.400    20706840.598 9  84791093.50349
        45.300    20706839.98849
  22749299.445 7 119548391.373 7        44.600                    93154604.24048
        33.700    22749301.35548
  24902205.234 5 130861978.079 5        37.700                   101970383.73145
        16.300    24902208.56645
  24185335.742 7 127094799.165 7        41.400                    99034932.88146
        23.600    24185340.28146
  24549662.289 6 129009293.463 6        39.100    24549671.547 6 100526812.24846
        22.800    24549670.49646  24549668.125 1  96338197.319 1        29.600
  20411647.984 9 107263968.504 9        55.500    20411655.234 9  83582354.67949
        48.500    20411654.24649  20411651.691 7  80099745.753 7        42.700
  22612429.797 8 118829166.991 8        47.500    22612436.438 8  92594212.66349
        36.600    22612436.50449  22612433.605 5  88736118.236 5        36.600
  23347258.141 7 122690679.116 7        44.300                    95603152.17447
        28.700    23347262.33647
 15  8 24  0  2  0.0000000  0  9G05G07G02G20G28G06G30G09G13
  21154683.078 9 111168608.941 9        52.000    21154687.348 9  86624945.00049
        44.500    21154686.97749
  20713755.766 9 108851557.000 9        52.500    20713760.129 9  84819425.94549
        45.200    20713759.68049
  22762456.242 8 119617528.704 8        45.500                    93208477.49248
        33.900    22762457.80548
  24881752.844 5 130754501.738 5        37.500                   101886635.97045
        18.300    24881756.79345
  24166484.031 6 126995739.696 6        40.700                    98957743.73646
        21.300    24166488.50846
  24569947.313 6 129115892.296 6        39.000    24569956.344 6 100609876.19246
        21.300    24569955.59446  24569953.520 2  96417800.277 2        31.100
  20406054.320 9 107234573.174 9        55.400    20406061.234 9  83559449.24649
        48.300    20406060.48049  20406057.750 7  80077794.707 7        43.000
  22627524.711 8 118908489.429 8        47.600    22627531.023 8  92656022.33149
        35.800    22627530.56649  22627528.660 5  88795352.496 5        36.800
  23330469.641 7 122602454.761 7        43.900                    95534405.91747
        28.900    23330473.75447
 15  8 24  0  2 30.0000000  0  9G05G07G02G20G28G06G30G09G13
  21145193.313 9 111118739.822 9        51.200    21145197.777 9  86586085.94949
        44.700    21145196.93449
  20720759.063 9 108888361.066 9        51.500    20720763.262 9  84848104.44349
        45.400    20720762.85949
  22775681.023 7 119687026.706 7        44.100                    93262631.78048
        33.500    22775682.60548
  24861320.625 5 130647125.096 5        37.200                   101802965.85445
        18.300    24861322.97745
  24147647.211 7 126896744.231 7        41.800                    98880604.46846
        22.600    24147650.52746
  24590234.641 6 129222499.994 6        40.600    24590243.340 6 100692947.11946
        23.000    24590241.90246  24590240.410 1  96497409.860 1        30.200
  20400559.477 9 107205697.990 9        55.800    20400566.898 9  83536949.11649
        48.400    20400566.14849  20400563.418 7  80056232.091 7        43.200
  22642650.297 8 118987977.777 8        47.500    22642656.582 8  92717961.28949
        35.800    22642656.48049  22642654.164 5  88854710.659 5        36.600
  23313704.664 7 122514350.791 7        44.500                    95465753.49247
        29.100    23313708.78547
 15  8 24  0  3  0.0000000  0  9G05G07G02G20G28G06G30G09G13
  21135790.469 9 111069327.369 9        51.000    21135794.445 9  86547582.74049
        44.700    21135793.90249
  20727847.141 9 108925607.635 9        52.200    20727851.051 9  84877127.74049
        45.400    20727850.66449
  22788974.063 8 119756882.481 8        45.200                    93317064.84548
        33.700    22788975.69948
  24840906.086 5 130539850.479 5        36.700                   101719375.27445
        19.900    24840909.31345
  24128820.789 7 126797815.611 7        42.100                    98803517.27346
        21.800    24128825.44946
  24610521.867 6 129329113.667 6        38.500    24610531.652 7 100776022.71946
        24.300    24610530.12546  24610527.578 1  96577023.961 1        28.500
  20395163.609 9 107177343.163 9        55.200    20395170.828 9  83514854.45649
        48.200    20395169.94149  20395167.211 7  80035058.042 7        42.500
  22657808.141 8 119067631.305 8        47.500    22657814.773 8  92780028.96649
        35.700    22657814.14549  22657812.063 5  88914192.178 5        36.300
  23296961.641 8 122426367.895 8        46.400                    95397195.40047
        29.000    23296965.77747
 15  8 24  0  3 30.0000000  0  9G05G07G02G20G28G06G30G09G13
  21126474.766 9 111020373.641 9        50.400    21126479.336 9  86509436.98349
        44.800    21126478.69949
  20735018.555 9 108963295.076 9        52.100    20735022.914 9  84906494.58749
        45.200    20735022.23849
  22802335.188 8 119827093.576 8        45.000                    93371774.78648
        33.300    22802336.35248
  24820512.969 5 130432679.877 5        35.800                   101635865.74945
        18.300    24820515.50045
  24110009.102 7 126698956.621 7        41.100                    98726484.36746
        24.200    24110013.58246
  24630810.797 7 129435730.534 7        41.200    24630819.547 7 100859100.69247
        25.900    24630818.73847  24630815.781 1  96656640.431 1        29.000
  20389867.063 9 107149509.016 9        55.200    20389874.027 9  83493165.52849
        48.200    20389873.29349  20389870.801 7  80014272.823 7        42.900
  22672996.805 8 119147449.483 8        46.600    22673003.695 8  92842224.92649
        35.600    22673003.35949  22673000.867 5  88973796.638 5        36.900
  23280242.281 8 122338506.783 8        45.800                    95328732.18747
        28.900    23280246.62147
 15  8 24  0  4  0.0000000  0  9G05G07G02G20G28G06G30G09G13
  21117246.727 9 110971880.328 9        51.000    21117251.297 9  86471649.99049
        44.800    21117250.71549
  20742274.242 9 109001421.851 9        51.000    20742278.078 9  84936203.76649
        45.500    20742277.66449
  22815762.664 7 119897657.012 7        44.400                    93426759.27248
        32.700    22815764.66448
  24800138.938 5 130325615.725 5        37.000                   101552439.11945
        17.800    24800142.14845
  24091210.867 7 126600170.096 7        42.600                    98649507.94346
        22.000    24091214.77346
  24651099.945 6 129542347.865 6        40.100    24651108.418 6 100942179.14446
        24.700    24651106.96946  24651105.652 1  96736257.247 1        30.700
  20384669.438 9 107122195.850 9        54.900    20384676.535 9  83471882.55449
        48.400    20384675.59449  20384673.039 7  79993876.643 7        43.100
  22688217.328 8 119227431.714 8        46.700    22688223.590 8  92904548.71649
        34.900    22688223.05949  22688221.152 5  89033523.607 5        36.500
  23263545.781 8 122250768.260 8        45.200                    95260364.52147
        28.900    23263550.46147
 15  8 24  0  4 30.0000000  0  9G05G07G02G20G28G06G30G09G13
  21108106.781 9 110923848.992 9        51.400    21108111.520 9  86434222.98249
        45.000    21108110.80149
  20749612.875 9 109039986.384 9        51.600    20749616.684 9  84966254.05449
        45.200    20749615.78549
  22829256.891 8 119968570.108 8        45.100                    93482016.22148
        32.600    22829258.49648
  24779785.305 5 130218660.30615        36.800                   101469097.25455
        18.600    24779788.96545
  24072425.727 7 126501458.899 7        41.400                    98572590.11846
        22.500    24072430.48446
  24671387.641 6 129648962.657 6        38.700    24671396.586 6 101025255.58746
        23.200    24671395.54746  24671393.820 1  96815872.106 1        30.400
  20379571.023 9 107095403.657 9        54.800    20379577.863 9  83451005.53849
        48.300    20379577.15249  20379574.656 7  79973869.504 7        43.100
  22703468.664 8 119307577.084 8        47.300    22703474.484 8  92966999.63549
        35.000    22703473.96549  22703471.824 5  89093372.401 5        36.400
  23246873.297 7 122163152.666 7        43.500                    95192092.64047
        29.800    23246877.34847
 15  8 24  0  5  0.0000000  0  9G05G07G02G20G28G06G30G09G13
  21099055.211 9 110876282.426 9        51.300    21099059.488 9  86397158.12549
        44.200    21099058.96949
  20757034.102 9 109078987.216 9        50.800    20757038.984 9  84996644.31749
        44.900    20757038.28149
  22842817.086 7 120039830.302 7        43.700                    93537543.62448
        33.200    22842819.06348
  24759453.867 5 130111815.171 5        35.400                   101385841.34745
        17.400    24759457.93045
  24053657.172 7 126402826.267 7        41.400                    98495733.60546
        24.500    24053661.60546
  24691674.633 5 129755572.201 5        37.300    24691683.652 7 101108327.88246
        22.600    24691682.76646  24691679.984 1  96895483.095 1        28.300
  20374572.008 9 107069132.722 9        55.000    20374578.816 9  83430534.69049
        48.800    20374578.25449  20374575.523 7  79954251.616 7        43.000
  22718750.328 8 119387885.113 8        47.200    22718756.574 8  93029577.31249
        34.600    22718756.19149  22718754.051 5  89153342.668 5        36.100
  23230223.953 7 122075661.215 7        44.100                    95123917.48047
        28.900    23230227.60547
 15  8 24  0  5 30.0000000  0  9G05G07G02G20G28G06G30G09G13
  21090092.258 9 110829181.491 9        50.800    21090096.789 9  86360456.09749
        45.000    21090096.00849
  20764538.641 9 109118422.744 9        50.900    20764542.984 9  85027373.29949
        45.000    20764542.28549
  22856443.156 7 120111434.325 7        43.800                    93593338.95448
        33.600    22856445.21948
  24739143.281 5 130005083.244 5        37.500                   101302673.62046
        20.900    24739147.71546
  24034903.156 7 126304274.408 7        42.200                    98418940.04247
        25.300    24034908.63747
  24711960.406 6 129862173.523 6        38.400    24711969.207 6 101191393.85046
        22.200    24711967.66446  24711966.113 1  96975087.988 1        30.000
  20369671.820 9 107043383.074 9        55.000    20369679.066 9  83410470.04049
        48.500    20369678.31349  20369675.586 7  79935022.998 7        43.400
  22734062.922 8 119468355.005 8        46.300    22734069.488 8  93092281.10749
        34.700    22734069.18449  22734067.160 5  89213433.801 5        36.300
  23213599.586 7 121988294.270 7        44.000                    95055839.34047
        29.300    23213602.24647
 15  8 24  0  6  0.0000000  0  9G05G07G02G20G28G06G30G09G13
  21081218.258 9 110782548.449 9        52.000    21081222.617 9  86324118.66849
        44.600    21081222.03949
  20772125.336 9 109158291.200 9        51.500    20772129.703 9  85058439.63249
        45.400    20772129.09049
  22870134.320 7 120183379.665 7        43.600                    93649400.25748
        32.100    22870135.13748
  24718855.172 5 129898466.688 5        37.900                   101219595.78945
        19.900    24718859.08245
  24016165.070 7 126205806.194 7        41.900                    98342211.56246
        22.200    24016168.86346
  24732243.625 5 129968763.875 5        36.500    24732252.613 5 101274451.26746
        20.600    24732251.02746  24732249.535 1  97054684.654 1        29.600
  20364871.219 9 107018154.964 9        54.700    20364878.223 9  83390811.78849
        48.700    20364877.35249  20364874.625 7  79916183.838 7        43.400
  22749406.773 8 119548986.174 8        45.900    22749413.461 8  93155110.57549
        34.200    22749412.68049  22749410.949 5  89273645.366 5        35.200
  23196997.898 7 121901052.716 7        44.000                    94987858.90347
        29.800    23197001.47747
 15  8 24  0  6 30.0000000  0  9G05G07G02G20G28G06G30G09G13
  21072433.711 9 110736385.296 9        51.900    21072438.453 9  86288147.37849
        44.800    21072437.64149
  20779794.203 9 109198591.112 9        51.500    20779798.441 9  85089842.16649
        44.800    20779797.80549
  22883888.922 7 120255663.614 7        43.900                    93705725.39348
        33.600    22883890.86748
  24698589.289 5 129791967.303 5        36.700                   101136609.26045
        19.300    24698592.65645
  23997443.992 7 126107424.758 7        41.800                    98265550.75946
        22.500    23997448.24246
  24752525.211 6 130075340.416 6        39.200    24752533.215 6 101357497.85346
        20.900    24752532.85946  24752530.605 1  97134270.953 1        29.000
  20360169.641 9 106993448.420 9        55.200    20360176.617 9  83371559.94349
        48.500    20360175.87549  20360173.145 7  79897734.159 7        42.900
  22764780.977 8 119629777.933 8        46.400    22764787.090 8  93218065.18249
        34.400    22764786.65649  22764784.398 5  89333976.866 5        35.900
  23180420.500 7 121813937.359 7        44.200                    94919976.83748
        30.800    23180424.72748
 15  8 24  0  7  0.0000000  0  9G05G07G02G20G28G06G30G09G13
  21063738.992 9 110690693.811 9        52.400    21063743.449 9  86252543.63049
        44.700    21063742.85949
  20787544.719 9 109239320.908 9        51.500    20787548.762 9  85121579.67749
        45.500    20787548.16449
  22897708.016 7 120328283.549 7        43.000                    93762312.35748
        33.100    22897709.62548
  24678345.477 6 129685587.568 6        38.200                   101053715.91645
        19.000    24678349.57045
  23978739.883 7 126009133.068 7        42.100                    98188959.89147
        25.700    23978744.84047
  24772803.047 5 130181900.392 5        37.200    24772811.320 6 101440531.64446
        22.000    24772810.75846  24772808.621 1  97213844.967 1        28.000
  20355567.430 9 106969263.625 9        55.000    20355574.316 9  83352714.66149
        48.500    20355573.50849  20355571.012 7  79879674.098 7        42.800
  22780185.445 8 119710729.596 8        46.100    22780192.027 8  93281144.39149
        34.700    22780192.06349  22780189.512 5  89394427.775 5        35.700
  23163866.664 7 121726948.810 7        44.000                    94852193.57347
        29.500    23163870.56647
 15  8 24  0  7 30.0000000  0  9G05G07G02G20G28G06G30G09G13
  21055134.070 9 110645475.376 9        50.900    21055138.723 9  86217308.48349
        44.800    21055138.01249
  20795376.555 9 109280478.299 9        50.200    20795380.777 9  85153650.37549
        44.900    20795380.05149
  22911590.305 7 120401235.992 7        43.400                    93819158.38948
        33.000    22911592.39848
  24658125.773 5 129579329.953 5        37.400                   100970917.74145
        19.000    24658129.03545
  23960052.055 7 125910933.879 7        42.100                    98112441.05746
        24.100    23960056.55146
  24793076.539 5 130288440.706 5        36.000    24793085.648 6 101523550.00546
        21.800    24793084.56346  24793082.660 1  97293404.279 1        30.500
  20351064.461 9 106945600.356 9        55.000    20351071.484 9  83334275.76749
        48.500    20351070.58249  20351067.969 7  79862003.492 7        42.900
  22795620.961 8 119791840.325 8        46.800    22795627.316 8  93344347.54149
        34.600    22795627.27049  22795625.191 5  89454997.456 5        36.600
  23147338.195 8 121640087.581 8        45.200                    94784509.50247
        29.800    23147341.32847
 15  8 24  0  8  0.0000000  0  9G05G07G02G20G28G06G30G09G13
  21046619.742 9 110600732.206 9        51.500    21046624.219 9  86182443.67349
        44.800    21046623.71949
  20803290.070 9 109322062.437 9        50.300    20803293.988 9  85186053.59749
        44.600    20803293.46949
  22925535.703 7 120474518.701 7        43.200                    93876261.79648
        32.300    22925537.59848
  24637928.297 4 129473196.627 4        34.700                   100888216.47845
        18.300    24637932.78945
  23941384.141 6 125812829.921 6        40.800                    98035996.44346
        20.900    23941387.78946
  24813346.156 5 130394958.905 5        37.900    24813354.461 6 101606551.18646
        21.700    24813354.23446  24813352.391 1  97372947.034 1        30.700
  20346660.695 9 106922459.022 9        54.500    20346667.938 9  83316243.56449
        48.700    20346667.19149  20346664.578 7  79844722.635 7        42.800
  22811085.250 8 119873109.736 8        46.400    22811091.828 8  93407674.33649
        34.500    22811091.69149  22811090.254 5  89515685.626 5        36.500
  23130833.141 8 121553354.701 8        45.500                    94716925.43648
        30.600    23130836.68048
 15  8 24  0  8 30.0000000  0  9G05G07G02G20G28G06G30G09G13
  21038196.141 9 110556465.703 9        51.900    21038200.539 9  86147950.29949
        45.000    21038200.16049
  20811283.914 9 109364071.367 9        51.500    20811288.391 9  85218787.83649
        45.300    20811287.70749
  22939543.266 7 120548128.246 7        42.600                    93933619.86748
        32.600    22939545.11348
  24617755.758 4 129367189.729 4        34.100                   100805613.74145
        19.300    24617760.76645
  23922734.133 7 125714824.148 7        42.000                    97959628.36747
        25.500    23922738.87147
  24833611.102 6 130501451.791 6        38.000    24833620.152 6 101689532.64846
        22.800    24833619.30146  24833617.813 1  97452470.891 1        29.200
  20342356.477 9 106899839.466 9        54.800    20342363.301 9  83298617.94749
        48.600    20342362.37949  20342359.766 7  79827831.423 7        43.400
  22826580.719 8 119954536.990 8        46.100    22826587.160 8  93471124.12049
        34.700    22826586.90249  22826584.707 5  89576491.662 5        36.100
  23114352.758 8 121466750.818 8        45.500                    94649441.91148
        30.000    23114356.54348
 15  8 24  0  9  0.0000000  0  9G05G07G02G20G28G06G30G09G13
  21029863.719 9 110512678.044 9        52.100    21029868.000 9  86113830.04849
        44.900    21029867.43049
  20819358.484 9 109406503.412 9        50.300    20819362.496 9  85251851.76849
        45.300    20819361.81649
  22953612.156 7 120622062.209 7        43.000                    93991230.74248
        31.300    22953614.86748
  24597608.883 5 129261311.672 5        35.700                   100723111.43245
        18.600    24597612.07045
  23904103.789 7 125616919.560 7        41.700                    97883339.12446
        24.700    23904108.75046
  24853870.898 5 130607916.931 5        36.900    24853879.996 7 101772492.45646
        22.500    24853879.06646  24853876.348 1  97531974.097 1        29.200
  20338151.273 9 106877741.754 9        55.500    20338158.207 9  83281398.96649
        48.700    20338157.24249  20338154.570 7  79811329.899 7        43.400
  22842105.375 8 120036121.433 8        46.100    22842111.953 8  93534696.39349
        34.700    22842111.94149  22842109.449 5  89637415.089 5        35.200
  23097897.148 8 121380276.414 8        46.900                    94582059.27648
        30.400    23097901.16448
 15  8 24  0  9 30.0000000  0  9G05G07G02G20G28G06G30G09G13
  21021622.625 9 110469371.177 9        51.900    21021626.879 9  86080084.43149
        45.200    21021626.39149
  20827513.273 9 109449356.949 9        50.800    20827517.176 9  85285244.14049
        44.900    20827516.66849
  22967743.086 7 120696317.804 7        43.400                    94049092.23248
        33.200    22967745.44548
  24577486.047 5 129155564.702 5        36.800                   100640711.08945
        17.800    24577488.31345
  23885492.375 7 125519118.472 7        42.000                    97807130.55546
        22.800    23885497.22346
  24874125.016 5 130714351.544 5        37.200    24874133.121 6 101855428.45146
        22.200    24874132.44546  24874130.484 1  97611454.433 1        29.600
  20334045.539 9 106856165.944 9        55.200    20334052.535 9  83264586.66449
        48.500    20334051.92249  20334049.074 7  79795218.110 7        43.000
  22857660.727 8 120117862.507 8        46.400    22857667.008 8  93598390.71149
        34.200    22857666.74649  22857664.254 5  89698455.479 5        35.800
  23081466.148 8 121293932.736 8        47.000                    94514778.50548
        30.200    23081470.19948
 15  8 24  0 10  0.0000000  0  9G05G07G02G20G28G06G30G09G13
  21013473.094 9 110426546.419 9        52.200    21013477.859 9  86046714.48849
        45.200    21013477.19549
  20835747.914 9 109492630.128 9        51.900    20835751.879 9  85318963.50249
        44.500    20835751.32449
  22981933.961 7 120770891.995 7        43.100                    94107201.97748
        32.200    22981936.13348
  24557388.328 5 129049950.984 5        36.900                   100558414.70945
        19.900    24557391.46945
  23866901.789 7 125421424.234 7        42.800                    97731005.17646
        22.200    23866905.04746
  24894372.656 6 130820752.624 6        38.500    24894380.637 6 101938338.42346
        21.700    24894380.02346  24894377.887 2  97690909.792 2        31.500
  20330039.172 9 106835111.939 9        55.000    20330046.020 9  83248180.96249
        48.800    20330045.36349  20330042.691 7  79779495.974 7        43.400
  22873244.719 8 120199759.438 8        45.900    22873251.117 8  93662206.47749
        34.000    22873250.73849  22873248.598 5  89759612.254 5        36.200
  23065060.820 8 121207720.233 8        47.000                    94447599.94448
        30.200    23065064.34448
 15  8 24  0 10 30.0000000  0  9G05G07G02G20G28G06G30G09G13
  21005416.211 9 110384205.463 9        51.900    21005420.695 9  86013721.54249
        44.600    21005420.15649
  20844061.875 9 109536321.566 9        51.000    20844066.363 9  85353008.77949
        44.600    20844065.91049
  22996185.344 7 120845781.744 7        43.200                    94165557.62648
        31.200    22996186.36748
  24537315.125 3 128944473.007 3        33.800                   100476224.11745
        19.900    24537320.17245
  23848331.945 7 125323839.641 7        41.800                    97654965.26846
        22.800    23848336.43446
  24914612.859 4 130927117.470 4        34.600    24914621.520 7 102021220.14146
        21.700    24914620.44946  24914618.371 1  97770338.051 1        29.500
  20326132.039 9 106814579.684 9        54.900    20326138.945 9  83232181.80749
        48.600    20326138.03149  20326135.418 7  79764163.459 7        43.000
  22888859.086 8 120281811.556 8        46.400    22888865.391 8  93726143.19648
        33.600    22888864.81348  22888862.789 5  89820884.919 5        35.000
  23048679.977 8 121121639.573 8        47.700                    94380524.12948
        30.900    23048684.25048
 15  8 24  0 11  0.0000000  0  9G05G07G02G20G28G06G30G09G13
  20997451.383 9 110342350.558 9        52.000    20997456.082 9  85981107.32649
        44.600    20997455.35949
  20852455.391 9 109580429.548 9        50.100    20852459.750 9  85387378.63849
        43.900    20852459.00049
  23010495.227 7 120920984.583 7        43.500                    94224157.22848
        31.800    23010497.79348
  24517270.992 6 128839132.78116        38.100                   100394140.90656
        22.000    24517274.57446
  23829784.367 7 125226367.526 7        42.300                    97579013.04547
        26.300    23829788.83247
  24934845.797 5 131033443.461 5        36.700    24934854.406 6 102104071.47846
        22.900    24934853.79746  24934851.426 1  97849737.300 1        28.900
  20322324.148 9 106794569.322 9        54.600    20322331.395 9  83216589.33049
        48.900    20322330.75449  20322327.965 7  79749220.672 7        43.300
  22904502.570 7 120364018.391 7        44.700    22904509.086 8  93790200.44548
        33.000    22904508.43048  22904505.645 5  89882273.129 5        35.100
  23032324.945 8 121035691.797 8        47.300                    94313551.84648
        30.400    23032328.08248
 15  8 24  0 11 30.0000000  0  9G05G07G02G20G28G06G30G09G13
  20989579.477 9 110300982.673 9        52.500    20989583.621 9  85948872.60949
        44.900    20989583.17649
  20860927.820 9 109624951.823 9        50.600    20860932.105 9  85422071.32349
        44.900    20860931.62149
  23024865.164 7 120996497.166 7        42.900                    94282998.19448
        30.700    23024867.11748
  24497252.508 6 128733932.727 6        40.000                   100312166.80846
        20.600    24497254.17246
  23811258.430 7 125129010.930 7        42.300                    97503150.80846
        24.000    23811261.94146
  24955071.648 5 131139727.513 5        37.900    24955080.316 7 102186890.22446
        23.800    24955079.10246  24955077.258 1  97929105.309 1        29.000
  20318615.281 9 106775080.439 9        54.700    20318622.227 9  83201403.20149
        48.600    20318621.37949  20318618.824 7  79734667.298 7        43.600
  22920175.047 7 120446378.906 7        44.600    22920181.887 8  93854377.45149
        34.300    22920181.55549  22920178.535 4  89943776.092 4        34.700
  23015994.242 8 120949877.163 8        47.000                    94246683.29248
        30.000    23015998.23848
 15  8 24  0 12  0.0000000  0  9G05G07G02G20G28G06G30G09G13
  20981800.219 9 110260104.062 9        52.700    20981804.645 9  85917019.14649
        45.300    20981804.02349
  20869478.656 9 109669887.445 9        51.300    20869482.875 9  85457086.09749
        44.300    20869482.56349
  23039293.133 7 121072317.056 7        43.100                    94342078.61048
        31.200    23039294.55948
  24477259.227 5 128628875.552 5        36.400                   100230303.99645
        17.400    24477261.65645
  23792753.938 7 125031772.325 7        41.600                    97427380.47546
        22.200    23792757.28946
  24975287.023 4 131245967.227 4        34.200    24975296.266 6 102269674.40845
        19.000    24975295.50845  24975294.719 3  98008440.119 3        32.000
  20315006.117 9 106756113.304 9        54.900    20315013.180 9  83186623.62349
        48.700    20315012.40249  20315009.789 7  79720503.545 7        43.700
  22935876.469 8 120528892.860 8        45.000    22935883.746 8  93918674.01848
        33.600    22935883.27748  22935881.313 5  90005393.631 5        36.200
  22999690.633 8 120864197.014 8        47.500                    94179919.56648
        31.100    22999695.07848
 15  8 24  0 12 30.0000000  0  9G05G07G02G20G28G06G30G09G13
  20974114.766 9 110219716.409 9        52.300    20974119.176 9  85885548.24549
        45.200    20974118.82449
  20878107.875 9 109715234.293 9        49.700    20878112.145 9  85492421.30449
        44.500    20878111.74649
  23053779.063 7 121148441.340 7        43.200                    94401396.26048
        31.900    23053781.12548
  24457295.367 5 128523963.189 5        36.000                   100148554.19246
        20.600    24457299.50446
  23774272.078 6 124934654.732 6        40.400                    97351704.45747
        25.600    23774276.93447
  24995496.945 6 131352159.766 6        38.400    24995504.594 6 102352421.75846
        24.500    24995503.34046  24995501.555 3  98087739.616 3        32.100
  20311496.086 9 106737667.769 9        54.000    20311503.188 9  83172250.48849
        48.800    20311502.32449  20311499.598 7  79706729.294 7        43.300
  22951608.141 7 120611559.521 7        43.300    22951614.301 7  93983089.57349
        34.000    22951614.21149  22951612.484 5  90067125.189 5        35.700
  22983411.578 8 120778652.038 8        47.600                    94113261.14948
        31.700    22983415.99248
 15  8 24  0 13  0.0000000  0  9G05G07G02G20G28G06G30G09G13
  20966522.914 9 110179821.193 9        51.800    20966527.516 9  85854461.06349
        45.100    20966526.86749
  20886814.992 9 109760990.445 9        50.700    20886819.246 9  85528075.45149
        44.500    20886818.55549
  23068322.273 7 121224866.620 7        42.300                    94460948.41048
        31.000    23068324.42248
  24437360.070 6 128419197.920 6        38.800                   100066918.99546
        22.500    24437363.47746
  23755814.992 6 124837660.854 6        40.100                    97276124.88547
        25.200    23755819.99247
  25015694.102 6 131458302.100 6        39.300    25015703.250 7 102435130.08847
        25.600    25015701.89847  25015698.828 1  98167001.733 1        26.800
  20308085.063 9 106719743.473 9        54.800    20308092.746 9  83158283.51749
        48.700    20308091.74649  20308089.250 7  79693344.282 7        43.300
  22967367.969 7 120694377.978 7        44.000    22967374.297 8  94047623.42648
        33.500    22967374.00448  22967371.574 5  90128970.110 5        35.000
  22967158.656 8 120693242.599 8        47.000                    94046708.36848
        30.400    22967162.84448
 15  8 24  0 13 30.0000000  0  9G05G07G02G20G28G06G30G09G13
  20959025.141 9 110140420.296 9        52.000    20959029.645 9  85823759.06749
        44.900    20959029.19949
  20895599.820 9 109807154.786 9        49.900    20895604.066 9  85564047.67149
        44.100    20895603.49649
  23082922.703 7 121301590.298 7        42.600                    94520733.08348
        30.300    23082924.53148
  24417452.633 5 128314582.192 5        37.500                    99985400.23745
        19.600    24417454.62145
  23737382.125 6 124740793.569 6        39.900                    97200643.91546
        23.200    23737386.27746
  25035881.031 4 131564391.797 4        34.200    25035890.438 6 102517797.33346
        20.600    25035890.18446  25035886.816 1  98246224.647 1        26.400
  20304773.578 9 106702340.459 9        54.400    20304780.383 9  83144722.74349
        48.900    20304779.57449  20304777.020 7  79680348.535 7        43.000
  22983157.047 7 120777347.791 7        43.900    22983162.934 8  94112275.20649
        34.000    22983162.71149  22983160.105 5  90190928.071 5        35.000
  22950931.984 8 120607969.651 8        47.300                    93980261.91448
        31.100    22950935.56348
 15  8 24  0 14  0.0000000  0  9G05G07G02G20G28G06G30G09G13
  20951622.234 9 110101515.163 9        52.700    20951626.535 9  85793443.38949
        45.400    20951626.02349
  20904462.031 9 109853725.306 9        50.500    20904466.262 9  85600336.38249
        44.500    20904465.44149
  23097578.758 7 121378609.650 7        42.500                    94580748.14848
        30.500    23097580.50448
  24397571.820 4                        34.300

  23718972.492 6 124644056.184 6        39.200                    97125264.17946
        22.900    23718977.17646
  25056059.969 5 131670426.27815        36.100    25056067.691 4 102600421.51455
        17.400    25056066.59045  25056066.035 1  98325406.13211        30.700
  20301560.969 9 106685458.603 9        54.700    20301567.895 9  83131568.05349
        48.700    20301567.02049  20301564.289 7  79667741.962 7        42.900
  22998973.852 7 120860468.306 7        44.100    22998980.352 8  94177044.40049
        34.000    22998980.24249  22998978.219 4  90252998.547 4        34.900
  22934730.945 8 120522834.064 8        47.500                    93913922.50648
        31.500    22934734.98048
 15  8 24  0 14 30.0000000  0  9G05G07G02G20G28G06G30G09G13
  20944313.461 9 110063107.883 9        53.200    20944318.199 9  85763515.63749
        45.300    20944317.42649
  20913400.961 9 109900700.269 9        49.600    20913405.492 9  85636940.26249
        43.800    20913404.57049
  23112290.930 7 121455921.521 7        42.000                    94640991.16847
        29.900    23112292.21947
  24377723.555 5 128105808.562 5        37.300                    99822719.44556
        21.100    24377726.53146
  23700590.570 7 124547451.284 7        41.300                    97049987.68647
        25.000    23700594.14847
  25076227.547 6 131776402.597 6        38.700    25076235.531 6 102683000.54446
        22.000    25076233.77046  25076232.926 2  98404544.194 2        31.600
  20298447.477 9 106669097.747 9        53.600    20298454.434 9  83118819.35049
        48.700    20298453.66449  20298450.934 7  79655524.453 7        42.700
  23014819.914 7 120943738.864 7        44.700    23014826.113 8  94241930.52948
        33.600    23014825.93048  23014824.141 5  90315181.094 5        35.900
  22918556.633 8 120437836.365 8        47.500                    93847690.54448
        31.500    22918560.87148
 15  8 24  0 15  0.0000000  0  9G05G07G02G20G28G06G30G09G13
  20937099.438 9 110025199.391 9        53.000    20937104.180 9  85733976.54049
        45.300    20937103.43449
  20922416.570 9 109948077.661 9        50.800    20922420.867 9  85673857.70849
        44.100    20922420.23449
  23127057.039 7 121533522.753 7        41.400                    94701459.64347
        29.700    23127059.21947
  24357903.227 6 128001655.420 6        39.200                    99741561.20046
        22.300    24357907.30946
  23682231.805 7 124450981.566 7        41.000                    96974816.50546
        24.600    23682237.32046
  25096381.242 4 131882317.75514        34.300    25096390.594 7 102765531.75856
        22.500    25096389.49246  25096387.535 1  98483636.61111        27.400
  20295433.258 9 106653257.322 9        54.200    20295440.141 9  83106476.16949
        48.700    20295439.35249  20295436.742 7  79643695.576 7        43.700
  23030693.945 7 121027158.531 7        44.000    23030700.105 7  94306932.85548
        32.600    23030699.59448  23030698.273 5  90377474.981 5        35.100
  22902408.633 8 120352977.237 8        47.100                    93781566.55748
        30.500    22902412.22748
 15  8 24  0 15 30.0000000  0  9G05G07G02G20G28G06G30G09G13
  20929980.813 9 109987791.836 9        53.000    20929985.621 9  85704827.80249
        45.300    20929984.85949
  20931508.336 9 109995856.098 9        50.300    20931512.699 9  85711087.66549
        44.100    20931512.26249
  23141878.992 7 121611410.551 7        41.700                    94762151.43948
        30.200    23141880.60948
  24338114.313 5 127897661.282 5        36.300                    99660526.78145
        19.900    24338118.01245
  23663901.422 7 124354650.140 7        41.200                    96899753.11746
        24.600    23663905.32846
  25116524.867 5 131988169.52615        35.500    25116533.559 6 102848013.40855
        19.600    25116532.82045  25116528.223 1  98562681.81011        24.700
  20292518.102 9 106637937.504 9        54.600    20292524.977 9  83094538.65949
        48.900    20292524.29749  20292521.449 7  79632255.465 7        43.700
  23046596.172 7 121110726.950 7        44.300    23046602.809 8  94372051.07848
        32.700    23046602.19548  23046600.465 5  90439879.933 5        35.300
  22886286.625 8 120268257.691 8        47.600                    93715551.32348
        31.400    22886290.87948
 15  8 24  0 16  0.0000000  0  9G05G07G02G20G28G06G30G09G13
  20922958.328 9 109950886.964 9        52.400    20922962.918 9  85676070.76049
        45.100    20922962.28949
  20940676.414 9 110044034.021 9        50.100    20940680.641 9  85748628.90249
        43.800    20940680.37949
  23156754.492 7 121689582.691 7        42.800                    94823064.80048
        30.500    23156755.94548
  24318355.883 5 127793828.62815        37.400                    99579618.24555
        17.800    24318358.04745
  23645597.047 7 124258460.210 7        43.400                    96824799.94147
        25.100    23645601.07047
  25136655.016 6 132093955.179 6        39.200    25136661.410 3 102930443.89245
        16.300    25136661.21545  25136661.012 2  98641677.466 2        31.300
  20289701.836 9 106623138.489 9        53.900    20289708.656 9  83083006.97049
        48.700    20289707.78949  20289705.176 7  79621204.260 7        42.900
  23062527.633 8 121194443.881 8        45.400    23062534.230 8  94437285.01848
        33.100    23062533.87148  23062531.383 4  90502395.789 4        34.600
  22870191.867 9 120183678.940 9        48.000                    93649645.82148
        32.300    22870195.75848
 15  8 24  0 16 30.0000000  0  9G05G07G02G20G28G06G30G09G13
  20916031.125 9 109914485.385 9        52.700    20916035.785 9  85647705.89149
        45.300    20916035.16449
  20949919.844 9 110092608.723 9        49.300    20949924.148 9  85786479.31849
        44.100    20949923.72749
  23171684.516 7 121768034.908 7        42.400                    94884196.38848
        30.400    23171685.79748
  24298628.813 6 127690159.404 6        40.000                    99498836.99546
        22.300    24298631.39846
  23627318.953 7 124162413.539 7        41.500                    96749958.43647
        25.300    23627324.06647
  25156772.336 3 132199671.393 3        33.500    25156781.391 6 103012820.20246
        20.400    25156780.17646  25156777.980 1  98720621.299 1        30.200
  20286984.539 9 106608858.934 9        53.500    20286991.441 9  83071880.05449
        48.800    20286990.51249  20286987.840 7  79610540.974 7        43.100
  23078486.273 8 121278307.638 8        45.200    23078492.566 7  94502633.36948
        33.100    23078492.17248  23078490.031 4  90565021.294 4        34.700
  22854124.453 8 120099240.831 8        47.700                    93583849.90148
        32.000    22854127.84848
 15  8 24  0 17  0.0000000  0  9G05G07G02G20G28G06G30G09G13
  20909200.484 9 109878589.548 9        53.400    20909205.066 9  85619735.10549
        45.700    20909204.42249
  20959238.648 9 110141579.202 9        50.000    20959243.027 9  85824638.13649
        44.100    20959242.57049
  23186665.695 6 121846765.183 6        40.900                    94945544.64147
        29.800    23186667.28947
  24278932.734 6 127586656.193 6        38.100                    99418185.15146
        22.600    24278935.48046
  23609070.406 7 124066513.857 7        42.600                    96675231.46347
        26.000    23609075.11747
  25176877.039 5 132305320.32215        35.900    25176884.070 7 103095151.72517
        41.400                    25176882.391 1  98799513.69211        27.400
  20284365.852 9 106595099.210 9        53.700    20284373.105 9  83061158.20149
        48.700    20284372.30949  20284369.582 7  79600265.869 7        43.200
  23094473.148 8 121362318.197 8        45.200    23094479.504 7  94568096.11248
        32.100    23094478.98048  23094476.898 5  90627756.423 5        35.200
  22838083.109 9 120014944.669 9        48.800                    93518164.58648
        32.800    22838086.74648
 15  8 24  0 17 30.0000000  0  9G05G07G02G20G28G06G30G09G13
  20902466.461 9 109843200.725 9        53.000    20902470.867 9  85592159.39749
        45.600    20902470.37949
  20968632.438 9 110190943.424 9        49.500    20968636.563 9  85863103.76449
        43.900    20968636.09049
  23201700.031 7 121925770.270 7        41.400                    95007107.02348
        30.500    23201701.88348
  24259267.242 5 127483321.329 5        37.300                    99337664.54946
        20.400    24259271.27746
  23590849.711 7 123970763.357 7        42.900                    96600620.70546
        21.700    23590852.97346
  25196966.289 6 132410890.733 6        40.800    25196974.504 6 103177391.25056
        23.800    25196973.52746
  20281846.484 9 106581859.017 9        52.500    20281853.547 9  83050841.18149
        48.700    20281852.70749  20281850.035 7  79590378.725 7        43.400
  23110487.641 8 121446474.864 8        45.400    23110493.996 7  94633672.71748
        32.300    23110492.71148  23110491.273 5  90690600.650 5        35.000
  22822069.227 9 119930790.960 9        48.900                    93452590.28448
        31.600    22822073.02348
 15  8 24  0 18  0.0000000  0  9G05G07G02G20G28G06G30G09G13
  20895828.828 9 109808320.759 9        53.500    20895833.414 9  85564980.20149
        46.300    20895832.85249
  20978100.813 9 110240699.819 9        49.500    20978105.004 9  85901874.98449
        44.500    20978104.35949
  23216786.305 6 122005047.420 6        40.300                    95068881.41947
        28.600    23216787.00447
  24239636.883 6 127380157.428 6        40.200                    99257277.08546
        22.200    24239639.72346
  23572657.789 7 123875165.518 7        41.100                    96526128.89047
        26.000    23572661.83647
  25217039.773 3 132516384.222 3        33.200    25217047.316 3 103259594.17344
        14.800    25217046.66444  25217046.168 1  98957100.61611        30.900
  20279425.820 9 106569138.179 9        52.900    20279432.953 9  83040928.85249
        48.700    20279432.05549  20279429.328 7  79580879.409 7        43.400
  23126529.352 7 121530777.068 7        44.400    23126535.914 7  94699362.72848
        32.500    23126535.14548  23126533.301 5  90753553.559 5        35.000
  22806082.727 9 119846781.059 9        48.100                    93387128.04148
        33.100    22806087.09048
 15  8 24  0 18 30.0000000  0  8G05G07G02G20G28G30G09G13
  20889288.406 9 109773951.017 9        53.000    20889292.879 9  85538198.58149
        45.600    20889292.53549
  20987643.414 9 110290846.631 9        49.800    20987647.816 9  85940950.42449
        43.700    20987646.88349
  23231922.984 7 122084593.472 7        41.300                    95130865.34347
        29.200    23231925.15247
  24220037.844 6 127277166.592 6        38.600                    99177024.48346
        21.500    24220040.71146
  23554496.258 7 123779723.044 7        41.400                    96451758.21447
        25.000    23554500.69947
  20277103.781 9 106556936.379 9        53.300    20277110.867 9  83031420.96149
        48.800    20277110.07049  20277107.281 7  79571767.682 7        43.400
  23142599.242 7 121615224.192 7        43.800    23142606.074 7  94765165.64448
        33.000    23142605.84848  23142603.242 4  90816614.693 4        34.400
  22790123.180 8 119762915.351 8        47.500                    93321778.15048
        32.000    22790126.65248
 15  8 24  0 19  0.0000000  0  8G05G07G02G20G28G30G09G13
  20882845.602 9 109740093.769 9        52.000    20882850.195 9  85511816.30449
        45.300    20882849.62149
  20997260.117 9 110341382.228 9        49.600    20997264.145 9  85980328.81749
        43.800    20997263.57449
  23247111.297 7 122164405.767 7        42.100                    95193056.73047
        29.300    23247112.07447
  24200473.242 6 127174351.518 6        39.400                    99096908.84446
        22.500    24200476.68046
  23536363.664 7 123684438.819 7        41.100                    96377510.78347
        25.300    23536367.50447
  20274880.648 9 106545253.271 9        52.200    20274887.746 9  83022317.25549
        48.800    20274887.09449  20274884.484 7  79563043.300 7        43.200
  23158696.688 7 121699815.595 7        42.400    23158703.199 7  94831080.98648
        32.000    23158703.04748  23158700.320 4  90879783.573 4        34.100
  22774192.063 9 119679194.842 9        48.500                    93256541.40148
        31.700    22774194.96148
 15  8 24  0 19 30.0000000  0  8G05G07G02G20G28G30G09G13
  20876499.984 9 109706749.488 9        51.900    20876505.012 9  85485833.75249
        45.800    20876504.41449
  21006950.055 9 110392304.460 9        50.000    21006954.223 9  86020008.47649
        44.000    21006953.94949
  23262348.766 7 122244480.791 7        41.800                    95255452.85747
        28.000    23262349.58247
  24180941.938 5 127071714.559 5        37.000                    99016932.06246
        22.200    24180946.34446
  23518262.852 6 123589315.563 6        40.200                    96303388.81947
        25.300    23518266.78547
  20272755.953 9 106534088.338 9        53.900    20272763.504 9  83013617.32049
        49.000    20272762.19149  20272759.871 7  79554705.860 7        43.300
  23174821.047 7 121784550.418 7        43.300    23174827.797 7  94897108.09848
        31.800    23174826.87548  23174825.379 4  90943059.544 4        34.400
  22758287.945 9 119595619.757 9        48.000                    93191417.97848
        33.400    22758292.19948
 15  8 24  0 20  0.0000000  0  8G05G07G02G20G28G30G09G13
  20870253.070 9 109673919.375 9        52.100    20870257.453 9  85460251.84549
        45.800    20870256.88349
  21016713.648 9 110443611.366 9        50.400    21016717.742 9  86059987.88449
        43.100    21016717.14149
  23277635.547 7 122324815.686 7        41.100                    95318051.45547
        28.700    23277638.07447
  24161445.047 6 126969257.660 6        39.100                    98937095.56046
        23.000    24161449.14146
  23500192.414 6 123494356.208 6        39.900                    96229394.53547
        25.400    23500197.55547
  20270729.859 9 106523441.051 9        54.500    20270737.160 9  83005320.73749
        48.700    20270736.44949  20270733.602 7  79546754.974 7        43.000
  23190973.172 7 121869427.873 7        43.100    23190978.852 7  94963246.35448
        32.100    23190978.33648  23190977.074 5  91006442.014 5        35.500
  22742412.125 9 119512191.473 9        48.500                    93126408.93548
        32.300    22742416.05948
 15  8 24  0 20 30.0000000  0  8G05G07G02G20G28G30G09G13
  20864104.086 9 109641605.508 9        52.700    20864108.406 9  85435072.20749
        45.700    20864107.70349
  21026549.891 9 110495301.614 9        50.800    21026553.898 9  86100265.99849
        44.100    21026553.46949
  23292971.664 7 122405407.840 7        42.000                    95380850.53747
        28.300    23292973.34847
  24141981.828 5 126866983.493 5        37.000                    98857401.34446
        20.600    24141985.53146
  23482154.344 6 123399563.473 6        40.600                    96155530.11047
        25.300    23482157.82447
  20268802.320 9 106513311.382 9        54.900    20268809.684 9  82997427.50049
        48.800    20268808.87949  20268806.148 7  79539190.618 7        43.200
  23207151.133 7 121954447.640 7        42.100    23207157.902 7  95029495.50348
        31.600    23207157.27048  23207155.773 5  91069930.769 5        35.100
  22726564.227 9 119428910.582 9        48.400                    93061514.74948
        32.400    22726568.31648
 15  8 24  0 21  0.0000000  0  8G05G07G02G20G28G30G09G13
  20858053.430 9 109609809.563 9        53.100    20858057.742 9  85410296.14449
        45.900    20858056.87549
  21036458.617 9 110547373.043 9        51.200    21036462.805 9  86140841.14249
        44.100    21036462.27749
  23308356.180 7 122486253.839 7        41.500                    95443847.39547
        29.100    23308357.95747
  24122556.125 6 126764894.471 6        38.000                    98777851.48946
        21.800    24122558.93846
  23464147.906 7 123304940.596 7        41.500                    96081798.04747
        25.200    23464151.48047
  20266973.258 9 106503698.890 9        54.700    20266980.188 9  82989937.24949
        48.800    20266979.53149  20266976.742 7  79532012.468 7        43.900
  23223356.688 7 122039609.057 7        42.900    23223364.039 8  95095855.02648
        32.100    23223363.68848  23223360.613 3  91133525.317 3        33.200
  22710744.555 9 119345778.012 9        48.100                    92996736.14148
        32.300    22710747.83648
 15  8 24  0 21 30.0000000  0  8G05G07G02G20G28G30G09G13
  20852101.516 9 109578532.654 9        52.500    20852106.129 9  85385924.51549
        46.000    20852105.60249
  21046439.766 9 110599824.063 9        50.700    21046444.105 9  86181712.07549
        43.800    21046443.47349
  23323788.414 7 122567350.784 7        43.500                    95507039.81947
        29.400    23323791.02747
  24103165.125 6 126662993.156 6        39.600                    98698447.92246
        23.000    24103169.02746
  23446174.320 6 123210490.007 6        39.900                    96008200.19446
        24.800    23446178.14546
  20265242.195 9 106494603.167 9        54.800    20265249.105 9  82982849.68349
        48.900    20265248.41449  20265245.684 7  79525220.214 7        43.200
  23239589.898 7 122124911.475 7        42.200    23239596.508 7  95162324.42148
        32.000    23239596.05548  23239593.914 4  91197225.151 4        34.500
  22694952.852 9 119262794.436 9        48.800                    92932073.62548
        33.100    22694957.21948
 15  8 24  0 22  0.0000000  0  8G05G07G02G20G28G30G09G13
  20846248.703 9 109547776.304 9        51.600    20846253.504 9  85361958.52949
        46.000    20846253.00849
  21056492.805 9 110652652.829 9        49.500    21056497.047 9  86222877.34049
        43.900    21056496.48049
  23339268.016 7 122648695.747 7        42.700                    95570425.49547
        28.300    23339270.12947
  24083810.336 6 126561281.859 6        39.400                    98619192.38146
        22.000    24083813.42246
  23428234.883 6 123116214.726 6        40.900                    95934738.96547
        26.900    23428238.83647
  20263609.563 9 106486023.720 9        52.700    20263616.582 9  82976164.40649
        48.800    20263615.99249  20263613.262 7  79518813.500 7        43.600
  23255849.039 7 122210354.161 7        41.600    23255855.816 7  95228903.10448
        31.600    23255855.41048  23255853.918 4  91261029.728 4        34.600
  22679190.797 8 119179960.509 8        47.400                    92867527.72848
        32.700    22679194.26648
 15  8 24  0 22 30.0000000  0  8G05G07G02G20G28G30G09G13
  20840495.617 9 109517542.381 9        53.000    20840500.281 9  85338399.62849
        45.500    20840499.61349
  21066617.297 9 110705857.542 9        49.400    21066621.656 9  86264335.56049
        43.900    21066621.12149
  23354794.063 7 122730286.170 7        42.700                    95634002.42647
        29.300    23354796.39547
  24064491.898 6 126459762.999 6        40.600                    98540086.73046
        20.100    24064492.87546
  23410328.383 6 123022117.428 6        40.900                    95861416.44347
        27.400    23410332.82847
  20262075.070 9 106477960.226 9        53.800    20262081.898 9  82969881.17749
        48.800    20262081.29749  20262078.570 7  79512792.065 7        43.400
  23272134.445 7 122295936.640 7        42.400    23272141.527 7  95295590.73348
        31.400    23272140.83648  23272139.340 4  91324938.684 4        34.500
  22663456.672 9 119097277.535 9        48.500                    92803099.46648
        33.700    22663460.52348
 15  8 24  0 23  0.0000000  0  8G05G07G02G20G28G30G09G13
  20834841.898 9 109487831.925 9        53.400    20834846.242 9  85315248.61949
        46.700    20834846.07049
  21076812.969 9 110759436.473 9        50.300    21076817.414 9  86306085.37749
        43.700    21076816.82849
  23370366.633 7 122812118.222 7        41.600                    95697767.67747
        27.100    23370368.52047
  24045209.813 6 126358439.039 6        39.900                    98461132.99746
        22.800    24045213.27346
  23392456.461 6 122928201.321 6        40.800                    95788235.08847
        26.600    23392460.47747
  20260638.703 9 106470412.136 9        55.100    20260645.645 9  82963999.56149
        48.700    20260644.53149  20260642.035 7  79507155.518 7        43.900
  23288447.336 7 122381658.175 7        42.200    23288453.793 7  95362386.70348
        31.800    23288453.49648  23288451.414 4  91388951.487 4        34.400
  22647751.063 9 119014746.125 9        49.000                    92738789.28248
        33.100    22647755.15648
 15  8 24  0 23 30.0000000  0  8G05G07G02G20G28G30G09G13
  20829287.992 9 109458645.869 9        53.500    20829292.676 9  85292506.23549
        45.900    20829292.29749
  21087079.570 9 110813387.503 9        49.700    21087083.758 9  86348125.14449
        43.600    21087082.79749
  23385983.336 6 122894189.218 6        40.200                    95761719.10347
        27.300    23385985.12947
  24025966.086 7 126257312.121 7        41.500                    98382332.83146
        24.500    24025970.18846
  23374619.766 6 122834469.306 6        40.500                    95715197.16047
        26.900    23374623.67647
  20259300.305 9 106463378.970 9        54.400    20259307.492 9  82958519.17649
        48.800    20259306.53949  20259303.750 7  79501903.483 7        43.500
  23304785.078 7 122467518.046 7        41.700    23304791.773 7  95429290.45748
        30.700    23304791.35248  23304789.098 4  91453067.590 4        34.000
  22632074.695 9 118932366.924 9        48.500                    92674597.70848
        33.500    22632079.13348
 15  8 24  0 24  0.0000000  0  8G05G07G02G20G28G30G09G13
  20823834.172 9 109429986.162 9        52.600    20823838.809 9  85270173.99549
        46.100    20823838.20749
  21097416.586 9 110867709.047 9        51.100    21097420.770 9  86390453.62649
        43.600    21097420.30149
  23401646.117 7 122976496.515 7        41.000                    95825854.64647
        27.500    23401648.71947
  24006759.992 7 126156385.118 7        41.400                    98303688.43446
        24.100    24006763.98046
  23356818.492 6 122740923.557 6        40.600                    95642304.41647
        26.700    23356822.57047
  20258059.953 9 106456860.342 9        55.000    20258066.844 9  82953439.73549
        48.900    20258066.05949  20258063.273 7  79497035.686 7        44.100
  23321150.633 7 122553515.815 7        41.600    23321157.270 7  95496301.68748
        31.500    23321156.37948  23321154.707 3  91517286.673 3        33.700
  22616427.789 9 118850140.773 9        48.600                    92610525.40748
        33.500    22616431.47348
 15  8 24  0 24 30.0000000  0  8G05G07G02G20G28G30G09G13
  20818480.969 9 109401854.051 9        53.300    20818485.867 9  85248252.86349
        46.500    20818485.32449
  21107824.148 9 110922399.176 9        51.300    21107828.090 9  86433069.31449
        43.300    21107827.44549
  23417353.750 6 123059036.718 6        40.900                    95890171.68347
        27.600    23417355.27047
  23987593.148 6 126055660.287 6        40.800                    98225201.57046
        21.100    23987595.89546
  23339053.664 7 122647567.801 7        41.100                    95569559.72447
        27.300    23339057.95747
  20256917.320 9 106450855.534 9        54.600    20256924.211 9  82948760.67249
        48.700    20256923.24249  20256920.629 7  79492551.586 7        43.800
  23337541.648 7 122639650.572 7        42.200    23337547.535 7  95563419.63248
        31.100    23337547.02048  23337545.176 4  91581608.039 4        34.400
  22600809.867 9 118768068.437 9        48.900                    92546572.95348
        33.600    22600814.21548
 15  8 24  0 25  0.0000000  0  8G05G07G02G20G28G30G09G13
  20813228.125 9 109374251.038 9        52.700    20813232.891 9  85226744.02449
        46.200    20813232.53549
  21118300.492 9 110977456.180 9        51.200    21118304.715 9  86475970.87049
        43.700    21118304.36349
  23433103.836 6 123141806.789 6        40.800                    95954667.83647
        28.800    23433105.93447
  23968465.125 7 125955140.087 7        43.600                    98146874.15346
        23.500    23968468.62946
  23321325.391 7 122554404.521 7        41.200                    95496964.96147
        26.900    23321329.33247
  20255872.219 9 106445364.141 9        54.500    20255879.012 9  82944481.67049
        48.700    20255878.13749  20255875.641 7  79488450.882 7        43.700
  23353958.492 7 122725921.821 7        41.800    23353965.195 7  95630643.95148
        31.900    23353964.67648  23353962.480 3  91646031.332 3        33.400
  22585221.625 9 118686151.052 9        49.800                    92482741.23449
        34.300    22585225.24649
 15  8 24  0 25 30.0000000  0  8G05G07G02G20G28G30G09G13
  20808076.203 9 109347178.227 9        53.200    20808080.750 9  85205648.32749
        46.300    20808080.16449
  21128847.641 9 111032878.310 9        51.600    21128851.395 9  86519156.94349
        43.700    21128850.93049
  23448898.125 6 123224804.219 6        40.100                    96019341.13347
        29.400    23448900.30147
  23949375.969 7 125854827.201 7        42.700                    98068708.25046
        22.600    23949378.32446
  23303633.625 7 122461435.335 7        41.000                    95424521.47447
        27.700    23303638.69547
  20254925.141 9 106440385.797 9        54.600    20254932.016 9  82940602.44949
        48.800    20254931.32049  20254928.473 7  79484733.292 7        43.200
  23370400.914 7 122812329.069 7        41.700    23370407.984 7  95697974.25448
        30.500    23370407.64148  23370405.090 3  91710556.194 3        33.400
  22569663.266 9 118604389.433 9        49.400                    92419030.91149
        34.200    22569667.10249
 15  8 24  0 26  0.0000000  0  8G05G07G02G20G28G30G09G13
  20803025.789 9 109320636.850 9        53.100    20803030.102 9  85184966.73449
        46.200    20803029.47749
  21139462.688 9 111088663.485 9        51.700    21139467.207 9  86562625.90549
        43.000    21139466.62149
  23464734.492 6 123308025.109 6        39.500                    96084188.57547
        26.700    23464736.50047
  23930327.305 7 125754723.811 7        42.000                    97990705.59646
        22.900    23930329.58246
  23285979.961 7 122368664.882 7        41.700                    95352232.86847
        27.400    23285985.05147
  20254075.070 9 106435919.652 9        53.500    20254081.941 9  82937122.34849
        49.100    20254080.90649  20254078.176 7  79481398.193 7        43.100
  23386869.508 7 122898871.437 7        42.800    23386876.328 7  95765409.83448
        31.400    23386876.05548  23386872.918 3  91775181.958 3        32.700
  22554134.156 9 118522784.210 9        50.400                    92355442.43849
        35.300    22554138.35949
 15  8 24  0 26 30.0000000  0  8G05G07G02G20G28G30G09G13
  20798076.602 9 109294628.877 9        52.800    20798081.125 9  85164700.77649
        46.000    20798080.40249
  21150146.945 9 111144810.043 9        51.600    21150151.555 9  86606376.48249
        43.100    21150150.79749
  23480612.578 6 123391467.276 6        40.800                    96149208.45847
        27.400    23480614.77047
  23911319.492 7 125654832.638 7        43.500                    97912868.33646
        22.600    23911321.38346
  23268364.414 7 122276094.740 7        41.300                    95280100.31547
        27.400    23268368.26247
  20253322.977 9 106431965.487 9        54.800    20253329.672 9  82934041.18649
        48.900    20253328.92649  20253326.371 7  79478445.410 7        43.900
  23403364.008 7 122985548.608 7        42.900    23403370.371 7  95832950.45248
        30.400    23403369.63348  23403366.906 3  91839908.401 3        33.100
  22538634.867 9 118441336.456 9        49.400                    92291976.66749
        34.200    22538639.03549
 15  8 24  0 27  0.0000000  0  8G05G07G02G20G28G30G09G13
  20793229.141 9 109269154.588 9        52.600    20793233.523 9  85144850.68049
        46.200    20793232.69549
  21160900.234 9 111201315.928 9        51.100    21160904.172 9  86650407.03749
        43.200    21160903.57449
  23496532.891 7 123475127.140 7        41.300                    96214397.95347
        27.900    23496534.49647
  23892351.031 7 125555155.880 7        43.200                    97835198.15246
        22.800    23892353.22746
  23250788.070 7 122183728.153 7        41.700                    95208126.36147
        26.900    23250791.12947
  20252667.523 9 106428522.508 9        54.300    20252674.313 9  82931358.34849
        49.100    20252673.68449  20252670.895 7  79475874.363 7        43.600
  23419883.234 7 123072359.699 7        44.300    23419889.945 7  95900595.43947
        29.600    23419889.53547  23419887.629 3  91904734.819 3        33.500
  22523166.094 9 118360046.765 9        49.600                    92228634.07049
        34.400    22523169.73449
 15  8 24  0 27 30.0000000  0  8G05G07G02G20G28G30G09G13
  20788482.898 9 109244215.723 9        52.800    20788487.852 9  85125417.78649
        46.200    20788487.20349
  21171720.492 9 111258179.313 9        49.700    21171724.879 9  86694716.17449
        43.600    21171724.53549
  23512493.641 7 123559001.769 7        41.200                    96279754.79147
        26.300    23512494.51247
  23873422.867 7 125455696.005 7        41.600                    97757696.91647
        25.800    23873426.59847
  23233250.578 7 122091568.716 7        42.700                    95136313.84947
        28.600    23233255.28947
  20252109.375 9 106425589.894 9        53.500    20252116.414 9  82929073.20449
        48.900    20252115.54749  20252112.934 7  79473684.435 7        43.300
  23436428.375 7 123159303.948 7        44.700    23436435.305 7  95968344.17048
        31.200    23436434.73048  23436432.297 3  91969660.674 3        33.500
  22507727.164 8 118278915.810 8        47.700                    92165415.16149
        34.000    22507731.58249
 15  8 24  0 28  0.0000000  0  8G05G07G02G20G28G30G09G13
  20783839.969 9 109219813.756 9        52.800    20783844.598 9  85106403.26849
        46.400    20783844.04349
  21182609.195 9 111315398.540 9        50.800    21182612.766 8  86739302.58249
        43.200    21182612.28949
  23528494.523 6 123643088.204 6        40.300                    96345276.70046
        24.900    23528496.35246
  23854538.930 7 125356455.658 7        42.300                    97680366.79846
        23.300    23854542.21946
  23215753.430 7 121999618.684 7        44.100                    95064664.49147
        28.700    23215757.65647
  20251648.109 9 106423167.416 9        55.500    20251654.973 9  82927185.56249
        48.900    20251654.36749  20251651.582 7  79471875.447 7        43.200
  23452998.586 7 123246380.994 7        43.100    23453005.898 7  96036196.37048
        30.200    23453005.59848  23453002.816 3  92034685.692 3        32.100
  22492319.141 9 118197944.815 9        48.300                    92102320.89249
        35.000    22492322.85549
 15  8 24  0 28 30.0000000  0  8G05G07G02G20G28G30G09G13
  20779298.656 9 109195949.839 9        52.700    20779303.316 9  85087807.99749
        46.700    20779302.98449
  21193564.977 9 111372971.824 9        51.500    21193569.254 9  86784164.88549
        43.000    21193568.51649
  23544535.055 6 123727383.680 6        40.600                    96410961.49147
        25.200    23544536.65647
  23835696.820 7 125257437.516 7        43.200                    97603209.81046
        24.100    23835699.25046
  23198294.602 7 121907879.793 7        42.500                    94993179.67547
        26.500    23198300.67247
  20251284.367 9 106421254.461 9        55.800    20251291.289 9  82925694.96349
        48.800    20251290.57849  20251287.613 7  79470446.951 7        43.300
  23469593.688 7 123333590.290 7        41.700    23469600.840 7  96104151.64448
        31.200    23469600.32448  23469598.129 3  92099809.495 3        33.300
  22476941.266 8 118117134.592 8        46.900                    92039351.90749
        34.300    22476945.53549
 15  8 24  0 29  0.0000000  0  8G05G07G02G20G28G30G09G13
  20774860.102 9 109172624.706 9        52.700    20774864.797 9  85069632.57649
        46.600    20774864.13749
  21204587.828 9 111430896.825 9        50.300    21204592.082 8  86829301.24749
        42.600    21204591.44949
  23560615.797 7 123811884.599 7        41.700                    96476806.32747
        27.200    23560617.39547
  23816896.117 7 125158643.503 7        43.200                    97526227.45146
        23.000    23816899.63346
  23180879.039 7 121816356.741 7        44.000                    94921863.02047
        27.300    23180882.26247
  20251017.000 9 106419849.926 9        54.100    20251024.223 9  82924600.52849
        48.800    20251023.24249  20251020.570 7  79469398.125 7        43.500
  23486214.297 7 123420930.771 7        41.300    23486220.406 7  96172209.14248
        30.900    23486220.44148  23486218.359 3  92165031.266 3        32.900
  22461594.094 8 118036485.866 8        47.600                    91976508.75549
        34.800    22461598.43049
 15  8 24  0 29 30.0000000  0  8G05G07G02G20G28G30G09G13
  20770524.102 9 109149840.073 9        52.100    20770528.828 9  85051878.31149
        46.300    20770528.13349
  21215677.164 9 111489172.183 9        50.200    21215681.281 9  86874710.62349
        43.000    21215680.72749
  23576734.102 7 123896588.345 7        42.500                    96542809.27947
        27.600    23576734.91047
  23798139.352 7 125060076.434 7        42.900                    97449421.96046
        22.600    23798143.31346
  23163504.602 7 121725051.236 7        43.400                    94850715.90147
        27.700    23163508.81647
  20250846.172 9 106418953.601 9        54.800    20250853.551 9  82923902.09649
        49.000    20250852.71949  20250849.988 7  79468728.800 7        43.000
  23502859.609 7 123508402.218 7        41.800    23502865.824 7  96240368.67948
        30.400    23502864.70348  23502863.621 4  92230350.804 4        34.300
  22446278.266 8 117955999.594 8        47.100                    91913792.19549
        34.400    22446282.40249
 15  8 24  0 30  0.0000000  0  8G05G07G02G20G28G30G09G13
  20766291.195 9 109127596.699 9        52.700    20766296.113 9  85034545.81049
        46.000    20766295.46949
  21226833.063 9 111547795.944 9        49.600    21226837.129 9  86920391.48049
        43.100    21226836.50849
  23592890.078 6 123981491.692 6        40.900                    96608967.67447
        26.400    23592892.97347
  23779426.625 7 124961738.557 7        42.200                    97372795.02446
        22.900    23779430.60246
  23146171.305 7 121633966.338 7        41.800                    94779740.68847
        28.200    23146176.59047
  20250772.320 9 106418564.657 9        54.600    20250779.277 9  82923599.03049
        48.800    20250778.67649  20250775.770 7  79468438.357 7        43.700
  23519529.336 6 123596003.816 6        40.400    23519536.570 7  96308629.64747
        29.900    23519536.19147  23519533.758 4  92295767.549 4        34.000
  22430993.156 8 117875676.639 8        47.800                    91851202.88148
        33.500    22430997.19148
 15  8 24  0 30 30.0000000  0  8G05G07G02G20G28G30G09G13
  20762161.852 9 109105896.153 9        52.300    20762166.695 9  85017636.29549
        47.000    20762166.01649
  21238054.422 9 111606766.304 9        49.400    21238058.707 9  86966342.41049
        43.000    21238058.10949
  23609084.422 7 124066591.669 7        42.100                    96675279.40047
        27.900    23609086.68447
  23760758.156 7 124863632.596 7        42.700                    97296348.84647
        25.600    23760761.89847
  23128881.234 7 121543104.886 7        42.300                    94708939.58847
        28.200    23128885.18447
  20250794.844 9 106418682.459 9        53.700    20250801.605 9  82923690.83249
        48.800    20250800.81649  20250798.086 7  79468526.333 7        43.900
  23536224.766 7 123683735.025 7        41.300    23536231.223 7  96376991.58348
        30.600    23536231.01648  23536228.641 3  92361281.071 3        33.900
  22415739.844 8 117795517.814 8        47.400                    91788741.48049
        34.700    22415743.61349
 15  8 24  0 31  0.0000000  0  8G05G07G02G20G28G30G09G13
  20758136.211 9 109084739.962 9        53.000    20758140.637 9  85001150.94849
        46.800    20758140.03949
  21249341.914 9 111666081.508 9        49.100    21249346.023 8  87012562.05249
        42.800    21249345.33649
  23625315.234 7 124151885.531 7        43.600                    96741742.09347
        27.000    23625316.94147
  23742133.586 7 124765761.244 7        42.300                    97220085.49446
        23.600    23742136.85546
  23111634.078 7 121452469.238 7        42.500                    94638314.43447
        28.400    23111637.47747
  20250913.969 9 106419306.460 9        53.500    20250920.840 9  82924177.07249
        49.200    20250919.97749  20250917.246 7  79468992.321 7        43.400
  23552944.172 7 123771595.386 7        41.400    23552950.617 7  96445454.18748
        30.200    23552949.87948  23552948.270 3  92426891.071 3        32.800
  22400517.148 8 117715524.201 8        47.400                    91726408.80949
        34.700    22400521.66049
 15  8 24  0 31 30.0000000  0  8G05G07G02G20G28G30G09G13
  20754213.797 9 109064128.855 9        54.100    20754218.410 9  84985090.33849
        46.400    20754217.94549
  21260694.273 9 111725739.125 9        49.000    21260698.094 8  87059048.50949
        42.900    21260697.67249
  23641582.945 7 124237369.879 7        42.800                    96808353.30247
        28.900    23641585.21147
  23723554.125 7 124668126.763 7        42.800                    97144006.69046
        23.000    23723557.10546
  23094430.109 7 121362062.859 7        41.800                    94567867.94247
        28.700    23094434.40247
  20251128.508 9 106420435.661 9        53.500    20251135.555 9  82925056.98149
        48.900    20251134.77749  20251131.930 7  79469835.561 7        43.400
  23569687.094 7 123859583.953 7        41.100    23569694.117 7  96514016.68947
        28.900    23569693.55947  23569691.711 3  92492596.801 3        32.800
  22385326.836 9 117635696.464 9        48.900                    91664205.38849
        35.000    22385330.43049
 15  8 24  0 32  0.0000000  0  8G05G07G02G20G28G30G09G13
  20750395.648 9 109044063.508 9        54.100    20750399.813 9  84969455.00249
        46.600    20750399.25449
  21272111.672 9 111785737.692 9        49.200    21272115.504 9  87105800.64249
        43.100    21272114.85549
  23657885.109 7 124323041.595 7        42.200                    96875110.46846
        24.400    23657886.93846
  23705020.336 7 124570731.486 7        42.500                    97068114.23846
        22.300    23705023.50446
  23077270.578 7 121271888.557 7        42.200                    94497602.29047
        28.700    23077274.27747
  20251439.195 9 106422069.332 9        53.900    20251446.172 9  82926329.97849
        48.800    20251445.45749  20251442.672 7  79471055.520 7        43.500
  23586455.547 6 123947700.171 6        40.600    23586461.934 7  96582678.65048
        30.000    23586461.59848  23586460.102 3  92558397.830 3        33.000
  22370167.367 8 117556035.490 8        47.900                    91602131.92449
        35.300    22370172.06649
 15  8 24  0 32 30.0000000  0  8G05G07G02G20G28G30G09G13
  20746681.336 9 109024545.591 9        54.000    20746686.008 9  84954246.22649
        46.300    20746685.38349
  21283593.742 9 111846075.750 9        49.100    21283597.375 8  87152817.30449
        42.600    21283596.80549
  23674224.164 7 124408897.892 7        42.000                    96942011.47547
        26.500    23674225.95747
  23686533.234 7 124473578.183 7        43.400                    96992410.38647
        25.400    23686536.59847
  23060156.047 7 121181948.327 7        42.900                    94427519.01947
        28.800    23060159.30947
  20251846.203 9 106424207.003 9        52.300    20251853.070 9  82927995.70149
        49.200    20251852.39149  20251849.602 7  79472651.834 7        43.500
  23603247.266 7 124035943.587 7        42.300    23603254.516 7  96651439.71648
        30.900    23603254.13748  23603251.586 3  92624293.858 3        32.800
  22355040.633 9 117476542.421 9        49.100                    91540189.29449
        35.500    22355044.41049
 15  8 24  0 33  0.0000000  0  8G05G07G02G20G28G30G09G13
  20743071.633 9 109005575.492 9        53.700    20743076.254 9  84939464.33449
        46.800    20743075.56349
  21295140.039 9 111906750.626 9        50.300    21295143.672 8  87200096.44149
        43.100    21295143.20749
  23690595.906 7 124494935.561 7        42.600                    97009053.80346
        24.500    23690596.84046
  23668091.430 7 124376669.101 7        42.100                    96916896.85147
        25.800    23668095.81347
  23043085.094 7 121092245.516 7        42.200                    94357620.74347
        28.800    23043089.21947
  20252348.734 9 106426847.438 9        54.300    20252355.449 9  82930053.19549
        48.800    20252354.65249  20252351.805 7  79474623.599 7        43.200
  23620064.094 7 124124313.173 7        42.700    23620070.688 7  96720299.12047
        29.200    23620069.81347  23620068.145 3  92690284.093 3        33.400
  22339945.125 9 117397217.659 9        48.900                    91478377.80349
        35.700    22339949.10249
 15  8 24  0 33 30.0000000  0  8G05G07G02G20G28G30G09G13
  20739566.000 9 108987154.807 9        52.700    20739570.590 9  84925110.55349
        46.400    20739570.30549
  21306749.313 9 111967760.964 9        48.800    21306753.641 8  87247636.95749
        42.600    21306753.07849
  23707001.984 7 124581151.507 7        41.300                    97076234.99247
        26.200    23707004.86747
  23649697.648 7 124280007.023 7        42.600                    96841575.79847
        26.300    23649701.70747
  23026060.805 7 121002782.868 7        42.600                    94287909.62147
        29.900    23026066.15647
  20252946.586 9 106429990.116 9        53.500    20252953.695 9  82932502.03649
        48.900    20252952.91449  20252950.008 7  79476970.415 7        44.400
  23636903.820 7 124212808.536 7        42.000    23636910.266 7  96789256.50547
        29.100    23636909.11747  23636907.152 3  92756368.269 3        32.300
  22324883.242 8 117318062.396 8        47.800                    91416698.40149
        35.500    22324886.61749
 15  8 24  0 34  0.0000000  0  8G05G07G02G20G28G30G09G13
  20736165.492 9 108969284.749 9        52.500    20736170.148 9  84911185.82449
        47.100    20736169.84049
  21318423.109 9 112029104.745 9        49.100    21318427.289 9  87295437.30849
        42.300    21318427.02049
  23723442.195 7 124667542.762 7        42.400                    97143552.97346
        24.300    23723442.57446
  23631350.805 7 124183594.383 7        43.400                    96766449.02447
        26.200    23631354.62947
  23009083.359 7 120913563.096 7        43.000                    94218387.75847
        29.800    23009087.58247
  20253640.219 9 106433634.419 9        52.700    20253647.152 9  82935341.76149
        48.900    20253646.31649  20253643.527 7  79479691.813 7        43.500
  23653768.250 7 124301429.247 7        42.100    23653774.109 7  96858311.58347
        28.800    23653773.52347  23653772.027 3  92822546.030 3        32.700
  22309852.344 8 117239077.596 8        47.600                    91355151.79949
        34.600    22309856.50849
 15  8 24  0 34 30.0000000  0  8G05G07G02G20G28G30G09G13
  20732869.836 9 108951965.839 9        52.200    20732874.746 9  84897690.56949
        46.600    20732874.15249
  21330159.453 9 112090780.008 9        49.600    21330162.871 9  87343495.94749
        42.000    21330162.43849
  23739914.852 7 124754106.228 7        43.500                    97211004.93247
        27.600    23739916.48047
  23613052.078 7 124087433.692 7        43.200                    96691518.64646
        24.400    23613055.91046
  22992151.336 7 120824588.964 7        42.600                    94149057.29347
        28.600    22992155.85247
  20254428.828 9 106437779.379 9        53.500    20254435.863 9  82938571.60449
        48.800    20254435.05949  20254432.508 7  79482787.088 7        43.900
  23670655.211 7 124390174.460 7        41.000    23670662.297 7  96927463.67147
        29.400    23670661.93447  23670659.621 3  92888816.783 3        32.600
  22294854.930 8 117160263.990 8        47.600                    91293738.62749
        35.500    22294858.54349
 15  8 24  0 35  0.0000000  0  8G05G07G02G20G28G30G09G13
  20729679.281 9 108935199.585 9        52.900    20729683.699 9  84884625.94749
        46.800    20729683.08649
  21341958.398 9 112152785.054 9        51.000    21341962.715 9  87391811.56849
        42.700    21341962.16849
  23756418.586 6 124840839.018 6        40.600                    97278588.91947
        27.100    23756421.44147
  23594801.867 7 123991527.434 7        43.900                    96616786.51447
        26.000    23594804.87947
  22975268.367 7 120735863.444 7        43.400                    94079920.55348
        30.400    22975271.93848
  20255312.773 9 106442424.264 9        55.400    20255319.805 9  82942191.00649
        49.100    20255318.82449  20255316.211 7  79486255.676 7        43.400
  23687566.828 7 124479043.610 7        42.100    23687573.922 7  96996712.34047
        28.800    23687573.12947  23687571.164 3  92955180.084 3        32.700
  22279890.242 9 117081622.421 9        48.800                    91232459.48749
        36.000    22279894.10949
 15  8 24  0 35 30.0000000  0  8G05G07G02G20G28G30G09G13
  20726594.289 9 108918986.629 9        52.700    20726598.551 9  84871992.47049
        46.500    20726598.00049
  21353819.914 9 112215117.925 9        49.100    21353824.289 8  87440382.63649
        42.300    21353823.77349
  23772954.945 7 124927738.002 7        41.600                    97346302.40946
        23.400    23772956.39146
  23576599.945 7 123895877.995 7        43.100                    96542254.49047
        26.500    23576603.42647
  22958431.898 7 120647389.236 7        42.700                    94010979.65547
        29.300    22958435.80147
  20256291.523 9 106447568.059 9        53.100    20256298.621 9  82946199.16049
        48.900    20256297.82849  20256295.043 7  79490096.826 7        43.300
  23704501.516 6 124568036.037 6        40.400    23704508.395 7  97066057.06447
        29.600    23704508.55547  23704505.832 3  93021635.431 3        33.700
  22264958.000 8 117003153.890 8        46.700                    91171315.18949
        35.200    22264961.27349
 15  8 24  0 36  0.0000000  0  8G05G07G02G20G28G30G09G13
  20723614.422 9 108903327.923 9        52.900    20723618.875 9  84859790.88649
        46.300    20723618.20749
  21365743.719 9 112277776.705 9        49.200    21365747.586 8  87489207.66749
        42.900    21365747.11749
  23789523.453 7 125014800.158 7        43.600                    97414143.05448
        30.200    23789525.83248
  23558448.016 7 123800488.083 7        42.500                    96467924.73546
        23.000    23558451.11746
  22941644.641 7 120559168.838 7        43.500                    93942236.51947
        29.900    22941648.53147
  20257365.031 9 106453210.016 9        54.600    20257371.828 9  82950595.50149
        48.800    20257370.91049  20257368.242 7  79494309.985 7        43.500
  23721459.555 7 124657151.067 7        41.400    23721466.684 7  97135497.33947
        28.900    23721466.04347  23721463.727 3  93088182.354 3        33.100
  22250058.688 8 116924859.387 8        47.600                    91110306.50349
        35.400    22250062.01649
 15  8 24  0 36 30.0000000  0  8G05G07G02G20G28G30G09G13
  20720740.453 9 108888224.666 9        52.300    20720745.012 9  84848022.11249
        46.200    20720744.16049
  21377729.398 9 112340759.661 9        49.600    21377733.102 8  87538285.29749
        42.600    21377732.64849
  23806121.727 7 125102022.222 7        42.300                    97482108.25347
        25.300    23806121.12547
  23540345.898 7 123705360.195 7        43.600                    96393799.08046
        24.900    23540348.35546
  22924905.305 7 120471205.244 7        43.300                    93873693.50148
        30.200    22924909.35548
  20258533.273 9 106459349.307 9        54.900    20258540.344 9  82955379.36749
        48.900    20258539.66449  20258537.051 7  79498894.528 7        43.500
  23738441.055 6 124746388.184 6        40.500    23738447.625 7  97205032.71547
        28.100    23738447.10547  23738445.141 3  93154820.434 3        33.000
  22235192.930 8 116846739.836 8        47.800                    91049434.13249
        35.500    22235197.03949
 15  8 24  0 37  0.0000000  0  8G05G07G02G20G28G30G09G13
  20717972.281 9 108873677.745 9        53.500    20717976.918 9  84836686.84949
        46.400    20717976.39149
  21389775.727 9 112404064.787 9        48.700    21389779.797 8  87587613.96749
        41.900    21389779.15649
  23822747.242 6 125189401.546 6        38.700                    97550196.02247
        25.600    23822751.73047
  23522294.141 7 123610496.859 7        43.200                    96319879.63047
        26.100    23522297.58247
  22908215.156 7 120383501.022 7        43.400                    93805352.56448
        30.800    22908219.65248
  20259796.078 9 106465984.979 9        53.800    20259803.176 9  82960550.02149
        48.800    20259802.31649  20259799.645 7  79503849.739 7        43.400
  23755444.672 6 124835746.670 6        40.600    23755451.816 7  97274662.68547
        27.000    23755451.09447  23755449.777 3  93221549.152 3        33.700
  22220360.945 9 116768796.065 9        48.800                    90988698.75249
        36.100    22220364.79749
 15  8 24  0 37 30.0000000  0  9G05G07G02G20G28G15G30G09G13
  20715310.070 9 108859687.937 9        54.100    20715314.531 9  84825785.68949
        46.700    20715314.03549
  21401882.828 9 112467690.188 9        49.700    21401886.969 8  87637192.20049
        42.600    21401886.22749
  23839406.250 7 125276934.658 7        43.700                    97618403.67847
        25.800    23839405.68447
  23504293.164 7 123515900.515 7        44.200                    96246168.19247
        25.800    23504295.27347
  22891576.352 7 120296059.660 7        43.200                    93737216.47048
        31.300    22891580.43448
  25092127.422 4 131859974.98414        34.500    25092130.602 1 102748079.71211
        29.400
  20261153.070 9 106473116.071 9        54.100    20261159.805 9  82966106.72849
        48.800    20261159.07449  20261156.465 7  79509174.914 7        43.600
  23772472.609 7 124925225.829 7        42.500    23772479.578 7  97344386.69847
        29.300    23772479.07447  23772476.582 3  93288367.976 3        32.800
  22205562.164 9 116691028.969 9        49.700                    90928101.03049
        35.900    22205566.04349
 15  8 24  0 38  0.0000000  0  9G05G07G02G20G28G15G30G09G13
  20712754.141 9 108846256.589 9        53.700    20712758.844 9  84815319.70249
        47.000    20712758.32449
  21414051.266 9 112531634.446 9        50.000    21414055.082 8  87687018.89449
        42.700    21414054.28949
  23856092.766 7 125364618.875 7        43.400                    97686728.92947
        28.900    23856094.63747
  23486342.672 7 123421573.833 7        43.000                    96172666.87947
        25.800    23486346.10947
  22874986.844 7 120208883.087 7        44.200                    93669286.69648
        31.300    22874990.84848
  25073464.156 5 131761901.739 5        36.900    25073468.172 2 102671659.031 2
        31.000
  20262604.391 9 106480742.057 9        55.000    20262611.215 9  82972049.06349
        49.000    20262610.50849  20262607.484 7  79514869.650 7        43.600
  23789522.656 7 125014825.313 7        41.100    23789529.520 7  97414204.45547
        29.200    23789529.51247  23789527.254 4  93355276.653 4        34.400
  22190797.781 9 116613439.714 9        49.500                    90867641.87949
        36.700    22190801.61749
 15  8 24  0 38 30.0000000  0  9G05G07G02G20G28G15G30G09G13
  20710304.438 9 108833384.197 9        54.000    20710309.094 9  84805289.26549
        46.800    20710308.68449
  21426279.219 9 112595895.065 9        50.700    21426282.977 8  87737092.11449
        42.600    21426282.44149
  23872804.422 6 125452451.178 6        39.200                    97755169.76446
        20.400    23872805.12946
  23468445.305 7 123327519.318 7        43.200                    96099377.67647
        26.400    23468448.49647
  22858448.453 7 120121974.184 7        43.900                    93601565.48947
        29.900    22858452.37547
  25054806.055 6 131663850.309 6        38.900    25054809.027 2 102595264.22755
        17.400    25054810.17645
  20264149.258 9 106488861.865 9        55.300    20264156.445 9  82978376.18749
        49.000    20264155.41849  20264152.688 7  79520933.146 7        43.300
  23806595.773 7 125104544.511 7        41.400    23806602.801 7  97484115.48447
        28.500    23806602.77347  23806600.461 3  93422274.707 3        32.800
  22176066.898 9 116536029.168 9        49.500                    90807321.99549
        36.000    22176070.42649
 15  8 24  0 39  0.0000000  0  9G05G07G02G20G28G15G30G09G13
  20707961.617 9 108821070.956 9        53.800    20707966.109 9  84795694.52549
        46.700    20707965.39149
  21438567.891 9 112660470.303 9        50.400    21438571.922 8  87787410.47749
        42.900    21438571.45749
  23889547.891 7 125540428.052 7        43.500                    97823723.10247
        28.900    23889550.30147
  23450599.516 7 123233739.228 7        43.300                    96026302.26847
        26.900    23450602.19547
  22841961.773 7 120035335.643 7        44.300                    93534054.95448
        30.600    22841966.03548
  25036151.445 6 131565821.160 6        38.300    25036156.316 4 102518877.88245
        19.000    25036155.48845
  20265788.398 9 106497474.193 9        55.000    20265795.598 9  82985087.09949
        48.800    20265794.90649  20265791.887 7  79527364.440 7        43.200
  23823691.070 7 125194382.332 7        41.700    23823698.176 7  97554118.94447
        27.100    23823697.96947  23823695.188 2  93489361.369 2        31.900
  22161370.094 9 116458797.748 9        48.400                    90747141.66849
        35.900    22161374.07849
 15  8 24  0 39 30.0000000  0  9G05G07G02G20G28G15G30G09G13
  20705724.953 9 108809318.373 9        54.500    20705729.344 9  84786536.67049
        46.600    20705728.77349
  21450915.391 9 112725358.434 9        50.700    21450919.738 8  87837972.65849
        43.000    21450919.35949
  23906315.602 7 125628546.640 7        41.900                    97892386.93346
        22.600    23906314.71546
  23432806.180 7 123140236.487 7        43.200                    95953443.03247
        28.000    23432810.12547
  22825527.109 7 119948970.198 7        43.600                    93466757.24948
        31.100    22825531.49248
  25017501.734 5 131467815.376 5        37.600    25017506.020 5 102442509.79345
        19.300    25017505.81345
  20267520.773 9 106506578.357 9        55.200    20267527.605 9  82992181.25349
        49.100    20267526.68449  20267523.953 7  79534163.005 7        44.100
  23840809.477 7 125284338.332 7        42.300    23840815.609 6  97624214.50347
        26.200    23840814.99647  23840813.211 3  93556536.283 3        32.100
  22146707.555 9 116381746.903 9        49.000                    90687102.07349
        36.500    22146711.63749
 15  8 24  0 40  0.0000000  0  9G05G07G02G20G28G15G30G09G13
  20703595.430 9 108798127.391 9        53.200    20703600.074 9  84777816.42649
        46.600    20703599.43849
  21463322.516 9 112790557.709 9        50.400    21463326.406 8  87888777.28049
        42.700    21463326.01649
  23923108.508 6 125716803.908 6        39.600                    97961158.77547
        25.800    23923113.02047
  23415066.656 7 123047013.422 7        43.000                    95880801.67947
        26.400    23415069.74247
  22809145.289 8 119862880.890 8        45.400                    93399674.69248
        31.500    22809148.71548
  24998856.094 6 131369833.698 6        38.900    24998861.105 5 102366160.45746
        20.900    24998860.84846
  20269346.813 9 106516173.513 9        54.900    20269353.531 9  82999658.00749
        48.900    20269352.78549  20269350.117 7  79541328.225 7        43.700
  23857949.719 7 125374412.144 7        42.100    23857957.133 7  97694401.89047
        28.700    23857956.43847  23857953.945 3  93623799.172 3        33.200
  22132080.250 9 116304877.544 9        49.300                    90627203.88149
        36.600    22132083.78149
 15  8 24  0 40 30.0000000  0  9G05G07G02G20G28G15G30G09G13
  20701573.047 9 108787498.472 9        52.300    20701577.301 9  84769534.14649
        46.500    20701576.83249
  21475788.406 9 112856065.888 9        51.300    21475792.691 8  87939822.61149
        42.300    21475792.07449
  23939931.289 7 125805196.917 7        43.500                    98030036.49046
        22.300    23939929.88746
  23397380.266 7 122954072.442 7        44.000                    95808380.13247
        27.000    23397384.25047
  22792815.398 8 119777070.269 8        45.100                    93332809.27948
        31.600    22792819.66048
  24980215.672 6 131271876.926 6        39.400    24980220.820 5 102289830.54546
        22.000    24980219.87146
  20271266.000 9 106526258.535 9        54.900    20271272.758 9  83007516.47549
        48.900    20271271.98049  20271269.133 7  79548859.258 7        43.200
  23875112.656 7 125464602.905 7        42.000    23875119.918 7  97764680.34547
        29.000    23875119.61347  23875117.473 3  93691149.368 3        32.900
  22117487.109 9 116228190.332 9        48.000                    90567447.62549
        37.100    22117490.62549
 15  8 24  0 41  0.0000000  0  9G05G07G02G20G28G15G30G09G13
  20699657.609 9 108777433.047 9        53.400    20699662.277 9  84761690.94549
        46.800    20699661.42249
  21488312.641 9 112921881.458 9        51.200    21488316.645 8  87991107.48149
        42.000    21488315.93449
  23956776.234 6 125893722.889 6        40.100                    98099017.71146
        24.500    23956778.93046
  23379748.383 7 122861416.324 7        44.300                    95736180.60147
        27.900    23379751.97747
  22776539.023 7 119691540.716 7        44.500                    93266162.89048
        31.000    22776543.20348
  24961579.453 6 131173946.071 6        38.700    24961584.184 5 102213520.79846
        22.900    24961584.19146
  20273278.102 9 106536832.584 9        54.900    20273284.781 9  83015755.99749
        48.900    20273284.09849  20273281.309 7  79556755.471 7        43.700
  23892297.422 7 125554910.088 7        41.300    23892304.785 7  97835049.57647
        28.300    23892304.74647  23892302.488 3  93758586.531 3        33.000
  22102928.664 9 116151686.530 9        48.100                    90507834.28149
        36.900    22102932.66449
 15  8 24  0 41 30.0000000  0  9G05G07G02G20G28G15G30G09G13
  20697849.492 9 108767931.791 9        53.000    20697854.000 9  84754287.37049
        46.800    20697853.18449
  21500895.148 9 112988002.647 9        51.600    21500899.355 8  88042630.48449
        42.500    21500898.53949
  23973646.898 7 125982378.451 7        41.200                    98168100.01746
        21.800    23973647.91846
  23362171.438 7 122769047.576 7        44.000                    95664204.96547
        27.100    23362174.25847
  22760318.406 8 119606295.447 8        45.100                    93199738.04448
        32.200    22760321.59448
  24942949.742 6 131076041.811 6        40.200    24942953.652 5 102137231.75246
        22.600    24942953.29346
  20275382.891 9 106547894.693 9        55.100    20275390.082 9  83024375.83049
        48.900    20275389.09049  20275386.535 7  79565016.138 7        43.700
  23909504.289 7 125645333.179 7        41.400    23909511.328 7  97905509.11247
        27.200    23909511.14847  23909508.598 3  93826110.247 3        33.200
  22088405.500 8 116075366.891 8        47.900                    90448364.44149
        37.300    22088409.59049
 15  8 24  0 42  0.0000000  0  9G05G07G02G20G28G15G30G09G13
  20696148.914 9 108758994.301 9        54.100    20696153.465 9  84747323.07749
        46.900    20696152.99249
  21513535.391 9 113054427.179 9        51.700    21513539.563 8  88094389.85249
        41.700    21513538.82049
  23990542.523 7 126071160.454 7        41.400                    98237280.75347
        26.800    23990544.29347
  23344649.266 7 122676968.521 7        44.300                    95592455.04847
        26.600    23344652.34447
  22744151.289 8 119521336.547 8        46.000                    93133536.31548
        32.400    22744155.02048
  24924324.297 6 130978164.726 6        38.900    24924328.551 5 102060963.88346
        20.100    24924327.74646
  20277580.773 9 106559443.559 9        54.500    20277587.727 9  83033374.94749
        49.000    20277586.91449  20277584.242 7  79573640.295 7        43.400
  23926733.781 7 125735871.246 7        41.700    23926739.711 7  97976058.23847
        27.700    23926739.48447  23926737.227 3  93893719.828 3        32.800
  22073917.742 9 115999232.295 9        48.000                    90389038.79549
        37.300    22073921.05549
 15  8 24  0 42 30.0000000  0  9G05G07G02G20G28G15G30G09G13
  20694555.773 9 108750622.186 9        54.600    20694560.348 9  84740799.35349
        47.000    20694559.67649
  21526232.867 9 113121153.461 9        51.200    21526236.590 8  88146384.36149
        41.800    21526236.15649
  24007460.141 7 126160066.188 7        42.500                    98306557.92246
        24.200    24007461.77746
  23327182.344 7 122585181.742 7        43.800                    95520932.89947
        27.800    23327186.30147
  22728038.883 8 119436667.040 8        46.500                    93067560.09548
        31.400    22728043.07848
  24905703.867 6 130880315.888 6        39.000    24905707.992 5 101984718.12746
        21.700    24905707.62146
  20279870.828 9 106571478.360 9        55.000    20279877.969 9  83042752.72349
        48.800    20279876.84449  20279874.289 7  79582627.332 7        43.200
  23943983.844 7 125826523.794 7        41.300    23943990.707 7  98046696.53947
        27.600    23943990.45747  23943988.496 3  93961414.862 3        32.100
  22059465.164 9 115923283.825 9        48.400                    90329858.18749
        37.300    22059469.02049
 15  8 24  0 43  0.0000000  0  9G05G07G02G20G28G15G30G09G13
  20693070.078 9 108742815.803 9        53.900    20693074.828 9  84734716.45749
        46.800    20693074.13349
  21538987.852 9 113188179.276 9        51.400    21538991.758 8  88198612.27249
        41.900    21538991.18449
  24024401.094 7 126249092.287 7        42.200                    98375928.94547
        26.400    24024403.30147
  23309772.586 7 122493689.762 7        43.600                    95449640.44847
        27.200    23309775.62147
  22711982.117 8 119352289.728 8        45.600                    93001811.55948
        31.600    22711986.03148
  24887089.609 7 130782496.256 7        41.100    24887093.289 4 101908495.01846
        20.600    24887093.28546
  20282253.148 9 106583997.951 9        55.600    20282259.996 9  83052508.25149
        48.900    20282259.10549  20282256.438 7  79591976.384 7        43.600
  23961256.188 7 125917290.099 7        41.400    23961263.125 7  98117423.51047
        27.000    23961262.53147  23961260.918 3  94029194.866 3        33.600
  22045048.164 9 115847522.365 9        48.200                    90270823.29349
        36.900    22045051.85249
 15  8 24  0 43 30.0000000  0  9G05G07G02G20G28G15G30G09G13
  20691692.320 9 108735576.249 9        54.200    20691696.930 9  84729075.24149
        46.800    20691696.41849
  21551798.523 9 113255503.063 9        51.300    21551803.219 8  88251072.36149
        41.800    21551802.58649
  24041364.656 7 126338235.903 7        42.300                    98445391.49147
        26.700    24041367.06347
  23292418.297 7 122402495.353 7        43.400                    95378579.87047
        27.600    23292421.01247
  22695982.258 8 119268206.967 8        45.900                    92936292.55148
        32.500    22695986.16848
  24868481.078 6 130684706.558 6        40.500    24868485.258 5 101832295.26946
        21.300    24868484.96546
  20284727.570 9 106597001.483 9        54.300    20284734.637 9  83062640.88549
        48.800    20284733.78549  20284730.941 7  79601686.819 7        43.600
  23978550.000 7 126008169.742 7        42.000    23978557.191 7  98188238.77447
        28.100    23978556.49247  23978554.238 3  94097059.498 3        32.600
  22030667.117 9 115771949.191 9        48.200                    90211935.11949
        36.900    22030670.60549
 15  8 24  0 44  0.0000000  0  9G05G07G02G20G28G15G30G09G13
  20690422.711 9 108728903.892 9        53.800    20690427.289 9  84723875.99449
        46.900    20690426.76649
  21564665.875 9 113323122.696 9        51.300    21564670.152 8  88303762.99249
        41.300    21564669.57449
  24058350.133 7 126427494.017 7        42.600                    98514943.23847
        25.500    24058350.80147
  23275121.875 7 122311600.987 7        43.900                    95307753.09947
        28.800    23275125.71547
  22680038.328 8 119184421.540 8        46.300                    92871005.22848
        32.400    22680041.93448
  24849878.172 6 130586947.600 6        39.400    24849882.609 5 101756119.43746
        21.700    24849881.45746
  20287294.234 9 106610487.744 9        54.100    20287301.309 9  83073149.66249
        48.700    20287300.44949  20287297.719 7  79611757.733 7        42.900
  23995865.531 7 126099161.935 7        43.000    23995871.855 7  98259141.77447
        27.500    23995871.01647  23995869.402 3  94165008.171 3        32.800
  22016321.930 9 115696564.857 9        48.100                    90153194.08949
        37.700    22016325.78949
 15  8 24  0 44 30.0000000  0  9G05G07G02G20G28G15G30G09G13
  20689261.133 9 108722799.692 9        54.100    20689264.906 9  84719119.46949
        46.400    20689264.60549
  21577589.695 9 113391036.483 9        51.700    21577593.598 8  88356682.82149
        42.000    21577593.26649
  24075355.828 5 126516863.549 5        37.800                    98584581.88747
        25.500    24075358.85247
  23257882.773 7 122221009.250 7        43.700                    95237162.15347
        27.200    23257886.34847
  22664150.977 8 119100936.193 8        46.500                    92805951.74648
        32.300    22664155.20748
  24831280.664 6 130489220.279 6        38.200    24831285.379 5 101679968.29446
        21.100    24831284.92246
  20289952.070 9 106624455.749 9        55.700    20289958.906 9  83084033.82349
        48.600    20289958.01249  20289955.340 7  79622188.388 7        43.400
  24013201.938 7 126190266.152 7        42.300    24013208.992 7  98330132.04147
        25.800    24013208.37547  24013206.238 3  94233040.524 3        32.700
  22002012.773 9 115621370.644 9        49.500                    90094601.21449
        37.500    22002016.58649
 15  8 24  0 45  0.0000000  0  9G05G07G02G20G28G15G30G09G13
  20688207.711 9 108717264.148 9        53.500    20688212.613 9  84714806.06249
        46.600    20688211.97349
  21590569.070 9 113459242.692 9        51.400    21590573.207 8  88409830.52149
        42.000    21590572.20749
  24092384.219 7 126606341.572 7        44.100                    98654304.89647
        27.800    24092385.12547
  23240702.195 7 122130722.488 7        43.900                    95166808.82347
        27.000    23240704.71547
  22648322.859 8 119017753.861 8        45.900                    92741134.34948
        32.400    22648325.67648
  24812690.117 6 130391525.265 6        38.200    24812694.449 5 101603842.36646
        22.800    24812694.37146
  20292701.492 9 106638904.443 9        55.200    20292708.363 9  83095292.55649
        48.700    20292707.54349  20292704.871 7  79632978.004 7        43.800
  24030559.633 6 126281481.760 6        40.900    24030566.574 7  98401209.13147
        26.400    24030565.97747  24030564.129 3  94301156.059 3        33.100
  21987740.188 9 115546367.611 9        49.200                    90036157.30049
        37.700    21987744.43049
 15  8 24  0 45 30.0000000  0  9G05G07G02G20G28G15G30G09G13
  20687262.531 9 108712297.657 9        53.800    20687267.098 9  84710936.06949
        46.800    20687266.44549
  21603603.414 9 113527739.417 9        51.500    21603607.219 8  88463204.59449
        41.400    21603606.57449
  24109429.305 5 126695924.780 5        37.200                    98724110.01646
        22.600    24109432.43846
  23223579.289 7 122040743.357 7        44.400                    95096695.21847
        28.100    23223582.90247
  22632551.148 8 118934876.749 8        45.900                    92676554.78948
        33.000    22632555.07848
  24794105.664 6 130293863.659 6        40.900    24794109.883 5 101527742.45146
        22.800    24794109.46146
  20295542.211 9 106653832.619 9        54.700    20295549.336 9  83106924.91249
        48.700    20295548.47749  20295545.629 7  79644125.680 7        43.800
  24047938.883 7 126372808.062 7        41.900    24047945.465 7  98472372.42447
        27.700    24047945.12147  24047943.336 4  94369354.216 4        34.000
  21973504.172 9 115471556.377 9        48.800                    89977862.84849
        37.500    21973507.54349
 15  8 24  0 46  0.0000000  0  9G05G07G02G20G28G15G30G09G13
  20686426.125 9 108707900.750 9        53.900    20686430.371 9  84707509.90649
        47.100    20686429.85949
  21616693.156 9 113596524.661 9        51.400    21616697.293 8  88516803.48549
        41.300    21616696.71549
  24126497.438 6 126785610.295 6        39.100                    98793994.80647
        26.300    24126500.37147
  23206516.227 7 121951074.372 7        44.500                    95026823.30347
        29.100    23206519.73447
  22616838.852 8 118852307.552 8        46.300                    92612215.18248
        33.100    22616843.21948
  24775527.773 6 130196236.249 6        40.500    24775532.762 5 101451669.11746
        22.800    24775531.94146
  20298474.023 9 106669239.210 9        54.800    20298481.320 9  83118930.05049
        48.600    20298480.25849  20298477.645 7  79655630.604 7        43.500
  24065338.742 7 126464244.418 7        42.100    24065345.535 7  98543621.50047
        27.200    24065345.00847  24065342.457 3  94437634.562 3        32.500
  21959304.609 9 115396937.943 9        49.300                    89919718.61849
        37.900    21959308.83249
 15  8 24  0 46 30.0000000  0  9G05G07G02G20G28G15G30G09G13
  20685698.047 9 108704074.524 9        53.900    20685702.699 9  84704528.42149
        46.700    20685702.09449
  21629837.227 9 113665596.571 9        51.900    21629841.152 9  88570625.75649
        41.300    21629840.74249
  24143582.383 6 126875395.280 6        39.700                    98863957.07746
        22.800    24143584.18046
  23189512.422 7 121861717.963 7        44.300                    94957194.93147
        27.900    23189514.77747
  22601185.844 8 118770049.085 8        45.400                    92548117.70448
        33.400    22601189.62548
  24756956.195 6 130098644.080 6        39.200    24756961.633 5 101375623.26746
        22.000    24756961.01246
  20301496.734 9 106685123.188 9        55.200    20301503.809 9  83131307.17949
        48.800    20301502.97749  20301500.129 7  79667492.023 7        43.600
  24082758.375 6 126555790.287 6        40.100    24082765.215 7  98614955.91247
        26.400    24082764.96147  24082762.414 3  94505996.702 3        32.600
  21945142.547 9 115322513.630 9        50.400                    89861725.66649
        38.100    21945146.27349
 15  8 24  0 47  0.0000000  0  9G05G07G02G20G28G15G30G09G13
  20685078.313 9 108700818.445 9        53.800    20685082.563 9  84701991.21349
        46.800    20685082.13349
  21643034.711 9 113734953.232 9        51.000    21643038.867 8  88624669.90249
        41.400    21643038.76649
  24160686.938 6 126965276.434 6        38.600                    98933994.36647
        26.700    24160689.48447
  23172568.563 7 121772676.677 7        44.300                    94887812.11847
        28.100    23172571.12547
  22585592.352 8 118688103.839 8        46.000                    92484264.27648
        32.800    22585595.34848
  24738392.047 6 130001087.639 6        38.100    24738396.762 5 101299605.21246
        20.100    24738396.53146
  20304609.734 9 106701483.264 9        54.600    20304616.715 9  83144055.29349
        48.800    20304615.84849  20304613.176 7  79679708.965 7        43.400
  24100199.773 7 126647444.972 7        41.600    24100207.031 7  98686375.13347
        26.600    24100206.12547  24100203.691 3  94574440.103 3        32.600
  21931016.734 9 115248284.387 9        48.800                    89803884.71349
        37.700    21931020.58249
 15  8 24  0 47 30.0000000  0  9G05G07G02G20G28G15G30G09G13
  20684567.656 9 108698134.025 9        53.000    20684571.883 9  84699899.44649
        47.200    20684571.22349
  21656287.164 9 113804593.088 9        51.300    21656291.094 8  88678934.72649
        41.100    21656290.57049
  24177809.500 6 127055251.310 6        40.200                    99004104.55546
        22.800    24177809.67646
  23155684.648 7 121683953.245 7        43.800                    94818676.96947
        28.600    23155687.49247
  22570058.023 8 118606474.256 8        46.200                    92420656.82348
        32.800    22570061.83248
  24719834.633 6 129903568.054 6        40.800    24719839.492 5 101223615.93946
        22.500    24719838.70346
  20307813.477 9 106718318.477 9        54.700    20307820.461 9  83157173.64749
        48.600    20307819.74649  20307817.133 7  79692280.718 7        43.900
  24117662.359 6 126739207.903 6        40.400    24117669.285 7  98757878.68347
        26.300    24117668.44947  24117666.895 3  94642964.350 3        33.100
  21916928.602 9 115174250.850 9        49.000                    89746196.25349
        37.700    21916932.20749
 15  8 24  0 48  0.0000000  0  9G05G07G02G20G28G15G30G09G13
  20684165.516 9 108696021.204 9        54.100    20684170.125 9  84698253.08749
        47.200    20684169.24249
  21669592.641 9 113874513.843 9        51.900    21669596.633 8  88733418.43449
        41.400    21669596.13749
  24194947.281 6 127145315.993 6        38.600                    99074284.94147
        26.400    24194949.91447
  23138862.031 7 121595549.764 7        43.200                    94749791.11947
        27.900    23138864.70347
  22554585.125 8 118525163.631 8        46.200                    92357297.92548
        33.300    22554589.53948
  24701284.016 7 129806086.225 7        41.400    24701289.352 5 101147656.06446
        21.700    24701288.46146
  20311107.406 9 106735627.282 9        54.900    20311114.199 9  83170661.03549
        48.800    20311113.37949  20311110.707 7  79705206.130 7        43.400
  24135144.680 6 126831078.083 6        39.800    24135151.398 7  98829465.78747
        26.400    24135150.99647  24135148.914 2  94711568.651 2        31.900
  21902878.148 9 115100414.144 9        49.100                    89688661.16849
        38.600    21902881.73049
 15  8 24  0 48 30.0000000  0  9G05G07G02G20G28G15G30G09G13
  20683872.281 9 108694481.004 9        53.900    20683876.996 9  84697052.93549
        47.200    20683876.12949
  21682951.352 9 113944714.055 9        51.600    21682955.391 8  88788119.90549
        41.300    21682955.01249
  24212103.000 6 127235468.439 6        40.800                    99144533.41846
        23.200    24212104.73846
  23122100.547 7 121507469.182 7        43.000                    94681156.91347
        28.200    23122104.45347
  22539173.367 8 118444173.748 8        47.000                    92294188.94648
        33.400    22539177.03548
  24682741.883 6 129708643.033 6        40.700    24682746.840 5 101071726.35746
        21.500    24682746.35546
  20314491.211 9 106753409.021 9        54.400    20314498.031 9  83184516.93649
        49.100    20314497.18449  20314494.453 7  79718484.711 7        43.700
  24152646.789 6 126923055.363 6        38.800    24152654.199 7  98901136.36647
        26.500    24152653.67247  24152651.355 3  94780252.941 3        32.400
  21888865.156 9 115026775.395 9        49.000                    89631280.33949
        38.700    21888868.46549
 15  8 24  0 49  0.0000000  0  9G05G07G02G20G28G15G30G09G13
  20683688.273 9 108693513.448 9        53.700    20683692.637 9  84696298.98849
        46.900    20683692.08649
  21696362.656 9 114015191.642 9        51.000    21696366.707 8  88843037.49349
        41.200    21696366.45749
  24229274.180 6 127325704.755 6        39.400                    99214847.67346
        24.900    24229275.22346
  23105401.602 7 121419714.050 7        42.800                    94612776.29747
        27.500    23105404.11347
  22523823.125 8 118363507.391 8        47.300                    92231332.05448
        33.500    22523827.12148
  24664206.672 7 129611239.306 7        41.300    24664211.543 5 100995827.39146
        22.500    24664211.41446
  20317964.438 9 106771662.299 9        54.700    20317971.574 9  83198740.27949
        48.800    20317970.78949  20317968.059 7  79732115.413 7        42.900
  24170169.766 6 127015138.938 6        39.600    24170177.184 7  98972889.76347
        28.000    24170176.81347  24170174.379 3  94849016.595 3        32.200
  21874889.977 9 114953335.716 9        49.900                    89574054.62249
        38.000    21874893.68049
 15  8 24  0 49 30.0000000  0  9G05G07G02G20G28G15G30G09G13
  20683613.242 9 108693118.915 9        52.600    20683617.668 9  84695991.55449
        47.000    20683616.99649
  21709826.797 9 114085944.626 9        51.500    21709830.305 8  88898169.68749
        41.600    21709830.11749
  24246461.445 6 127416022.224 6        40.500                    99285224.72847
        27.300    24246464.04347
  23088764.859 7 121332286.936 7        42.500                    94544651.25847
        29.400    23088768.18447
  22508534.891 8 118283167.331 8        47.000                    92168729.42848
        33.600    22508539.00448
  24645679.141 6 129513875.848 6        39.200    24645682.965 4 100919959.77545
        19.300    24645682.61745
  20321527.570 9 106790385.765 9        54.500    20321534.516 9  83213329.99949
        48.700    20321533.73049  20321530.766 7  79746097.222 7        43.900
  24187713.680 6 127107327.996 6        40.200    24187720.535 7  99044725.36247
        26.700    24187720.21947  24187717.727 3  94917859.038 3        32.100
  21860953.203 9 114880095.772 9        49.700                    89516984.55249
        39.300    21860956.54349
 15  8 24  0 50  0.0000000  0  9G05G07G02G20G28G15G30G09G13
  20683647.234 9 108693298.569 9        53.300    20683652.000 9  84696131.53949
        47.200    20683651.22349
  21723342.203 9 114156971.538 9        51.100    21723346.551 8  88953515.34249
        40.800    21723346.12949
  24263662.508 7 127506418.092 7        42.000                    99355663.05146
        20.400    24263663.97346
  23072191.422 7 121245190.213 7        43.300                    94476783.69647
        29.400    23072193.75447
  22493309.328 8 118203156.127 8        47.200                    92106383.05749
        34.000    22493313.42649
  24627159.242 6 129416553.956 6        39.300    24627163.934 5 100844124.53146
        21.700    24627162.87146
  20325179.617 9 106809578.650 9        54.800    20325186.148 9  83228285.49249
        48.600    20325185.37549  20325182.703 7  79760429.573 7        43.000
  24205276.516 6 127199622.317 6        39.200    24205282.949 7  99116642.99546
        24.300    24205282.67646  24205281.301 2  94986780.094 2        31.300
  21847053.914 9 114807056.980 9        50.200                    89460071.21949
        38.400    21847057.62549
 15  8 24  0 50 30.0000000  0  9G05G07G02G20G28G15G30G09G13
  20683790.461 9 108694051.662 9        53.100    20683794.961 9  84696718.36349
        47.000    20683794.25849
  21736910.070 9 114228270.063 9        50.600    21736914.418 8  89009072.62249
        41.300    21736913.70349
  24280877.211 5 127596889.403 5        36.300                    99426160.31046
        22.200    24280879.88746
  23055679.773 7 121158426.183 7        43.100                    94409175.34947
        29.300    23055683.21947
  22478146.898 8 118123476.075 8        47.600                    92044294.73848
        33.400    22478150.91048
  24608647.070 6 129319274.105 6        38.400    24608651.891 5 100768322.07046
        22.200    24608651.04346
  20328921.164 9 106829239.338 9        54.700    20328927.801 9  83243605.51849
        48.500    20328926.85249  20328924.301 7  79775111.267 7        43.000
  24222859.234 6 127292020.847 6        38.700    24222865.867 7  99188641.80647
        27.600    24222865.42647  24222863.699 2  95055778.955 2        31.900
  21833193.797 9 114734219.968 9        49.800                    89403315.12749
        38.800    21833197.12549
 15  8 24  0 51  0.0000000  0  9G05G07G02G20G28G15G30G09G13
  20684043.500 9 108695379.298 9        52.700    20684047.535 9  84697752.87449
        46.900    20684046.77049
  21750529.266 9 114299838.627 9        51.200    21750533.426 8  89064840.34049
        40.900    21750532.72749
  24298108.461 6 127687432.936 6        40.500                    99496713.58547
        26.200    24298111.01647
  23039233.359 7 121071997.592 7        43.600                    94341828.40047
        28.700    23039236.85947
  22463047.773 8 118044129.901 8        47.900                    91982466.56849
        34.000    22463050.97749
  24590144.156 6 129222037.627 6        38.600    24590148.363 5 100692553.42046
        22.600    24590147.04346
  20332751.102 9 106849366.796 9        54.500    20332758.027 9  83259289.25649
        48.600    20332757.16849  20332754.555 7  79790141.518 7        43.200
  24240462.211 6 127384523.228 6        40.200    24240469.488 7  99260721.53447
        28.100    24240469.11347  24240466.973 3  95124855.353 3        32.600
  21819372.242 9 114661586.051 9        49.200                    89346717.27649
        38.800    21819375.62149
 15  8 24  0 51 30.0000000  0  9G05G07G02G20G28G15G30G09G13
  20684405.383 9 108697281.465 9        53.700    20684409.520 9  84699235.07149
        47.000    20684408.76249
  21764199.156 9 114371675.339 9        50.500    21764203.332 8  89120816.99749
        41.100    21764202.67249
  24315350.516 6 127778045.559 6        38.400                    99567320.84446
        20.600    24315351.21546
  23022850.773 7 120985906.737 7        43.500                    94274744.62648
        30.300    23022854.17648
  22448012.266 8 117965120.278 8        47.500                    91920900.64548
        33.900    22448016.17648
  24571647.805 5 129124845.292 5        37.400    24571653.559 5 100616819.19146
        22.200    24571652.96546
  20336669.727 9 106869959.657 9        54.400    20336676.520 9  83275335.64749
        48.900    20336675.76249  20336672.859 7  79805519.307 7        43.600
  24258084.297 7 127477128.516 7        41.000    24258090.832 7  99332881.49347
        27.100    24258090.39147  24258088.602 2  95194008.624 2        31.900
  21805589.102 9 114589156.104 9        49.900                    89290278.36649
        39.200    21805592.63349
 15  8 24  0 52  0.0000000  0  9G05G07G02G20G28G15G30G09G13
  20684876.883 9 108699758.870 9        54.400    20684881.113 9  84701165.51749
        47.200    20684880.56649
  21777919.742 9 114443778.402 9        50.500    21777924.020 8  89177001.19849
        40.800    21777923.28949
  24332607.398 6 127868724.706 6        38.300                    99637979.94446
        22.900    24332608.08646
  23006532.953 7 120900156.626 7        43.500                    94207926.34947
        28.800    23006536.25047
  22433042.125 9 117886449.763 9        48.000                    91859598.97049
        34.400    22433046.18449
  24553160.898 5 129027697.762 5        37.300    24553166.809 6 100541119.84346
        22.000    24553167.01246
  20340676.742 9 106891016.876 9        54.800    20340684.047 9  83291743.87449
        48.700    20340683.07849  20340680.230 7  79821243.858 7        43.400
  24275726.180 7 127569836.430 7        41.100    24275732.738 6  99405121.39247
        26.000    24275732.34447  24275730.438 3  95263238.523 3        32.400
  21791845.422 9 114516931.250 9        49.800                    89233999.27349
        38.700    21791848.39549
 15  8 24  0 52 30.0000000  0  9G05G07G02G20G28G15G30G09G13
  20685457.531 9 108702811.457 9        52.500    20685461.801 9  84703544.14949
        46.800    20685461.46149
  21791691.078 9 114516145.876 9        50.500    21791695.082 8  89233391.43349
        40.800    21791694.35549
  24349875.531 7 127959466.976 7        42.000                    99708688.25447
        25.100    24349876.50047
  22990280.898 7 120814749.580 7        44.300                    94141375.40648
        30.000    22990284.06648
  22418136.109 8 117808120.503 8        47.600                    91798563.21049
        34.300    22418140.57449
  24534683.773 6 128930596.197 6        39.200    24534688.852 5 100465456.33446
        22.800    24534689.14146
  20344772.031 9 106912537.099 9        55.600    20344779.133 9  83308512.88349
        48.500    20344778.28549  20344775.555 7  79837314.158 7        43.400
  24293386.695 6 127662646.168 6        39.800    24293393.891 7  99477440.63747
        25.900    24293393.60547  24293390.879 1  95332544.469 1        30.500
  21778140.258 9 114444912.485 9        51.300                    89177880.75749
        38.800    21778143.84049
 15  8 24  0 53  0.0000000  0  9G05G07G02G20G28G15G30G09G13
  20686147.914 9 108706440.041 9        52.900    20686152.535 9  84706371.61249
        47.300    20686151.94949
  21805512.320 9 114588776.155 9        50.300    21805516.113 8  89289986.46449
        40.600    21805515.58649
  24367152.766 5 128050269.939 5        35.200                    99779443.78546
        20.600    24367155.25446
  22974094.094 7 120729687.977 7        44.400                    94075093.64148
        30.000    22974097.33648
  22403296.461 9 117730135.293 9        48.400                    91737795.55048
        33.700    22403299.70748
  24516215.508 6 128833541.619 6        40.600    24516220.027 5 100389829.43046
        24.000    24516219.64146
  20348955.031 9 106934519.157 9        55.300    20348961.965 9  83325641.76449
        48.600    20348961.39149  20348958.602 7  79853729.337 7        43.000
  24311067.766 6 127755557.143 6        40.800    24311074.055 7  99549838.74547
        26.900    24311073.85247  24311071.301 1  95401925.987 1        30.800
  21764474.914 9 114373100.985 9        51.400                    89121923.77149
        38.900    21764478.62549
 15  8 24  0 53 30.0000000  0  9G05G07G02G20G28G15G30G09G13
  20686948.063 9 108710643.965 9        53.300    20686952.426 9  84709647.38649
        47.000    20686951.56649
  21819382.500 9 114661666.949 9        50.000    21819387.141 8  89346784.48449
        40.200    21819386.27749
  24384445.211 6 128141129.878 6        39.700                    99850243.75846
        22.900    24384445.14146
  22957973.305 7 120644974.454 7        44.200                    94009083.10147
        29.700    22957977.06647
  22388522.375 9 117652496.734 9        48.700                    91677297.98149
        34.400    22388525.89149
  24497755.703 6 128736534.736 6        40.700    24497759.922 5 100314239.68646
        22.900    24497759.25846
  20353225.867 9 106956961.553 9        55.200    20353232.551 9  83343129.35549
        48.400    20353231.77049  20353229.039 7  79870488.274 7        43.000
  24328767.148 6 127848568.493 6        40.100    24328773.922 7  99622315.09347
        25.300    24328772.76647  24328771.328 3  95471382.477 3        32.200
  21750849.219 9 114301497.752 9        51.800                    89066129.05749
        39.400    21750853.03549
 15  8 24  0 54  0.0000000  0  9G05G07G02G20G28G15G30G09G13
  20687857.594 9 108715424.049 9        53.200    20687862.531 9  84713372.12649
        46.700    20687861.67649
  21833302.859 9 114734817.105 9        51.200    21833306.742 8  89403784.60049
        40.900    21833306.17249
  24401743.445 4 128232044.147 4        34.600                    99921086.07945
        17.800    24401746.20345
  22941919.719 8 120560611.354 8        45.000                    93943345.61648
        30.400    22941923.53148
  22373814.719 9 117575207.488 9        48.100                    91617072.62149
        34.200    22373818.35949
  24479306.094 7 128639576.470 7        41.300    24479309.512 6 100238687.80846
        24.100    24479308.53946
  20357583.641 9 106979863.135 9        55.200    20357590.473 9  83360974.74749
        48.500    20357589.62149  20357587.008 7  79887590.110 7        43.300
  24346485.633 6 127941679.716 6        40.900    24346492.383 7  99694869.25147
        25.400    24346491.34047  24346489.672 3  95540913.544 3        32.700
  21737262.977 9 114230103.454 9        51.300                    89010497.14949
        38.500    21737266.99649
 15  8 24  0 54 30.0000000  0  9G05G07G02G20G28G15G30G09G13
  20688876.672 9 108720780.366 9        53.900    20688881.617 9  84717545.87349
        46.800    20688880.67649
  21847271.531 9 114808224.259 9        51.300    21847275.875 8  89460984.99049
        40.100    21847275.19149
  24419054.711 6 128323009.732 6        38.600                    99991968.28846
        21.300    24419057.00846
  22925932.445 8 120476601.285 8        45.700                    93877883.24047
        29.900    22925936.66047
  22359173.813 9 117498269.492 9        48.800                    91557120.95849
        34.500    22359177.84449
  24460863.844 6 128542668.263 6        39.100    24460868.523 5 100163174.94846
        23.000    24460867.82846
  20362028.953 9 107003222.515 9        55.000    20362035.707 9  83379176.86349
        48.400    20362034.65649  20362031.867 7  79905033.810 7        42.800
  24364222.672 6 128034889.978 6        38.400    24364229.527 7  99767500.58846
        24.400    24364229.25446  24364227.172 2  95610518.569 2        31.300
  21723717.414 9 114158919.233 9        52.200                    88955028.94949
        39.200    21723721.29749
 15  8 24  0 55  0.0000000  0  9G05G07G02G20G28G15G30G09G13
  20690006.109 9 108726713.431 9        54.200    20690010.848 9  84722169.03249
        47.100    20690010.36749
  21861289.305 9 114881886.780 9        51.100    21861293.520 8  89518384.35649
        40.600    21861292.93449
  24436373.813 5 128414023.945 5        37.000                   100062888.44945
        19.000    24436375.55945
  22910014.766 8 120392946.998 8        45.800                    93812698.08948
        30.600    22910017.78948
  22344600.281 9 117421685.850 9        49.100                    91497445.42149
        34.900    22344603.75449
  24442432.031 6 128445810.316 6        39.500    24442436.516 6 100087701.28247
        25.600    24442436.70747
  20366560.805 9 107027038.645 9        55.900    20366567.727 9  83397734.89349
        48.700    20366567.02349  20366564.234 7  79922818.588 7        43.600
  24381978.945 6 128128199.090 6        39.600    24381985.797 7  99840208.96147
        26.500    24381985.64547  24381982.453 1  95680197.414 1        30.500
  21710211.828 9 114087946.449 9        52.300                    88899725.48249
        39.200    21710215.26249
 15  8 24  0 55 30.0000000  0  9G05G07G02G20G28G15G30G09G13
  20691244.438 9 108733223.354 9        54.900    20691249.371 9  84727241.69449
        46.800    20691248.85549
  21875355.469 9 114955802.781 9        51.400    21875359.293 8  89575981.22549
        40.600    21875358.94549
  24453701.875 6 128505083.772 6        38.800                   100133844.23146
        21.300    24453703.44946
  22894163.461 8 120309650.840 8        46.200                    93747791.98448
        31.400    22894166.58648
  22330094.453 8 117345458.485 8        47.800                    91438047.49049
        34.600    22330098.44949
  24424010.430 6 128349003.991 6        38.700    24424015.289 6 100012267.76846
        24.000    24424014.83646
  20371179.523 9 107051310.113 9        55.700    20371186.516 9  83416647.73049
        48.400    20371185.68049  20371183.008 7  79940943.390 7        43.500
  24399754.516 6 128221606.150 6        39.900    24399761.215 7  99912993.63847
        26.200    24399760.81647  24399758.207 2  95749949.388 2        31.000
  21696746.711 9 114017186.071 9        52.100                    88844587.53349
        39.800    21696749.96949
 15  8 24  0 56  0.0000000  0  9G05G07G02G20G28G15G30G09G13
  20692593.375 9 108740310.004 9        53.700    20692598.332 9  84732763.75149
        47.000    20692597.85249
  21889468.398 9 115029970.314 9        50.700    21889472.578 8  89633774.10949
        40.200    21889472.04749
  24471037.859 6 128596185.979 6        38.100                   100204832.94446
        21.800    24471040.33646
  22878381.500 8 120226715.258 8        46.100                    93683166.87148
        31.400    22878384.53548
  22315656.859 9 117269589.972 9        49.300                    91378929.19049
        34.200    22315660.61349
  24405599.164 6 128252250.306 6        38.700    24405603.949 6  99936875.30846
        24.800    24405603.60546
  20375884.664 9 107076035.478 9        55.500    20375891.773 9  83435914.25849
        48.300    20375890.89149  20375888.277 7  79959407.150 7        42.900
  24417547.148 6 128315110.516 6        40.100    24417554.004 7  99985854.13047
        26.500    24417553.70747  24417552.035 2  95819774.024 2        31.300
  21683321.813 9 113946638.982 9        52.800                    88789615.79049
        39.700    21683325.77749
 15  8 24  0 56 30.0000000  0  9G05G07G02G20G28G15G30G09G13
  20694051.711 9 108747973.817 9        54.500    20694056.500 9  84738735.54849
        47.200    20694056.01649
  21903629.945 9 115104387.957 9        51.300    21903633.648 8  89691761.89149
        39.900    21903632.98849
  24488382.516 6 128687327.819 6        40.900                   100275852.51246
        22.300    24488383.58246
  22862668.625 8 120144142.719 8        46.600                    93618824.65248
        31.400    22862671.88348
  22301288.570 9 117194082.999 9        48.900                    91320092.61149
        34.700    22301292.34449
  24387197.461 6 128155550.142 6        38.900    24387202.016 6  99861524.53147
        25.800    24387201.85547
  20380675.953 9 107101213.587 9        55.900    20380683.039 9  83455533.57149
        48.500    20380682.07849  20380679.352 7  79978208.985 7        42.800
  24435358.414 6 128408711.562 6        40.500    24435366.012 6 100058789.97646
        23.200    24435365.31346  24435363.582 2  95889670.854 2        31.900
  21669938.000 9 113876306.620 9        52.500                    88734811.36349
        39.900    21669941.79749
 15  8 24  0 57  0.0000000  0  9G05G07G02G20G28G15G30G09G13
  20695619.797 9 108756214.748 9        54.000    20695624.512 9  84745157.05349
        47.000    20695624.10249
  21917838.430 9 115179053.752 9        51.500    21917842.402 8  89749943.02949
        40.300    21917841.90249
  24505732.469 6 128778506.232 6        39.200                   100346900.68846
        22.600    24505734.31646
  22847024.648 8 120061935.682 8        45.500                    93554767.22248
        30.500    22847027.99648
  22286989.977 9 117118939.888 9        48.500                    91261539.56449
        35.100    22286993.49249
  24368806.578 6 128058904.599 6        38.500    24368811.098 6  99786216.37247
        25.300    24368811.04747
  20385552.992 9 107126843.005 9        55.500    20385559.844 9  83475504.55049
        48.200    20385559.02749  20385556.180 7  79997347.841 7        43.100
  24453189.180 6 128502408.615 6        40.600    24453195.168 6 100131800.61546
        23.800    24453194.96546  24453193.121 2  95959639.379 2        31.300
  21656595.344 9 113806189.817 9        52.800                    88680174.90349
        39.400    21656598.74249
 15  8 24  0 57 30.0000000  0  9G05G07G02G20G28G15G30G09G13
  20697297.875 9 108765032.519 9        53.900    20697302.902 9  84752028.02849
        46.800    20697302.30549
  21932093.289 9 115253965.252 9        50.700    21932097.590 8  89808315.62149
        39.500    21932097.05949
  24523089.523 6 128869718.314 6        38.600                   100417975.00646
        22.900    24523092.22746
  22831451.656 8 119980096.592 8        46.200                    93490996.51648
        31.400    22831455.34848
  22272759.594 9 117044163.061 9        49.200                    91203271.92449
        35.300    22272763.48449
  24350426.195 6 127962314.591 6        39.600    24350431.004 6  99710951.44747
        25.000    24350429.92247
  20390515.898 9 107152922.177 9        54.900    20390522.387 9  83495825.98849
        48.300    20390521.53949  20390518.750 7  80016822.554 7        42.800
  24471037.500 7 128596200.879 7        41.000    24471044.191 7 100204885.47046
        24.700    24471043.77046  24471041.746 2  96029679.016 2        31.000
  21643293.797 9 113736289.587 9        52.500                    88625707.20249
        39.600    21643297.34849
 15  8 24  0 58  0.0000000  0  9G05G07G02G20G28G15G30G09G13
  20699085.742 9 108774427.540 9        54.100    20699090.250 9  84759348.82149
        47.200    20699089.96949
  21946394.984 9 115329121.262 9        51.100    21946399.480 8  89866878.74849
        39.600    21946398.80549
  24540453.461 6 128960961.292 6        40.100                   100489073.42446
        23.800    24540454.92246
  22815948.523 7 119898628.056 7        44.700                    93427514.55648
        30.400    22815951.35548
  22258600.484 9 116969754.847 9        48.000                    91145291.50949
        35.500    22258604.22349
  24332056.047 6 127865781.059 6        38.800    24332060.441 6  99635730.52846
        24.000    24332060.34846
  20395563.992 9 107179450.040 9        55.800    20395571.066 9  83516497.05049
        48.200    20395570.03149  20395567.539 7  80036632.321 7        43.000
  24488903.188 7 128690087.906 7        41.300    24488910.430 7 100278044.13746
        24.700    24488910.06646  24488907.574 2  96099789.409 2        31.400
  21630033.789 9 113666607.134 9        51.600                    88571409.19749
        39.900    21630037.65649
 15  8 24  0 58 30.0000000  0  9G05G07G02G20G28G15G30G09G13
  20700983.648 9 108784400.124 9        53.300    20700988.090 9  84767119.66049
        46.700    20700987.65649
  21960742.961 9 115404520.073 9        50.900    21960747.207 8  89925631.06749
        39.600    21960746.72349
  24557820.664 5 129052232.072 5        37.000                   100560193.53346
        21.500    24557822.97746
  22800516.766 7 119817532.561 7        44.900                    93364323.25648
        31.400    22800520.28148
  22244511.852 9 116895717.744 9        49.100                    91087600.28449
        35.100    22244515.46549
  24313697.984 6 127769304.909 6        39.300    24313702.086 6  99560554.31746
        23.300    24313700.47746
  20400697.063 9 107206425.192 9        55.400    20400704.059 9  83537516.65749
        48.100    20400703.20749  20400700.477 7  80056776.109 7        43.100
  24506787.523 6 128784069.160 6        40.500    24506794.215 6 100351276.25446
        22.300    24506794.07846  24506791.590 2  96169970.182 2        31.000
  21616815.148 9 113597143.363 9        53.000                    88517281.59249
        40.200    21616818.57449
 15  8 24  0 59  0.0000000  0  9G05G07G02G20G28G15G30G09G13
  20702991.164 9 108794950.071 9        53.700    20702995.730 9  84775340.38149
        47.000    20702995.27749
  21975136.938 9 115480159.884 9        50.500    21975140.891 8  89984571.18049
        39.900    21975140.36749
  24575193.336 6 129143527.850 6        38.000                   100631333.09346
        22.500    24575196.26646
  22785156.266 8 119736812.654 8        45.100                    93301424.63848
        30.800    22785159.13748
  22230494.266 9 116822054.019 9        48.900                    91030199.99449
        35.500    22230497.79349
  24295350.211 6 127672887.365 6        40.900    24295354.070 6  99485423.75146
        24.400    24295354.02046
  20405915.141 9 107233846.211 9        54.800    20405922.109 9  83558883.68649
        48.300    20405921.11749  20405918.328 7  80077252.848 7        43.000
  24524688.734 6 128878143.792 6        40.900    24524696.457 6 100424581.11246
        22.800    24524695.47346  24524693.746 1  96240220.667 1        30.600
  21603638.086 9 113527899.433 9        52.000                    88463325.29649
        40.100    21603642.00849
 15  8 24  0 59 30.0000000  0  9G05G07G02G20G28G15G30G09G13
  20705108.422 9 108806077.209 9        52.800    20705113.121 9  84784010.87349
        47.000    20705112.41449
  21989575.750 9 115556038.518 9        50.500    21989580.293 7  90043697.38349
        38.700    21989579.62949
  24592571.352 5 129234845.437 5        37.200                   100702489.63646
        21.700    24592573.43446
  22769867.469 7 119656470.569 7        44.500                    93238820.43048
        31.100    22769870.16048
  22216547.820 9 116748766.103 9        49.200                    90973092.53849
        35.800    22216551.31349
  24277013.688 6 127576529.405 6        40.900    24277018.660 6  99410339.62346
        24.000    24277017.77046
  20411217.906 9 107261711.704 9        54.900    20411224.906 9  83580597.06549
        48.300    20411223.93449  20411221.320 7  80098061.501 7        43.200
  24542608.078 7 128972311.168 7        41.700    24542615.395 6 100497958.28346
        23.500    24542614.47346  24542612.980 1  96310540.424 1        30.500
  21590503.414 9 113458876.429 9        52.600                    88409541.15249
        40.600    21590507.28949
 15  8 24  1  0  0.0000000  0  9G05G07G02G20G28G15G30G09G13
  20707335.672 9 108817781.827 9        52.100    20707340.047 9  84793131.34549
        47.000    20707339.52049
  22004060.414 9 115632154.332 9        50.300    22004064.738 8  90103008.40349
        39.300    22004063.88349
  24609952.281 5 129326182.374 5        37.900                   100773661.29646
        21.300    24609953.43046
  22754651.266 7 119576509.065 7        44.800                    93176512.76648
        31.400    22754654.04748
  22202673.516 9 116675856.634 9        49.100                    90916279.97849
        36.200    22202677.35249
  24258688.383 6 127480231.826 6        40.000    24258693.070 6  99335302.55447
        25.900    24258692.60547
  20416604.648 9 107290020.306 9        55.400    20416611.547 9  83602655.71949
        48.100    20416610.77049  20416607.922 7  80119201.050 7        42.900
  24560545.117 6 129066570.665 6        40.700    24560552.598 6 100571407.20646
        24.100    24560551.67246  24560549.238 1  96380928.965 1        29.900
  21577411.375 9 113390075.594 9        52.400                    88355930.12549
        40.600    21577415.07049
 15  8 24  1  0 30.0000000  0 10G05G07G21G02G20G28G15G30G09G13
  20709672.945 9 108830063.486 9        52.900    20709677.551 9  84802701.46549
        46.900    20709676.85949
  22018589.602 9 115708505.595 9        49.800    22018593.574 8  90162502.89349
        39.400    22018593.37949
  25950870.445 3 136372751.56413        33.700

  24627335.844 5 129417535.205 5        37.700                   100844845.36846
        23.300    24627337.83646
  22739507.961 8 119496930.192 8        45.500                    93114503.26448
        31.400    22739510.80548
  22188872.109 9 116603327.698 9        48.700                    90859763.93849
        36.600    22188875.46949
  24240375.203 6 127383995.800 6        40.800    24240380.219 5  99260313.42147
        25.300    24240379.82847
  20422075.547 9 107318770.482 9        54.700    20422082.668 9  83625058.46449
        48.300    20422081.91449  20422079.012 7  80140670.345 7        43.400
  24578499.461 6 129160921.547 6        39.600    24578507.168 6 100644927.34646
        24.600    24578506.39846  24578504.316 1  96451385.769 1        29.100
  21564361.391 9 113321497.682 9        52.400                    88302492.79849
        40.400    21564365.08249
 15  8 24  1  1  0.0000000  0 10G05G07G21G02G20G28G15G30G09G13
  20712120.180 9 108842922.477 9        53.100    20712124.926 9  84812721.44949
        46.700    20712124.36749
  22033162.953 9 115785090.808 9        49.500    22033167.387 7  90222179.67749
        39.200    22033166.66849
  25942494.680 1 136328743.116 1        29.900

  24644721.289 5 129508901.308 5        37.000                   100916039.67146
        21.100    24644724.25846
  22724438.305 8 119417736.814 8        45.100                    93052794.15248
        31.100    22724440.49648
  22175142.805 9 116531181.662 9        48.900                    90803546.27249
        35.900    22175146.48849
  24222074.938 7 127287822.358 7        41.300    24222079.164 6  99185373.05746
        24.700    24222078.20746
  20427630.305 9 107347961.115 9        55.200    20427637.262 9  83647804.41549
        48.200    20427636.41049  20427633.566 7  80162468.554 7        42.900
  24596471.766 6 129255363.340 6        40.400    24596479.090 6 100718518.32146
        23.000    24596478.20746  24596476.539 1  96521910.460 1        30.600
  21551354.227 9 113253144.117 9        52.100                    88249230.29149
        40.500    21551357.40249
 15  8 24  1  1 30.0000000  0 10G05G07G21G02G20G28G15G30G09G13
  20714676.680 9 108856358.711 9        52.200    20714681.480 9  84823191.24149
        46.800    20714680.91849
  22047780.969 9 115861907.710 9        48.900    22047784.785 8  90282037.01549
        39.200    22047784.18849
  25934199.430 5 136285136.48915        35.000                   106196217.35555
        16.900    25934200.98845
  24662110.016 6 129600277.808 6        38.100                   100987242.15046
        21.500    24662112.71546
  22709441.281 7 119338931.185 7        43.700                    92991387.16848
        32.100    22709444.72748
  22161487.492 9 116459421.092 9        48.900                    90747628.95749
        36.300    22161491.27349
  24203786.242 6 127191712.573 6        40.500    24203789.977 6  99110482.32047
        26.500    24203789.57447
  20433268.664 9 107377590.650 9        54.800    20433275.578 9  83670892.37349
        48.100    20433274.72749  20433271.938 7  80184594.513 7        42.700
  24614460.492 6 129349895.354 6        39.600    24614466.988 6 100792179.59346
        22.500    24614466.67646  24614464.832 2  96592502.503 2        31.100
  21538389.820 9 113185016.210 9        51.700                    88196143.62049
        40.100    21538393.39849
 15  8 24  1  2  0.0000000  0 10G05G07G21G02G20G28G15G30G09G13
  20717343.320 9 108870371.539 9        51.500    20717347.980 9  84834110.31949
        47.000    20717347.50849
  22062442.664 9 115938954.505 9        48.100    22062446.918 8  90342073.47049
        38.800    22062446.32449
  25925978.141 5 136241933.186 5        37.700                   106162552.41845
        19.600    25925980.41845
  24679500.125 5 129691661.793 5        37.600                   101058450.48746
        22.300    24679501.93446
  22694519.680 7 119260515.705 7        44.700                    92930284.22348
        32.300    22694523.00448
  22147905.219 8 116388047.859 8        46.400                    90692013.46349
        36.400    22147909.14849
  24185508.656 7 127095667.337 7        41.400    24185513.055 6  99035641.85447
        26.400    24185512.56347
  20438990.469 9 107407657.452 9        54.700    20438997.316 9  83694321.05449
        48.300    20438996.52749  20438993.801 7  80207046.994 7        43.000
  24632466.250 6 129444516.650 6        40.000    24632473.254 6 100865910.44446
        22.900    24632472.66446  24632470.406 1  96663161.219 1        30.900
  21525468.352 9 113117114.555 9        49.700                    88143233.24649
        40.900    21525472.32049
 15  8 24  1  2 30.0000000  0 10G05G07G21G02G20G28G15G30G09G13
  20720119.484 9 108884961.403 9        52.500    20720124.324 9  84845479.03049
        47.300    20720123.94149
  22077147.133 8 116016229.646 8        47.500    22077151.629 8  90402287.85749
        39.500    22077151.05149
  25917833.820 5 136199134.415 5        36.900                   106129202.73645
        18.600    25917836.92645
  24696891.039 6 129783050.153 6        38.700                   101129662.11946
        24.300    24696893.49246
  22679672.258 8 119182493.112 8        45.700                    92869487.40148
        31.800    22679675.00848
  22134397.531 8 116317064.701 8        46.300                    90636701.93049
        36.500    22134401.21149
  24167245.086 7 126999687.572 7        42.900    24167249.289 6  98960852.44847
        27.300    24167248.58247
  20444794.484 9 107438160.294 9        54.500    20444801.684 9  83718089.50149
        48.400    20444800.71149  20444798.098 7  80229825.090 7        43.000
  24650488.375 6 129539226.857 6        39.200    24650495.559 6 100939710.55546
        22.500    24650495.55146  24650493.355 1  96733886.308 1        30.600
  21512590.602 9 113049440.238 9        49.700                    88090500.02249
        40.200    21512594.36349
 15  8 24  1  3  0.0000000  0 10G05G07G21G02G20G28G15G30G09G13
  20723005.844 9 108900128.202 9        52.700    20723010.363 9  84857297.30349
        47.000    20723009.80149
  22091895.813 8 116093732.060 8        47.900    22091899.672 8  90462679.34549
        38.900    22091899.34849
  25909765.766 3 136156741.329 3        33.600                   106096169.09445
        15.600    25909768.93845
  24714282.383 7 129874440.458 7        41.600                   101200875.29546
        23.000    24714283.69946
  22664900.523 8 119104865.870 8        45.500                    92808998.65548
        31.900    22664904.04348
  22120964.820 9 116246473.910 9        48.500                    90581696.13849
        35.800    22120968.11349
  24148992.719 6 126903775.017 6        40.300    24148997.285 6  98886115.37347
        27.000    24148996.53147
  20450682.086 9 107469097.982 9        55.100    20450688.879 9  83742196.80349
        48.000    20450688.16049  20450685.488 7  80252927.921 7        43.000
  24668528.945 6 129634025.394 6        38.800    24668535.867 6 101013579.54546
        24.900    24668535.56646  24668532.902 1  96804677.419 1        29.800
  21499755.953 9 112981994.853 9        52.100                    88037945.19049
        40.500    21499760.05949
 15  8 24  1  3 30.0000000  0  9G05G07G21G20G28G15G30G09G13
  20726001.813 9 108915871.868 9        52.100    20726006.516 9  84869565.08549
        46.900    20726006.09049
  22106686.703 8 116171459.108 8        47.600    22106690.785 8  90523245.87749
        38.500    22106689.98849
  25901776.477 3 136114755.28213        33.200                   106063452.70653
        13.900    25901777.47343
  22650204.203 8 119027636.371 8        45.700                    92748819.82048
        31.800    22650207.00848
  22107607.031 9 116176277.868 9        48.500                    90526997.92849
        36.100    22107610.31349
  24130754.180 7 126807930.291 7        41.700    24130758.918 6  98811431.17447
        27.500    24130758.63347
  20456651.672 9 107500468.993 9        55.000    20456658.625 9  83766641.75049
        47.800    20456657.82449  20456655.035 7  80276354.332 7        42.500
  24686585.297 6 129728911.751 6        39.600    24686592.090 7 101087516.91246
        23.200    24686592.21946  24686589.199 1  96875534.077 1        29.300
  21486965.570 9 112914779.608 9        52.200                    87985569.67749
        40.200    21486968.90249
 15  8 24  1  4  0.0000000  0  9G05G07G21G20G28G15G30G09G13
  20729107.539 9 108932192.163 9        53.000    20729111.887 9  84882282.19649
        47.000    20729111.13749
  22121520.070 9 116249409.017 9        48.400    22121524.313 7  90583986.05449
        38.700    22121523.68049
  25893862.992 5 136073177.179 5        35.200                   106031054.17155
        15.600    25893865.79745
  22635583.711 8 118950806.780 8        45.400                    92688952.60148
        31.900    22635587.02048
  22094324.281 9 116106478.467 9        48.300                    90472608.80449
        36.500    22094328.32849
  24112529.289 6 126712154.446 6        40.700    24112533.094 6  98736800.67347
        26.500    24112533.27747
  20462703.547 9 107532271.669 9        55.200    20462710.422 9  83791423.06049
        47.800    20462709.53149  20462706.801 7  80300103.085 7        42.800
  24704657.453 5 129823884.853 5        37.500    24704664.473 6 101161521.89846
        22.200    24704664.19946  24704661.883 1  96946455.541 1        29.800
  21474218.500 9 112847795.227 9        51.700                    87933374.06149
        40.600    21474222.06349
 15  8 24  1  4 30.0000000  0  9G05G07G21G20G28G15G30G09G13
  20732322.836 9 108949088.426 9        51.700    20732327.258 9  84895448.11149
        46.800    20732326.75449
  22136395.570 8 116327580.089 8        47.100    22136399.926 8  90644898.57949
        39.000    22136399.13349
  25886029.164 5 136032008.426 5        35.700                   105998974.59845
        17.800    25886031.71945
  22621040.500 8 118874379.352 8        46.000                    92629398.77248
        31.500    22621043.37548
  22081117.734 8 116037078.178 8        46.700                    90418530.67149
        37.000    22081121.31349
  24094316.508 6 126616448.333 6        40.900    24094320.438 6  98662224.45947
        25.800    24094319.93447
  20468837.281 9 107564504.473 9        54.500    20468844.063 9  83816539.53749
        48.000    20468843.07849  20468840.523 7  80324173.040 7        42.700
  24722746.906 6 129918944.101 6        38.600    24722752.922 6 101235594.01246
        22.500    24722752.97746  24722751.070 1  97017441.289 1        30.800
  21461516.391 9 112781042.820 9        50.500                    87881359.21349
        40.900    21461519.91049
 15  8 24  1  5  0.0000000  0  9G05G07G21G20G28G15G30G09G13
  20735647.445 9 108966560.464 9        53.000    20735652.219 9  84909062.67549
        46.600    20735651.73849
  22151313.125 8 116405970.788 8        46.900    22151317.164 8  90705982.23149
        38.800    22151316.29349
  25878273.492 4 135991249.946 4        34.700                   105967214.82145
        18.600    25878276.65245
  22606573.500 8 118798356.843 8        45.800                    92570160.43948
        32.600    22606577.23448
  22067987.680 8 115968079.032 8        47.300                    90364765.12049
        36.800    22067991.59449
  24076117.508 7 126520813.049 7        41.300    24076122.133 6  98587703.44747
        27.400    24076121.49247
  20475052.703 9 107597165.928 9        54.400    20475059.453 9  83841990.02349
        47.800    20475058.48849  20475055.816 7  80348563.090 7        42.800
  24740852.594 6 130014088.791 6        38.100    24740859.168 6 101309732.72946
        21.800    24740858.95346  24740857.281 1  97088490.852 1        29.600
  21448857.906 9 112714523.530 9        52.600                    87829526.00949
        40.700    21448861.39149
 15  8 24  1  5 30.0000000  0  9G05G07G21G20G28G15G30G09G13
  20739081.813 9 108984608.035 9        53.200    20739086.406 9  84923125.71049
        46.800    20739085.91849
  22166271.609 8 116484579.065 8        47.800    22166276.078 7  90767235.44049
        38.400    22166275.06349
  25870595.516 5 135950902.48615        35.600                   105935775.23255
        16.900    25870598.85245
  22592184.211 8 118722741.560 8        45.400                    92511239.45548
        31.500    22592187.16848
  22054934.586 8 115899483.504 8        47.300                    90311314.07749
        36.900    22054938.02049
  24057932.953 7 126425249.799 7        42.300    24057936.844 6  98513238.59947
        28.200    24057936.64847
  20481348.984 9 107630254.542 9        54.200    20481355.996 9  83867773.36749
        47.600    20481355.14549  20481352.531 7  80373272.129 7        42.900
  24758973.430 5 130109318.209 5        37.600    24758980.977 6 101383937.43646
        21.700    24758980.80146  24758978.484 1  97159603.692 1        29.000
  21436244.242 9 112648238.374 9        52.900                    87777875.23849
        41.300    21436247.66449
 15  8 24  1  6  0.0000000  0  9G05G07G21G20G28G15G30G09G13
  20742625.836 9 109003231.122 9        52.400    20742630.191 9  84937637.20349
        46.500    20742629.46149
  22181271.141 8 116563403.549 8        47.200    22181275.680 7  90828657.10749
        38.500    22181274.91449
  25862996.289 5 135910967.668 5        35.000                   105904657.17345
        16.300    25862999.54745
  22577872.961 8 118647535.869 8        45.500                    92452637.61348
        32.200    22577877.08248
  22041958.680 8 115831293.835 8        47.200                    90258179.28149
        37.500    22041962.19549
  24039760.961 7 126329759.672 7        41.300    24039765.738 6  98438830.73847
        26.400    24039765.23047
  20487726.727 9 107663769.125 9        54.400    20487733.465 9  83893888.62949
        47.500    20487732.72749  20487729.996 7  80398299.260 7        43.600
  24777111.031 6 130204632.000 6        38.300    24777119.023 7 101458207.87746
        23.000    24777118.55546  24777115.594 1  97230779.570 1        29.100
  21423675.438 9 112582189.067 9        49.500                    87726408.25949
        41.300    21423679.03149
 15  8 24  1  6 30.0000000  0  9G05G07G21G20G28G15G30G09G13
  20746278.781 9 109022428.894 9        52.600    20746283.473 9  84952596.50649
        46.600    20746282.88749
  22196312.109 8 116642441.878 8        47.400    22196315.590 7  90890245.42549
        37.900    22196315.02349
  25855475.891 5 135871447.03315        35.300                   105873861.90354
        14.800    25855479.19544
  22563640.602 8 118572742.253 8        45.800                    92394356.88748
        32.600    22563643.78548
  22029059.750 8 115763511.986 8        46.800                    90205362.26749
        37.200    22029063.53949
  24021604.445 7 126234343.575 7        44.100    24021608.398 6  98364480.54447
        27.400    24021607.84847
  20494185.125 9 107697707.839 9        54.600    20494191.770 9  83920334.38249
        47.900    20494190.85549  20494188.422 7  80423643.105 7        43.200
  24795265.469 6 130300029.122 6        38.200    24795272.688 6 101532543.26446
        24.900    24795272.55946  24795269.656 1  97302017.634 1        28.500
  21411151.438 9 112516375.757 9        51.200                    87675125.16649
        41.300    21411155.03549
 15  8 24  1  7  0.0000000  0  9G05G07G21G20G28G15G30G09G13
  20750041.406 9 109042201.187 9        51.300    20750046.070 9  84968003.47349
        46.400    20750045.33249
  22211392.648 8 116721692.826 8        47.200    22211396.531 7  90951999.41449
        37.900    22211396.18049
  25848035.219 5 135832340.982 5        36.000                   105843389.57645
        17.400    25848037.44145
  22549486.891 8 118498362.968 8        45.900                    92336398.99848
        32.300    22549489.55948
  22016239.453 8 115696140.571 8        47.000                    90152865.08349
        37.200    22016243.44549
  24003461.328 7 126139002.673 7        43.200    24003465.832 6  98290188.92147
        27.900    24003464.69547
  20500723.773 9 107732069.172 9        54.700    20500730.762 9  83947109.44849
        47.800    20500729.92249  20500727.250 7  80449302.540 7        42.900
  24813434.438 5 130395508.967 5        37.300    24813441.145 6 101606943.13246
        21.800    24813441.03946  24813438.254 1  97373317.499 1        30.400
  21398673.047 9 112450800.031 9        51.100                    87624027.21049
        41.400    21398676.48049
 15  8 24  1  7 30.0000000  0 10G05G07G21G08G20G28G15G30G09G13
  20753913.313 9 109062547.721 9        50.800    20753917.648 9  84983857.90449
        46.300    20753917.05949
  22226513.516 8 116801154.494 8        46.300    22226517.938 8  91013917.58049
        38.100    22226517.22749
  25840672.703 5 135793650.301 5        36.300                   105813241.02945
        16.900    25840674.66045
  25267019.930 5 132779061.86415        35.500

  22535411.961 8 118424400.289 8        46.500                    92278765.73848
        33.300    22535414.80548
  22003497.664 8 115629181.615 8        47.100                    90100689.29849
        37.300    22003501.31349
  23985332.813 6 126043738.000 6        40.400    23985337.973 6  98215956.73247
        26.300    23985336.52347
  20507342.633 9 107766851.694 9        55.200    20507349.496 9  83974212.71549
        47.600    20507348.80549  20507346.074 7  80475276.503 7        42.600
  24831618.781 6 130491070.824 6        38.200    24831625.855 6 101681406.87046
        21.300    24831625.12546  24831623.457 1  97444678.573 1        29.800
  21386239.844 9 112385463.405 9        50.500                    87573115.56149
        41.300    21386242.98449
 15  8 24  1  8  0.0000000  0 10G05G07G21G08G20G28G15G30G09G13
  20757894.297 9 109083468.789 9        51.400    20757898.934 9  85000160.02849
        46.400    20757898.35949
  22241674.656 8 116880825.639 8        47.600    22241678.695 8  91075998.98949
        38.100    22241678.17649
  25833387.508 5 135755376.751 5        35.400                   105783417.47645
        19.000    25833391.81345
  25259003.961 4 132736940.274 4        34.100    25259016.785 1 103431450.36211
        24.900
  22521417.328 8 118350857.007 8        46.700                    92221459.29348
        31.600    22521420.00048
  21990834.617 8 115562637.214 8        47.600                    90048836.53049
        37.500    21990838.18449
  23967220.109 7 125948550.892 7        42.200    23967224.152 6  98141784.98947
        27.800    23967223.56647
  20514041.156 9 107802054.295 9        55.400    20514048.152 9  84001643.32049
        47.500    20514047.45349  20514044.664 7  80501564.167 7        42.800
  24849819.148 5 130586714.584 5        37.900    24849826.723 6 101755934.44946
        21.100    24849825.36346  24849823.809 1  97516100.803 1        29.100
  21373852.266 9 112320366.979 9        51.200                    87522391.08149
        41.200    21373856.08649
 15  8 24  1  8 30.0000000  0 10G05G07G21G08G20G28G15G30G09G13
  20761984.656 9 109104963.539 9        51.100    20761989.680 9  85016909.18049
        46.400    20761988.84049
  22256875.305 8 116960703.835 8        46.800    22256878.969 7  91138241.73949
        37.400    22256878.41049
  25826185.195 4 135717521.39814        34.600                   105753919.80055
        17.400    25826188.55545
  25251069.758 2 132695244.82512        31.300

  22507502.352 8 118277735.357 8        45.500                    92164481.36748
        32.800    22507505.13348
  21978250.820 8 115496509.581 8        47.600                    89997308.51549
        37.500    21978254.64549
  23949121.398 7 125853442.387 7        42.000    23949125.754 6  98067674.49847
        27.800    23949125.33247
  20520820.172 9 107837675.150 9        55.200    20520827.020 9  84029399.82849
        47.300    20520826.27049  20520823.480 7  80528164.159 7        42.500
  24868034.453 5 130682439.151 5        37.900    24868042.730 6 101830525.01046
        22.000    24868042.17246  24868039.270 1  97587583.434 1        28.900
  21361510.805 9 112255511.584 9        51.300                    87471854.42349
        41.300    21361514.40649
 15  8 24  1  9  0.0000000  0 10G05G07G21G08G20G28G15G30G09G13
  20766184.227 9 109127031.352 9        51.200    20766188.746 9  85034104.87049
        46.500    20766188.25449
  22272114.289 8 117040787.626 8        46.400    22272118.461 7  91200644.69349
        37.300    22272118.13749
  25819061.070 5 135680084.970 5        35.100                   105724748.60245
        17.400    25819064.18045
  25243215.484 1                        28.300

  22493668.563 8 118205037.575 8        46.400                    92107833.74148
        32.800    22493671.60548
  21965747.102 8 115430800.849 8        47.200                    89946106.93149
        37.900    21965750.94949
  23931038.328 7 125758413.516 7        42.100    23931042.160 6  97993626.02547
        28.500    23931041.53547
  20527677.641 9 107873712.738 9        55.200    20527684.398 9  84057481.07249
        47.200    20527683.46549  20527681.145 7  80555075.350 7        42.600
  24886266.969 6 130778243.698 6        38.200    24886273.859 6 101905177.90446
        22.600    24886273.66046  24886270.523 1  97659125.809 1        27.500
  21349215.148 9 112190898.622 9        49.800                    87421506.67149
        40.900    21349219.68449
 15  8 24  1  9 30.0000000  0  9G05G07G21G20G28G15G30G09G13
  20770492.266 9 109149671.713 9        51.900    20770497.023 9  85051746.70149
        46.700    20770496.30949
  22287392.758 8 117121075.185 8        47.600    22287397.102 7  91263206.42749
        37.100    22287396.39849
  25812017.664 5 135643068.396 5        35.200                   105695904.49245
        17.400    25812019.48845
  22479916.055 8 118132766.061 8        47.200                    92051518.27848
        33.400    22479919.53948
  21953323.188 8 115365513.017 8        47.900                    89895233.31349
        37.800    21953327.05549
  23912969.867 7 125663465.380 7        41.100    23912974.301 6  97919640.49147
        27.900    23912973.52747
  20534614.305 9 107910165.417 9        55.700    20534620.895 9  84085885.76149
        47.500    20534620.00849  20534617.691 7  80582296.506 7        42.600
  24904513.031 5 130874127.849 5        37.900    24904519.773 6 101979892.77346
        22.000    24904519.10246  24904516.551 1  97730727.579 1        30.000
  21336966.492 9 112126529.101 9        52.000                    87371348.61849
        41.400    21336969.95349
 15  8 24  1 10  0.0000000  0  9G05G07G21G20G28G15G30G09G13
  20774909.688 9 109172884.035 9        51.400    20774914.066 9  85069834.21549
        46.400    20774913.24249
  22302709.195 9 117201564.801 9        48.200    22302713.508 8  91325925.59349
        37.700    22302712.68849
  25805053.508 5 135606472.474 5        35.700                   105667388.21945
        16.300    25805054.82845
  22466244.414 8 118060922.886 8        46.900                    91995536.57848
        33.000    22466247.56648
  21940980.242 9 115300647.937 9        48.900                    89844689.11749
        37.900    21940983.44549
  23894917.094 7 125568599.205 7        41.500    23894921.738 6  97845718.82747
        27.800    23894920.79747
  20541629.547 9 107947031.574 9        55.000    20541636.438 9  84114612.63849
        47.300    20541635.75049  20541632.961 7  80609826.434 7        42.600
  24922773.633 5 130970090.554 5        36.700    24922781.152 5 102054668.85045
        19.600    24922779.89145  24922778.805 1  97802387.980 1        30.300
  21324763.898 9 112062403.760 9        51.200                    87321380.83449
        41.300    21324767.16849
 15  8 24  1 10 30.0000000  0  9G05G07G21G20G28G15G30G09G13
  20779435.695 9 109196668.328 9        51.300    20779440.379 9  85088367.42049
        46.300    20779439.62149
  22318064.414 9 117282255.182 9        48.700    22318068.488 7  91388801.20649
        37.300    22318067.85249
  25798170.367 5 135570298.860 5        36.500                   105639200.95545
        16.300    25798172.07845
  22452655.078 8 117989510.892 8        47.000                    91939890.85748
        32.900    22452658.91448
  21928717.219 9 115236208.227 9        48.500                    89794476.38249
        37.900    21928720.92649
  23876880.641 7 125473815.910 7        42.400    23876884.938 6  97771861.74047
        27.500    23876884.16047
  20548723.570 9 107984310.049 9        54.700    20548730.184 9  84143660.80649
        47.500    20548729.14149  20548726.586 7  80637664.258 7        43.000
  24941049.773 5 131066131.444 5        36.500    24941056.230 6 102129505.95345
        19.900    24941056.05145  24941053.910 1  97874106.807 1        28.700
  21312607.836 9 111998524.375 9        51.300                    87271604.68649
        41.300    21312611.39149
 15  8 24  1 11  0.0000000  0  9G05G07G21G20G28G15G30G09G13
  20784070.438 9 109221024.082 9        50.800    20784074.910 9  85107345.92449
        46.700    20784074.09449
  22333457.047 9 117363144.340 9        48.100    22333460.969 7  91451831.72149
        37.300    22333460.41449
  25791366.945 5 135534548.085 5        36.800                   105611343.19445
        16.900    25791368.50445
  22439148.852 8 117918532.698 8        46.500                    91884583.19448
        33.700    22439152.38348
  21916536.117 9 115172195.718 9        48.600                    89744596.53349
        37.700    21916539.54749
  23858859.758 7 125379116.898 7        41.700    23858864.336 6  97698070.33047
        27.500    23858863.77347
  20555895.461 9 108021999.241 9        54.700    20555902.906 9  84173029.01349
        47.200    20555901.99249  20555899.203 7  80665808.781 7        42.300
  24959340.664 5 131162250.015 5        37.600    24959347.422 6 102204403.52046
        21.500    24959347.55146  24959344.941 1  97945883.662 1        28.800
  21300499.000 9 111934892.211 9        50.800                    87222021.20249
        41.700    21300502.54349
 15  8 24  1 11 30.0000000  0 10G05G07G21G08G20G28G15G30G09G13
  20788813.609 9 109245950.395 9        51.100    20788818.234 9  85126769.00949
        46.700    20788817.51249
  22348887.250 8 117444230.538 8        47.200    22348891.109 7  91515015.77049
        36.100    22348890.34849
  25784643.219 5 135499221.102 5        35.900                   105583815.64845
        15.600    25784646.71545
  25205188.227 3 132454199.57713        32.000

  22425724.852 8 117847989.591 8        46.800                    91829614.53848
        33.900    22425727.98048
  21904436.570 9 115108612.998 9        49.400                    89695051.56349
        38.300    21904440.34049
  23840854.945 7 125284503.104 7        42.900    23840859.934 6  97624345.31347
        28.400    23840859.46147
  20563145.523 9 108060097.462 9        55.200    20563152.613 9  84202715.94449
        47.200    20563151.71949  20563148.813 7  80694258.757 7        42.600
  24977645.945 5 131258445.299 5        37.100    24977652.746 6 102279360.87546
        20.900    24977651.78946  24977649.590 1  98017717.773 1        27.900
  21288437.297 9 111871508.128 9        50.800                    87172631.01449
        42.000    21288441.18849
 15  8 24  1 12  0.0000000  0 10G05G07G21G08G20G28G15G30G09G13
  20793665.594 9 109271446.472 9        51.600    20793670.191 9  85146636.07649
        46.200    20793669.60949
  22364354.320 9 117525511.623 9        49.100    22364358.668 7  91578351.67349
        37.600    22364358.12549
  25778002.836 5 135464318.381 5        35.500                   105556618.63445
        16.300    25778004.36745
  25197833.148 2                        31.000

  22412383.773 8 117777883.905 8        47.900                    91774986.72948
        33.800    22412387.46948
  21892419.547 8 115045461.808 8        47.600                    89645842.87149
        38.000    21892423.11749
  23822867.313 7 125189975.551 7        42.300    23822871.895 6  97550687.52247
        28.000    23822871.87147
  20570472.875 9 108098602.683 9        55.500    20570479.395 9  84232720.01349
        47.500    20570478.62149  20570475.773 7  80723012.664 7        42.800
  24995964.734 4 131354716.179 4        34.700    24995972.613 6 102354377.12745
        19.600    24995971.68045  24995969.480 1  98089608.392 1        26.700
  21276423.258 9 111808372.893 9        51.200                    87123434.74549
        41.600    21276426.92649
 15  8 24  1 12 30.0000000  0  9G05G07G21G20G28G15G30G09G13
  20798625.914 9 109297512.648 9        51.700    20798630.367 9  85166947.36849
        46.400    20798629.64149
  22379858.773 9 117606986.839 9        48.800    22379863.141 7  91641838.84549
        37.300    22379862.52749
  25771441.133 5 135429841.554 5        35.800                   105529753.57545
        16.900    25771444.78945
  22399127.086 8 117708218.527 8        47.600                    91720702.03948
        33.600    22399130.63748
  21880484.586 9 114982744.064 9        48.600                    89596971.91449
        38.200    21880488.20749
  23804895.711 7 125095535.776 7        41.500    23804900.336 6  97477098.11847
        27.800    23804899.69947
  20577877.211 9 108137514.000 9        55.200    20577884.305 9  84263040.52149
        47.300    20577883.39849  20577880.785 7  80752069.822 7        42.100
  25014299.141 5 131451062.769 5        35.500    25014307.137 6 102429452.33246
        20.100    25014306.56646  25014304.484 1  98161555.483 1        28.300
  21264456.508 9 111745488.403 9        51.600                    87074433.85249
        41.400    21264459.79749
 15  8 24  1 13  0.0000000  0  9G05G07G21G20G28G15G30G09G13
  20803694.055 9 109324148.244 9        52.300    20803698.887 9  85187702.36749
        46.400    20803698.18449
  22395399.453 9 117688654.196 9        48.200    22395403.813 7  91705475.74949
        36.500    22395403.03149
  25764962.188 4 135395791.493 4        34.800                   105503221.00945
        17.800    25764965.04345
  22385954.797 9 117638995.936 9        48.300                    91666762.36949
        34.000    22385957.79749
  21868632.750 9 114920462.049 9        49.700                    89548440.49649
        38.700    21868636.54749
  23786941.234 7 125001184.653 7        42.000    23786945.703 6  97403577.78647
        28.100    23786945.04347
  20585358.898 9 108176829.915 9        55.600    20585365.668 9  84293676.30449
        47.200    20585364.86349  20585362.250 7  80781429.114 7        42.900
  25032648.266 5 131547484.229 5        37.100    25032654.711 5 102504585.96545
        19.900    25032654.40245  25032653.203 1  98233558.497 1        29.400
  21252538.125 9 111682855.886 9        52.600                    87025629.29249
        42.000    21252541.38749
 15  8 24  1 13 30.0000000  0  9G05G07G21G20G28G15G30G09G13
  20808871.078 9 109351352.723 9        52.100    20808875.715 9  85208900.65649
        46.100    20808875.11349
  22410976.461 9 117770512.072 9        49.500    22410980.445 7  91769261.10649
        36.300    22410979.94149
  25758564.563 5 135362169.31415        35.900                   105477021.94955
        17.800    25758567.39845
  22372866.922 9 117570218.648 9        48.400                    91613169.67649
        34.100    22372870.03149
  21856863.898 8 114858617.519 8        47.800                    89500249.97049
        38.200    21856867.96949
  23769004.180 7 124906923.632 7        41.800    23769008.895 6  97330127.65147
        28.700    23769007.93847
  20592916.891 9 108216549.041 9        54.800    20592924.293 9  84324626.28049
        47.200    20592922.96549  20592920.469 7  80811089.501 7        42.800
  25051010.438 5 131643980.024 5        37.000    25051017.090 6 102579777.51046
        20.400    25051017.18446  25051015.160 1  98305617.045 1        29.100
  21240667.648 9 111620476.714 9        52.400                    86977022.16049
        41.900    21240671.25049
 15  8 24  1 14  0.0000000  0  9G05G07G21G20G28G15G30G09G13
  20814156.367 9 109379124.350 9        53.300    20814160.980 9  85230540.87149
        46.300    20814160.25849
  22426589.344 9 117852558.225 9        48.900    22426593.461 7  91833193.17349
        36.400    22426592.66849
  25752247.016 5 135328975.28415        35.500                   105451156.52055
        17.800    25752249.59845
  22359863.578 9 117501888.050 9        48.700                    91559925.05948
        32.800    22359867.05548
  21845178.859 9 114797212.298 9        48.800                    89452401.76849
        38.000    21845182.60249
  23751084.422 7 124812753.751 7        41.100    23751088.738 6  97256748.57047
        28.600    23751088.28147
  20600551.750 9 108256668.900 9        55.700    20600558.516 9  84355888.51049
        47.000    20600557.77749  20600554.930 7  80841049.138 7        42.100
  25069386.875 5 131740548.836 5        37.800    25069393.656 6 102655025.93546
        20.400    25069393.21146  25069391.598 1  98377730.079 1        28.600
  21228844.969 9 111558351.094 9        52.500                    86928612.59149
        42.100    21228849.32849
 15  8 24  1 14 30.0000000  0  9G05G07G21G20G28G15G30G09G13
  20819548.617 9 109407462.831 9        52.300    20819553.461 9  85252622.79749
        46.300    20819552.98049
  22442237.742 9 117934791.266 9        49.400    22442242.070 7  91897270.86649
        37.300    22442241.57449
  25746012.164 5 135296210.106 5        35.400                   105425625.20045
        19.300    25746015.28145
  22346946.539 9 117434006.598 9        48.300                    91507030.41148
        33.900    22346949.78548
  21833578.406 9 114736248.451 9        48.100                    89404897.48149
        38.700    21833581.60249
  23733181.977 7 124718675.800 7        41.700    23733186.707 6  97183441.09448
        30.500    23733186.53148
  20608262.344 9 108297188.057 9        55.200    20608269.164 9  84387461.87549
        46.800    20608268.28949  20608265.207 7  80871306.945 7        42.400
  25087777.008 5 131837190.053 5        37.400    25087784.359 6 102730330.76746
        20.600    25087784.09046  25087781.715 1  98449897.231 1        27.400
  21217072.086 9 111496480.160 9        51.000                    86880401.48649
        42.300    21217075.89849
 15  8 24  1 15  0.0000000  0  9G05G07G21G20G28G15G30G09G13
  20825048.906 9 109436367.969 9        52.500    20825053.168 9  85275146.27249
        46.100    20825052.78549
  22457921.734 9 118017209.863 9        48.800    22457925.695 7  91961493.14649
        36.600    22457925.32049
  25739858.914 5 135263875.04015        35.200                   105400429.02155
        19.000    25739861.97345
  22334115.070 9 117366576.681 9        48.500                    91454487.62549
        34.000    22334118.16449
  21822061.492 9 114675728.134 9        48.200                    89357738.80149
        39.000    21822065.05149
  23715297.711 7 124624691.300 7        42.600    23715301.645 6  97110206.45448
        30.400    23715301.42648
  20616048.383 9 108338105.331 9        55.600    20616055.414 9  84419345.47149
        47.000    20616054.72749  20616051.824 7  80901862.058 7        42.500
  25106181.594 5 131933903.268 5        37.800    25106188.988 6 102805691.65546
        21.300    25106188.60546  25106185.703 1  98522118.151 1        27.300
  21205347.039 9 111434865.958 9        51.300                    86832390.42149
        42.100    21205350.72749
 15  8 24  1 15 30.0000000  0 10G05G07G21G08G20G28G15G30G09G13
  20830657.266 9 109465838.949 9        51.900    20830662.051 9  85298110.65849
        46.500    20830661.45349
  22473640.328 9 118099812.302 9        48.700    22473644.277 7  92025858.67649
        36.500    22473643.55149
  25733786.930 5 135231971.145 5        35.000                   105375568.85445
        17.800    25733791.00045
  25148719.602 2 132157377.16212        31.500    25148727.891 2 102979833.34712
        31.400
  22321369.789 9 117299600.795 9        48.100                    91402298.63249
        34.500    22321373.42649
  21810629.883 9 114615653.190 9        49.600                    89310927.18149
        39.300    21810633.21949
  23697430.109 6 124530801.426 6        40.700    23697434.883 6  97037045.55047
        29.100    23697433.95747
  20623910.289 9 108379419.072 9        55.600    20623917.379 9  84451538.00049
        46.900    20623916.50049  20623913.770 7  80932713.233 7        42.500
  25124598.492 6 132030687.888 6        38.300    25124605.840 6 102881108.26346
        20.600    25124605.29346  25124602.977 1  98594392.357 1        28.600
  21193671.523 9 111373509.533 9        51.700                    86784580.24049
        42.000    21193675.24249
 15  8 24  1 16  0.0000000  0 10G05G07G21G08G20G28G15G30G09G13
  20836372.828 9 109495875.092 9        51.900    20836377.504 9  85321515.43449
        46.000    20836376.66849
  22489393.469 8 118182596.822 8        47.900    22489397.477 7  92090366.09349
        35.800    22489397.05149
  25727797.938 4                        34.200

  25142046.148 2 132122316.670 2        31.500    25142053.246 1 102952513.460 1
        28.900
  22308711.383 9 117233081.341 9        48.300                    91350465.28549
        34.900    22308715.18049
  21799282.680 9 114556025.706 9        48.100                    89264464.22749
        39.200    21799286.43849
  23679582.328 7 124437007.557 7        42.300    23679586.750 6  96963959.44947
        29.800    23679586.43047
  20631847.172 9 108421127.925 9        55.000    20631853.918 9  84484038.40949
        46.800    20631853.25049  20631850.578 7  80963859.461 7        42.800
  25143029.227 6 132127543.247 6        39.200    25143036.176 6 102956579.96946
        21.700    25143036.23046  25143033.680 1  98666719.415 1        29.600
  21182044.875 9 111312412.069 9        50.300                    86736971.82949
        42.400    21182048.49249
 15  8 24  1 16 30.0000000  0 10G05G07G21G08G20G28G15G30G09G13
  20842195.805 9 109526475.363 9        51.900    20842200.434 9  85345359.79449
        46.200    20842199.80149
  22505181.203 8 118265561.573 8        47.700    22505185.371 7  92155013.94549
        36.500    22505184.98049
  25721894.125 5 135169459.57915        37.100                   105326858.55655
        18.300    25721896.14145
  25135461.586 2 132087713.468 2        31.900    25135467.594 1 102925549.840 1
        28.300
  22296140.305 8 117167019.935 8        47.900                    91298988.87649
        34.600    22296144.07049
  21788021.688 9 114496847.953 9        49.900                    89218351.70549
        39.100    21788024.74249
  23661751.930 7 124343310.621 7        41.000    23661756.840 6  96890948.87347
        28.500    23661756.83647
  20639858.977 9 108463229.840 9        55.300    20639865.777 9  84516845.09749
        47.000    20639865.06649  20639862.453 7  80995299.197 7        42.600
  25161474.375 6 132224468.333 6        38.400    25161481.852 6 103032106.02746
        20.900    25161481.56646  25161478.258 1  98739098.541 1        28.800
  21170467.563 9 111251574.221 9        51.600                    86689565.72549
        42.500    21170471.35549
 15  8 24  1 17  0.0000000  0 10G05G07G21G08G20G28G15G30G09G13
  20848125.938 9 109557639.145 9        52.000    20848130.578 9  85369643.25149
        46.000    20848129.98049
  22521002.766 8 118348705.087 8        47.000    22521007.051 7  92219801.08049
        36.400    22521006.73449
  25716068.414 5 135138853.21115        35.700                   105303009.39455
        18.300    25716071.32045
  25128965.250 2 132053569.691 2        31.200    25128969.953 1 102898944.314 1
        28.100
  22283656.883 8 117101419.213 8        46.700                    91247871.44749
        34.000    22283660.19949
  21776846.641 9 114438121.421 9        48.400                    89172590.78849
        38.900    21776850.21149
  23643941.008 7 124249711.870 7        41.800    23643945.039 6  96818014.80547
        29.300    23643944.38747
  20647945.102 9 108505723.509 9        55.200    20647952.430 9  84549957.04749
        46.600    20647951.58249  20647948.910 7  81027031.481 7        42.600
  25179931.125 6 132321462.744 6        38.800    25179938.320 6 103107686.06546
        20.600    25179938.34846  25179935.504 1  98811529.386 1        29.300
  21158940.672 9 111190997.994 9        50.500                    86642363.47349
        42.400    21158944.00449
 15  8 24  1 17 30.0000000  0 10G05G07G21G08G20G28G15G30G09G13
  20854163.508 9 109589365.788 9        51.000    20854168.102 9  85394365.30149
        46.200    20854167.56649
  22536857.945 8 118432025.737 8        47.100    22536862.387 7  92284726.26249
        36.100    22536862.03949
  25710326.914 5 135108681.176 5        36.100                   105279498.69645
        16.900    25710329.45345
  25122555.695 1 132019887.251 1        29.900    25122560.148 1 102872698.288 1
        30.600
  22271261.672 8 117036281.276 8        46.500                    91197114.61749
        34.300    22271265.10249
  21765756.969 9 114379848.097 9        48.100                    89127183.02149
        38.800    21765760.00449
  23626148.352 7 124156212.376 7        42.400    23626153.117 7  96745158.08047
        29.300    23626152.39847
  20656105.609 9 108548607.192 9        55.100    20656112.586 9  84583372.90549
        46.600    20656111.69149  20656109.078 7  81059055.016 7        43.200
  25198401.523 6 132418525.669 6        38.000    25198409.078 6 103183319.48245
        18.300    25198408.41045  25198406.094 1  98884011.419 1        27.500
  21147463.414 9 111130684.249 9        50.700                    86595365.76849
        43.200    21147467.30949
 15  8 24  1 18  0.0000000  0 10G05G07G21G08G20G28G15G30G09G13
  20860307.898 9 109621654.466 9        51.600    20860312.363 9  85419525.30049
        46.000    20860311.91449
  22552747.250 8 118515521.778 8        47.000    22552751.188 7  92349788.11149
        35.400    22552750.69949
  25704667.602 3 135078943.96813        33.700                   105256326.83855
        17.400    25704670.46545
  25116231.039 1                        26.400

  22258954.672 8 116971608.162 8        47.400                    91146719.99649
        34.700    22258958.25049
  21754754.492 9 114322029.788 9        50.000                    89082129.82349
        38.700    21754757.87549
  23608375.656 7 124062813.543 7        41.800    23608378.984 6  96672379.82847
        28.800    23608378.60547
  20664340.086 9 108591879.387 9        54.800    20664347.133 9  84617091.50049
        46.800    20664346.16849  20664343.555 7  81091368.670 7        42.500
  25216885.117 6 132515656.516 6        39.800    25216892.883 6 103259005.83046
        22.000    25216892.37546  25216888.945 1  98956544.191 1        28.200
  21136036.125 9 111070634.184 9        51.700                    86548573.51149
        43.000    21136039.98049
 15  8 24  1 18 30.0000000  0  8G05G07G21G20G28G15G30G13
  20866558.867 9 109654504.387 9        51.200    20866563.742 9  85445122.63349
        45.900    20866563.16049
  22568668.734 8 118599192.359 8        46.500    22568673.359 7  92414985.97349
        35.400    22568672.85549
  25699092.398 4 135049642.493 4        34.300                   105233494.50145
        17.400    25699094.26645
  22246736.992 8 116907402.050 8        47.200                    91096689.27249
        34.500    22246739.65649
  21743839.391 9 114264669.362 9        50.800                    89037433.41249
        39.200    21743843.01649
  23590621.016 7 123969516.630 7        42.500    23590625.984 6  96599680.93747
        29.400    23590625.79747
  20672648.219 9 108635538.488 9        54.800    20672654.980 9  84651111.58149
        46.900    20672654.19949  20672651.469 7  81123971.243 7        42.600
  21124659.109 9 111010849.172 9        51.800                    86501987.79849
        42.900    21124662.93449
 15  8 24  1 19  0.0000000  0  8G05G07G21G20G28G15G30G13
  20872916.805 9 109687915.258 9        52.200    20872921.750 9  85471157.06349
        46.300    20872921.15649
  22584624.141 8 118683035.605 8        46.800    22584628.449 7  92480318.35349
        36.100    22584628.30549
  25693598.883 3 135020777.475 3        32.500                   105211002.35545
        16.900    25693600.96145
  22234608.008 8 116843666.069 8        47.500                    91047024.86749
        34.000    22234611.52749
  21733011.781 9 114207768.156 9        48.400                    88993094.82649
        39.200    21733015.44949
  23572887.453 7 123876323.422 7        42.900    23572892.227 7  96527062.87748
        30.300    23572891.72348
  20681029.648 9 108679583.338 9        55.300    20681036.672 9  84685432.24449
        46.400    20681035.84449  20681032.996 7  81156861.877 7        42.100
  21113333.664 9 110951331.027 9        51.000                    86455610.02849
        42.600    21113337.03549
 15  8 24  1 19 30.0000000  0  8G05G07G21G20G28G15G30G13
  20879381.188 9 109721885.321 9        51.800    20879385.898 9  85497627.23349
        46.200    20879385.27749
  22600611.289 8 118767049.279 8        47.000    22600615.359 7  92545783.54849
        35.800    22600615.07849
  25688188.383 3 134992349.46713        32.300                   105188850.66055
        17.400    25688192.71145
  22222569.156 8 116780401.507 8        47.700                    90997727.80749
        34.400    22222572.39849
  21722270.953 9 114151327.415 9        51.000                    88949115.04449
        39.400    21722274.81349
  23555173.375 7 123783234.390 7        42.400    23555177.758 6  96454525.98547
        29.300    23555176.81347
  20689483.797 9 108724011.644 9        54.500    20689490.813 9  84720051.70449
        46.400    20689489.70749  20689487.094 7  81190038.863 7        42.700
  21102058.328 9 110892080.043 9        52.400                    86409440.44149
        42.000    21102061.98849
 15  8 24  1 20  0.0000000  0  8G05G07G21G20G28G15G30G13
  20885951.789 9 109756413.781 9        52.100    20885956.605 9  85524532.52049
        45.800    20885956.05149
  22616630.633 8 118851231.791 8        47.500    22616634.512 7  92611380.31649
        36.100    22616634.23049
  25682862.828 4 134964359.08014        34.300                   105167039.99055
        17.800    25682866.89145
  22210620.984 9 116717610.392 9        48.400                    90948799.66949
        34.800    22210623.73449
  21711618.398 9 114095348.746 9        50.800                    88905495.32549
        38.700    21711622.42649
  23537478.805 7 123690250.681 7        42.300    23537483.070 6  96382071.17247
        29.400    23537482.48047
  20698011.055 9 108768821.650 9        54.700    20698017.953 9  84754968.59549
        46.600    20698017.16049  20698014.434 7  81223500.878 7        42.100
  21090834.117 9 110833097.339 9        52.000                    86363479.89249
        42.900    21090837.73449
 15  8 24  1 20 30.0000000  0  8G05G07G21G20G28G15G30G13
  20892628.328 9 109791500.022 9        51.900    20892633.418 9  85551872.43549
        46.400    20892632.79749
  22632682.109 8 118935581.957 8        47.500    22632686.262 7  92677107.72149
        34.700    22632685.60949
  25677619.648 4 134936806.908 4        34.800                   105145570.80545
        16.900    25677623.39845
  22198761.992 8 116655295.290 8        47.900                    90900242.44049
        34.700    22198765.25049
  21701054.766 9 114039834.305 9        50.800                    88862237.32849
        39.000    21701058.38749
  23519805.141 7 123597373.918 7        43.200    23519809.230 7  96309699.70848
        30.700    23519809.03548
  20706610.539 9 108814012.156 9        54.400    20706617.363 9  84790181.97149
        46.700    20706616.66449  20706613.699 7  81257247.033 7        41.800
  21079661.586 9 110774384.942 9        52.000                    86317729.98349
        43.400    21079664.93049
 15  8 24  1 21  0.0000000  0  8G05G07G21G20G28G15G30G13
  20899411.063 9 109827142.101 9        51.800    20899415.789 9  85579645.47449
        46.300    20899415.35549
  22648764.469 8 119020097.320 8        46.800    22648769.102 7  92742963.84249
        34.600    22648768.75049
  25672460.781 3 134909693.32913        33.000                   105124443.31155
        15.600    25672463.23445
  22186995.000 9 116593457.199 9        48.500                    90852056.92349
        35.300    22186997.74249
  21690579.234 9 113984785.396 9        48.800                    88819342.08649
        39.400    21690582.62949
  23502151.578 7 123504604.602 7        42.000    23502155.820 6  96237411.94948
        30.300    23502155.51248
  20715281.656 9 108859580.566 9        54.500    20715288.988 9  84825689.82649
        46.600    20715288.29349  20715285.563 7  81291275.391 7        42.500
  21068540.570 9 110715942.631 9        50.900                    86272190.53149
        42.900    21068544.11749
 15  8 24  1 21 30.0000000  0  8G05G07G21G20G28G15G30G13
  20906299.273 9 109863340.195 9        52.400    20906303.766 9  85607851.77049
        46.200    20906303.44149
  22664879.250 8 119104777.147 8        46.000    22664882.395 7  92808948.11349
        34.900    22664882.21549
  25667384.914 5 134883019.77515        36.100                   105103658.83855
        16.900    25667386.36345
  22175319.070 9 116532099.402 9        48.200                    90804245.65348
        33.900    22175321.85548
  21680192.773 9 113930204.473 9        49.100                    88776811.51749
        39.200    21680196.23049
  23484519.180 7 123411944.357 7        43.500    23484522.836 6  96165209.17348
        31.600    23484522.33648
  20724024.805 9 108905526.222 9        54.100    20724032.070 9  84861491.64149
        46.800    20724031.23849  20724028.449 7  81325585.463 7        42.200
  21057471.133 9 110657772.821 9        52.800                    86226863.40549
        43.200    21057474.55949
 15  8 24  1 22  0.0000000  0  8G05G07G21G20G28G15G30G13
  20913293.047 9 109900092.923 9        52.800    20913297.797 9  85636490.24149
        46.100    20913297.21949
  22681023.602 8 119189619.513 8        46.600    22681027.875 7  92875059.03649
        34.600    22681027.09449
  25662393.383 4 134856786.268 4        34.300                   105083217.10044
        14.800    25662394.00444
  22163735.031 9 116471223.841 9        48.100                    90756810.14149
        35.600    22163738.36349
  21669895.898 9 113876093.013 9        50.000                    88734646.75749
        39.500    21669899.46149
  23466907.430 7 123319394.976 7        43.300    23466911.793 6  96093092.80347
        29.900    23466911.26647
  20732839.805 9 108951847.371 9        54.500    20732846.668 9  84897586.04449
        46.200    20732845.82449  20732843.211 7  81360175.924 7        42.100
  21046453.828 9 110599876.751 9        53.800                    86181749.59449
        43.200    21046457.53549
 15  8 24  1 22 30.0000000  0  8G05G07G21G20G28G15G30G13
  20920392.039 9 109937398.950 9        52.900    20920396.801 9  85665559.86949
        46.000    20920396.19549
  22697199.133 8 119274622.571 8        46.700    22697203.633 7  92941295.18449
        34.300    22697202.87149
  25657484.836 5 134830992.966 5        36.000                   105063118.45145
        16.300    25657485.73045
  22152242.797 9 116410832.098 9        48.600                    90709751.64449
        34.900    22152245.80949
  21659688.273 9 113822452.253 9        51.000                    88692848.77949
        39.200    21659691.39549
  23449316.922 7 123226957.066 7        43.900    23449321.438 6  96021063.28448
        30.500    23449320.94548
  20741725.547 9 108998541.819 9        54.700    20741732.520 9  84933971.32449
        46.300    20741731.53549  20741728.805 7  81395045.159 7        42.300
  21035489.219 9 110542254.754 9        54.000                    86136849.33949
        43.700    21035492.64849
 15  8 24  1 23  0.0000000  0  8G05G07G21G20G28G15G30G13
  20927596.461 9 109975257.517 9        53.500    20927600.945 9  85695060.04149
        45.600    20927600.33649
  22713405.352 8 119359785.107 8        46.800    22713409.352 7  93007655.60749
        34.700    22713408.55149
  25652660.844 5 134805640.932 5        37.000                   105043363.58345
        17.800    25652661.56345
  22140842.906 9 116350926.069 9        48.600                    90663071.63449
        35.500    22140846.12149
  21649570.602 9 113769283.770 9        49.500                    88651418.80749
        39.200    21649573.96549
  23431748.539 7 123134632.017 7        43.300    23431752.801 7  95949121.70648
        31.500    23431752.29748
  20750681.656 9 109045607.960 9        54.900    20750688.406 9  84970646.24349
        46.300    20750687.69549  20750685.023 7  81430191.952 7        42.200
  21024576.352 9 110484908.375 9        53.900                    86092163.85949
        43.300    21024580.17249
 15  8 24  1 23 30.0000000  0  8G05G07G21G20G28G15G30G13
  20934905.953 9 110013668.156 9        51.900    20934910.199 9  85724990.39149
        45.900    20934909.59849
  22729641.445 8 119445105.511 8        46.700    22729645.191 7  93074139.02949
        35.100    22729644.42649
  25647920.016 5 134780731.117 5        36.500                   105023953.32845
        17.800    25647922.09845
  22129536.219 9 116291508.717 9        49.000                    90616772.39149
        34.900    22129539.50049
  21639543.422 9 113716590.333 9        49.500                    88610358.99849
        39.400    21639546.57449
  23414200.570 7 123042421.479 7        43.600    23414204.789 6  95877269.33948
        30.300    23414204.34848
  20759708.766 9 109093044.781 9        54.700    20759715.840 9  85007609.99649
        46.400    20759715.08249  20759712.234 7  81465615.549 7        41.800
  21013716.211 9 110427839.656 9        53.200                    86047694.73349
        43.000    21013719.72349
 15  8 24  1 24  0.0000000  0  8G05G07G21G20G28G15G30G13
  20942319.977 9 110052629.067 9        52.800    20942324.285 9  85755349.54149
        45.900    20942323.96549
  22745906.469 8 119530582.155 8        46.700    22745910.793 7  93140744.19549
        34.000    22745910.37949
  25643264.383 5 134756263.283 5        35.800                   105004887.47045
        17.800    25643266.17245
  22118322.594 9 116232581.691 9        48.700                    90570855.22749
        35.500    22118325.82849
  21629606.648 9 113664373.046 9        49.100                    88569670.21849
        39.400    21629610.28549
  23396675.539 7 122950326.063 7        43.200    23396680.156 6  95805506.71048
        31.600    23396680.10248
  20768805.859 9 109140850.147 9        55.000    20768812.738 9  85044860.93549
        46.100    20768811.69949  20768808.852 7  81501314.365 7        41.600
  21002909.266 9 110371048.930 9        52.800                    86003442.22449
        43.400    21002912.94149
 15  8 24  1 24 30.0000000  0  8G05G07G21G20G28G15G30G13
  20949838.492 9 110092139.939 9        52.100    20949843.367 9  85786137.22049
        45.500    20949842.88349
  22762202.219 8 119616214.109 8        46.600    22762205.793 7  93207470.39848
        33.000    22762205.19148
  25638693.555 6 134732239.105 6        38.200                   104986167.35345
        19.600    25638695.03545
  22107203.516 9 116174147.517 9        48.700                    90525322.10549
        35.600    22107206.38349
  21619760.805 9 113612634.052 9        49.700                    88529354.14049
        39.400    21619765.29349
  23379172.922 7 122858347.832 7        43.100    23379177.551 7  95733835.37848
        31.200    23379176.95348
  20777972.711 9 109189023.083 9        54.100    20777979.797 9  85082398.28349
        46.600    20777979.07049  20777976.227 7  81537287.662 7        42.000
  20992155.891 9 110314538.474 9        53.500                    85959408.11449
        43.300    20992159.28949
 15  8 24  1 25  0.0000000  0  8G05G07G21G20G28G15G30G13
  20957461.555 9 110132198.547 9        52.800    20957466.242 9  85817351.71149
        45.500    20957465.55949
  22778526.297 8 119701998.858 8        45.800    22778530.012 7  93274315.65749
        34.000    22778529.20749
  25634206.141 5 134708658.042 5        35.700                   104967792.48545
        19.900    25634208.22345
  22096177.352 9 116116207.154 9        48.600                    90480173.76649
        35.900    22096180.75049
  21610006.367 9 113561373.951 9        49.800                    88489411.22549
        39.000    21610010.26249
  23361692.414 7 122766487.388 7        43.900    23361696.598 7  95662255.82648
        30.500    23361696.02748
  20787209.195 9 109237560.799 9        54.600    20787215.977 9  85120219.88549
        46.200    20787215.37949  20787212.590 7  81573533.355 7        41.400
  20981455.594 9 110258308.206 9        53.200                    85915592.32149
        43.800    20981459.01649
 15  8 24  1 25 30.0000000  0  8G05G07G21G20G28G15G30G13
  20965188.484 9 110172804.674 9        53.300    20965193.328 9  85848992.84349
        45.400    20965192.70749
  22794879.406 8 119787935.447 8        46.400    22794883.402 7  93341279.21748
        33.700    22794883.08248
  25629802.203 4 134685520.841 4        34.600                   104949763.50345
        18.300    25629805.42245
  22085246.195 8 116058763.697 8        46.300                    90435412.63149
        35.500    22085249.64149
  21600343.656 9 113510595.480 9        50.200                    88449843.60349
        39.100    21600347.19949
  23344235.016 7 122674746.814 7        44.100    23344239.352 7  95590769.69348
        30.800    23344238.55148
  20796514.930 9 109286462.558 9        54.100    20796521.648 9  85158325.15149
        46.200    20796520.99649  20796517.973 7  81610050.903 7        42.200
  20970808.891 9 110202360.644 9        51.000                    85871996.82649
        43.300    20970812.37949
 15  8 24  1 26  0.0000000  0  8G05G07G21G20G28G15G30G13
  20973019.422 9 110213956.808 9        53.000    20973024.168 9  85881059.42849
        45.600    20973023.65249
  22811261.328 8 119874022.296 8        46.500    22811265.230 7  93408359.87749
        34.000    22811264.61749
  25625482.359 2 134662828.110 2        31.800                   104932080.89545
        16.300    25625487.39545
  22074410.023 9 116001818.427 9        48.200                    90391039.69649
        36.300    22074413.36749
  21590772.820 9 113460299.518 9        50.100                    88410651.95749
        39.400    21590776.35949
  23326799.688 7 122583126.951 7        43.800    23326804.328 7  95519377.58848
        30.600    23326803.85948
  20805889.516 9 109335726.338 9        54.600    20805896.563 9  85196712.52049
        46.000    20805895.82849  20805892.980 7  81646838.790 7        41.400
  20960216.570 9 110146696.357 9        54.200                    85828622.06349
        43.400    20960220.06349
 15  8 24  1 26 30.0000000  0  8G05G07G21G20G28G15G30G13
  20980954.359 9 110255653.954 9        53.200    20980958.828 9  85913550.70349
        45.600    20980958.10249
  22827671.320 8 119960257.874 8        46.300    22827675.531 7  93475556.43348
        33.700    22827674.43848
  25621248.227 1                        29.400

  22063668.914 9 115945374.117 9        48.200                    90347057.11249
        36.500    22063672.30149
  21581293.898 9 113410488.498 9        48.900                    88371838.19449
        39.500    21581297.60949
  23309388.469 7 122491629.192 7        43.900    23309393.527 7  95448080.65248
        31.200    23309392.74248
  20815332.688 9 109385350.795 9        54.600    20815339.453 9  85235380.92349
        46.000    20815338.95349  20815335.813 7  81683896.016 7        41.700
  20949677.992 9 110091317.111 9        53.400                    85785469.40249
        43.700    20949681.75049
 15  8 24  1 27  0.0000000  0  8G05G07G21G20G28G15G30G13
  20988992.633 9 110297895.127 9        51.300    20988997.078 9  85946465.89549
        45.100    20988996.41049
  22844109.242 8 120046640.410 8        45.800    22844113.797 7  93542867.48848
        33.800    22844112.57448
  25617099.516 3 134618778.16113        32.600                   104897756.31555
        16.300    25617103.83245
  22053023.875 9 115889432.054 9        49.300                    90303465.89749
        36.000    22053026.62149
  21571907.781 9 113361163.764 9        49.700                    88333403.35549
        40.400    21571911.12549
  23292000.422 8 122400254.776 8        45.100    23292005.168 7  95376879.82548
        30.600    23292004.66048
  20824844.242 9 109435333.857 9        53.700    20824851.297 9  85274328.75749
        45.800    20824850.66849  20824847.824 7  81721221.027 7        41.600
  20939194.352 9 110036223.685 9        54.100                    85742539.47249
        43.200    20939197.85549
 15  8 24  1 27 30.0000000  0  8G05G07G21G20G28G15G30G13
  20997133.914 9 110340678.725 9        52.400    20997138.371 9  85979803.74749
        45.300    20997137.71149
  22860575.094 8 120133168.450 8        45.100    22860579.406 7  93610291.92048
        33.300    22860578.54348
  25613036.477 4 134597421.921 4        34.100                   104881115.07345
        16.300    25613038.84045
  22042474.344 8 115833994.164 8        47.800                    90260267.54749
        35.900    22042477.33249
  21562614.492 9 113312326.305 9        49.500                    88295348.20949
        40.000    21562617.79349
  23274636.641 7 122309004.995 7        44.300    23274640.602 7  95305776.10548
        31.300    23274639.50848
  20834423.422 9 109485673.943 9        54.000    20834430.523 9  85313554.80549
        45.800    20834429.71549  20834427.223 7  81758812.652 7        41.400
  20928765.125 9 109981417.441 9        52.900                    85699833.30949
        43.500    20928768.75049
 15  8 24  1 28  0.0000000  0  8G05G07G21G20G28G15G30G13
  21005378.391 9 110384003.088 9        50.900    21005383.004 9  86013562.97249
        45.500    21005382.34849
  22877067.945 8 120219839.963 8        45.200    22877072.254 7  93677828.16048
        33.100    22877071.24648
  25609057.797 5 134576511.288 5        35.400                   104864821.04745
        16.300    25609059.12945
  22032020.773 8 115779061.949 8        46.700                    90217463.22749
        35.400    22032024.61349
  21553413.719 9 113263977.676 9        49.300                    88257673.97049
        39.600    21553417.46949
  23257295.648 7 122217880.652 7        44.500    23257300.309 7  95234770.14048
        31.800    23257299.44548
  20844070.375 9 109536368.799 9        54.000    20844077.324 9  85353057.29049
        45.800    20844076.53949  20844073.813 7  81796669.205 7        41.800
  20918390.352 9 109926898.944 9        52.000                    85657351.36849
        43.200    20918394.28149
 15  8 24  1 28 30.0000000  0 10G05G07G21G08G20G28G15G30G19G13
  21013725.633 9 110427867.799 9        51.900    21013729.809 9  86047743.26649
        45.000    21013728.87149
  22893588.141 8 120306654.410 8        46.000    22893592.281 7  93745475.78348
        32.800    22893591.71548
  25605164.063 5 134556047.393 5        36.000                   104848875.17445
        16.300    25605164.95345
  25004404.133 1                        30.800

  22021664.289 8 115724638.443 8        45.900                    90175055.29149
        36.900    22021668.19949
  21544306.813 9 113216119.555 9        48.500                    88220381.94749
        39.800    21544310.51649
  23239980.094 8 122126883.603 8        45.300    23239984.125 7  95163863.35348
        31.900    23239983.36748
  20853784.570 9 109587417.662 9        54.300    20853791.668 9  85392835.62649
        45.400    20853790.50049  20853787.887 7  81834790.106 7        41.100
  25105004.578 4 131927684.66014        34.500

  20908071.273 9 109872670.469 9        51.900                    85615095.42949
        43.300    20908074.44549
 15  8 24  1 29  0.0000000  0 10G05G07G21G08G20G28G15G30G19G13
  21022175.039 9 110472271.384 9        52.500    21022180.367 9  86082343.45249
        45.100    21022179.32049
  22910135.914 8 120393610.102 8        45.500    22910139.688 7  93813233.46248
        33.700    22910139.31348
  25601355.422 5 134536030.546 5        35.700                   104833277.57645
        16.900    25601356.12545
  25000098.828 1                        30.700

  22011404.859 8 115670725.508 8        46.600                    90133045.21349
        35.700    22011408.32049
  21535293.555 9 113168753.680 9        50.100                    88183473.48949
        40.600    21535296.80149
  23222687.727 7 122036015.613 7        44.300    23222692.832 7  95093057.14148
        31.500    23222692.25848
  20863566.328 9 109638818.787 9        54.100    20863572.648 9  85432888.45449
        45.600    20863571.98849  20863568.906 7  81873174.070 7        41.800
  25098513.586 5 131893570.608 5        35.000

  20897806.922 9 109818733.295 9        51.600                    85573066.46149
        43.700    20897810.62549
 15  8 24  1 29 30.0000000  0 10G05G07G21G08G20G28G15G30G19G13
  21030726.961 9 110517212.168 9        51.900    21030731.582 9  86117362.23249
        44.900    21030730.83649
  22926709.375 8 120480704.910 8        45.600    22926713.059 7  93881099.53848
        33.800    22926712.42248
  25597632.023 4 134516460.498 4        34.700                   104818028.20345
        16.900    25597633.31645
  24995890.906 2 131354171.01112        31.300    24995899.020 1 102354030.65211
        24.600
  22001243.633 8 115617324.012 8        47.500                    90091433.65549
        35.800    22001246.27349
  21526373.773 9 113121880.679 9        49.200                    88146949.08949
        40.200    21526377.03149
  23205421.148 7 121945277.532 7        44.600    23205425.563 7  95022352.15048
        31.800    23205425.08248
  20873413.852 9 109690569.750 9        53.800    20873420.746 9  85473213.88449
        45.500    20873419.77349  20873416.871 7  81911819.269 7        41.600
  25092119.398 3 131859969.492 3        33.800

  20887599.086 9 109765087.831 9        52.100                    85531264.81149
        43.300    20887602.32049
 15  8 24  1 30  0.0000000  0 10G05G07G21G08G20G28G15G30G19G13
  21039380.992 9 110562689.066 9        51.500    21039385.691 9  86152798.75949
        45.100    21039385.18449
  22943309.156 8 120567937.650 8        45.200    22943313.148 7  93949073.08448
        33.300    22943312.43448
  25593990.844 3 134497338.160 3        33.000                   104803127.70545
        17.400    25593993.72345
  24991778.547 1                        29.400

  21991179.234 8 115564436.613 8        47.100                    90050222.69349
        36.600    21991181.98449
  21517548.289 9 113075503.150 9        49.200                    88110810.76849
        39.900    21517551.85949
  23188179.828 8 121854670.760 8        45.000    23188184.059 7  94951749.50648
        32.300    23188183.56648
  20883328.391 9 109742669.452 9        53.000    20883335.379 9  85513811.05849
        45.600    20883334.43049  20883331.465 7  81950724.894 7        41.600
  25085822.813 3 131826883.270 3        33.300

  20877446.461 9 109711735.831 9        51.900                    85489691.83549
        43.700    20877449.75849
 15  8 24  1 30 30.0000000  0 10G05G07G21G08G20G28G15G30G19G13
  21048136.930 9 110608701.074 9        51.600    21048141.629 9  86188652.27149
        45.000    21048140.91049
  22959934.789 8 120655306.992 8        45.000    22959938.980 7  94017153.08848
        33.000    22959938.28148
  25590437.320 3 134478663.798 3        32.500                   104788576.20945
        16.900    25590440.78945
  24987759.391 1                        29.100

  21981213.023 9 115512065.088 9        49.900                    90009413.71949
        35.900    21981216.14849
  21508816.914 9 113029622.295 9        49.300                    88075059.47349
        40.500    21508821.18449
  23170962.320 7 121764196.647 7        44.900    23170966.773 7  94881250.18448
        31.300    23170966.22748
  20893308.500 9 109795116.288 9        53.900    20893315.445 9  85554678.71849
        45.200    20893314.51249  20893311.727 7  81989889.741 7        41.200
  25079625.672 4 131794314.363 4        34.000

  20867349.906 9 109658678.631 9        54.000                    85448348.56649
        43.800    20867353.28549
 15  8 24  1 31  0.0000000  0 10G05G07G21G08G20G28G15G30G19G13
  21056994.078 9 110655246.364 9        52.100    21056998.680 9  86224921.31949
        44.600    21056998.09849
  22976586.141 7 120742811.148 7        44.500    22976590.383 7  94085338.11748
        32.700    22976589.88748
  25586969.461 3 134460437.537 3        33.900                   104774373.91745
        16.900    25586972.69545
  24983835.805 1 131290820.64011        28.900

  21971345.445 9 115460211.080 9        49.800                    89969007.99249
        36.800    21971348.86749
  21500181.250 9 112984239.673 9        49.800                    88039696.41349
        39.500    21500184.48849
  23153771.289 8 121673856.449 8        45.500    23153775.605 7  94810855.24348
        32.400    23153775.15248
  20903354.461 9 109847908.187 9        53.800    20903361.355 9  85595815.27049
        45.200    20903360.46549  20903357.914 7  82029312.260 7        41.700
  25073527.367 2 131762264.15812        31.000

  20857309.734 9 109605917.434 9        53.400                    85407235.94949
        44.500    20857313.05149
 15  8 24  1 31 30.0000000  0 10G05G07G21G08G20G28G15G30G19G13
  21065952.836 9 110702324.457 9        51.600    21065957.980 9  86261605.53949
        45.300    21065957.10949
  22993263.336 8 120830449.453 8        46.000    22993267.668 7  94153627.70048
        33.000    22993266.53148
  25583586.305 4 134442660.823 4        34.700                   104760521.91345
        16.900    25583589.18845
  24980008.688 1 131270711.03811        27.600

  21961577.156 9 115408877.143 9        48.900                    89929007.52949
        36.900    21961580.39149
  21491640.289 9 112939355.793 9        49.500                    88004721.97449
        40.400    21491643.87549
  23136606.273 8 121583652.037 8        45.100    23136610.453 7  94740566.10348
        32.800    23136610.11748
  20913465.844 9 109901044.250 9        53.800    20913472.820 9  85637219.99549
        45.000    20913472.22349  20913469.438 7  82068991.790 7        41.700
  25067526.102 1                        27.600

  20847326.094 9 109553454.050 9        54.100                    85366355.39149
        44.300    20847329.62149
 15  8 24  1 32  0.0000000  0  8G05G07G21G20G28G15G30G13
  21075012.367 9 110749933.405 9        51.300    21075016.910 9  86298703.41049
        44.700    21075016.36749
  23009965.883 8 120918219.813 8        46.200    23009969.969 7  94222020.20448
        32.500    23009968.60548
  25580290.125 5 134425332.555 5        35.500                   104747019.40045
        17.800    25580291.92245
  21951907.727 8 115358064.310 8        46.300                    89889413.11049
        36.900    21951911.19149
  21483194.523 9 112894972.675 9        49.600                    87970137.74749
        40.400    21483197.93449
  23119466.516 8 121493584.306 8        45.700    23119471.523 7  94670383.47148
        32.800    23119471.23448
  20923642.641 9 109954522.115 9        53.200    20923649.121 9  85678891.05849
        45.100    20923648.34849  20923645.914 7  82108926.557 7        41.700
  20837399.609 9 109501289.063 9        51.100                    85325707.36149
        44.000    20837403.11749
 15  8 24  1 32 30.0000000  0  8G05G07G21G20G28G15G30G13
  21084173.078 9 110798071.865 9        51.500    21084177.848 9  86336213.88549
        45.000    21084177.05549
  23026692.219 7 121006120.932 7        43.900    23026696.453 7  94290514.57748
        32.600    23026696.32848
  25577078.195 5 134408453.236 5        36.500                   104733866.67245
        17.400    25577080.68445
  21942337.797 9 115307774.885 9        49.500                    89850226.53549
        36.800    21942340.86749
  21474844.219 9 112851091.607 9        49.100                    87935944.72549
        40.800    21474847.53149
  23102353.547 8 121403654.822 8        45.100    23102357.754 7  94600308.57348
        33.000    23102357.78148
  20933883.648 9 110008340.308 9        53.700    20933890.469 9  85720827.31649
        45.000    20933889.80549  20933887.250 7  82149115.475 7        41.100
  20827529.695 9 109449424.105 9        54.100                    85285293.11349
        43.800    20827533.44949
 15  8 24  1 33  0.0000000  0  8G05G07G21G20G28G15G30G13
  21093433.789 9 110846738.144 9        52.100    21093438.465 9  86374135.65149
        44.500    21093437.64849
  23043444.086 7 121094151.508 7        43.900    23043448.281 7  94359109.81648
        32.400    23043448.04748
  25573950.953 3 134392023.522 3        32.800                   104721064.26145
        16.900    25573954.12545
  21932868.031 9 115258010.562 9        49.600                    89811449.14049
        36.400    21932871.04349
  21466589.508 9 112807714.294 9        50.300                    87902144.24249
        40.300    21466593.00049
  23085267.391 8 121313865.197 8        45.800    23085271.715 7  94530342.64148
        33.100    23085271.04348
  20944189.344 9 110062497.300 9        53.800    20944196.266 9  85763027.57449
        45.000    20944195.35249  20944192.449 7  82189557.386 7        41.300
  20817717.633 9 109397860.715 9        54.300                    85245113.84749
        44.300    20817720.88349
 15  8 24  1 33 30.0000000  0  8G05G07G21G20G28G15G30G13
  21102795.133 9 110895930.760 9        51.600    21102799.598 9  86412467.54649
        44.500    21102799.00849
  23060220.375 7 121182309.854 7        44.400    23060224.836 7  94427804.62248
        31.900    23060223.83248
  25570909.180 4 134376043.245 4        34.300                   104708612.12845
        17.800    25570912.85945
  21923498.508 9 115208772.756 9        49.800                    89773082.01549
        37.100    21923501.53949
  21458431.469 9 112764841.646 9        49.200                    87868737.00149
        40.400    21458434.55149
  23068207.922 8 121224216.452 8        45.800    23068212.402 7  94460486.49948
        33.300    23068211.62948
  20954559.188 9 110116991.099 9        54.000    20954566.160 9  85805490.27449
        44.800    20954565.39149  20954562.781 7  82230250.807 7        41.300
  20807963.047 9 109346599.794 9        53.600                    85205170.27749
        44.200    20807966.65249
 15  8 24  1 34  0.0000000  0  8G05G07G21G20G28G15G30G13
  21112255.906 9 110945648.705 9        51.900    21112260.531 9  86451208.79949
        44.300    21112259.78149
  23077019.906 7 121270594.426 7        43.200    23077024.355 7  94496597.77848
        30.700    23077023.48048
  25567955.383 5 134360512.498 5        35.300                   104696510.21445
        17.400    25567957.29345
  21914229.250 9 115160063.507 9        50.200                    89735126.75349
        36.900    21914232.34849
  21450369.297 9 112722475.015 9        50.800                    87835724.06049
        40.800    21450372.59449
  23051174.898 8 121134709.830 8        45.400    23051179.609 7  94390741.06848
        33.200    23051179.19548
  20964992.875 9 110171819.971 9        53.700    20964999.836 9  85848214.07049
        44.800    20964999.05549  20964996.383 7  82271194.452 7        41.400
  20798266.180 9 109295642.370 9        53.900                    85165463.20049
        44.100    20798269.60249
 15  8 24  1 34 30.0000000  0  9G05G07G21G08G20G28G15G30G13
  21121816.328 9 110995890.151 9        51.900    21121821.309 9  86490357.96749
        44.100    21121820.51649
  23093844.133 7 121359003.491 7        43.600    23093848.215 7  94565487.95448
        32.800    23093847.53548
  25565084.789 5 134345431.477 5        35.300                   104684758.77045
        18.600    25565087.84845
  24959077.094 3 131160689.17813        32.500    24959083.117 4 102203263.26914
        34.200                    24959079.465 1  97944785.85011        25.000
  21905061.336 9 115111884.404 9        50.500                    89697584.60049
        36.700    21905064.39149
  21442403.625 9 112680615.196 9        50.800                    87803106.03949
        41.600    21442406.98849
  23034169.594 8 121045346.926 8        46.000    23034174.238 7  94321107.66548
        33.300    23034174.12948
  20975489.758 9 110226982.130 9        53.000    20975496.316 9  85891197.57249
        45.300    20975495.65249  20975492.867 7  82312386.970 7        41.100
  20788627.195 9 109244989.714 9        54.300                    85125993.60449
        44.500    20788630.68849
 15  8 24  1 35  0.0000000  0  9G05G07G21G08G20G28G15G30G13
  21131476.531 9 111046654.080 9        51.000    21131481.445 9  86529914.26149
        44.900    21131480.85249
  23110691.570 7 121447536.324 7        44.800    23110695.625 7  94634474.58148
        33.200    23110695.09048
  25562300.258 5 134330800.857 5        36.500                   104673358.27445
        18.300    25562303.46545
  24955927.914 3 131144142.472 3        33.000    24955934.359 5 102190369.759 5
        35.000                    24955930.426 1  97932429.551 1        26.200
  21895994.508 9 115064237.605 9        50.200                    89660457.23049
        37.000    21895997.71149
  21434534.844 9 112639264.288 9        49.600                    87770884.56749
        40.900    21434538.10549
  23017192.328 7 120956129.446 7        44.600    23017197.129 7  94251587.58449
        34.200    23017196.75449
  20986049.938 9 110282476.397 9        53.400    20986056.754 9  85934439.86449
        44.600    20986055.82449  20986053.215 7  82353827.493 7        41.200
  20779046.789 9 109194643.736 9        53.500                    85086762.98349
        44.200    20779050.68049
 15  8 24  1 35 30.0000000  0  9G05G07G21G08G20G28G15G30G13
  21141235.852 9 111097938.485 9        51.700    21141240.492 9  86569876.12849
        44.500    21141239.60949
  23127560.875 7 121536191.353 7        43.000    23127565.949 7  94703556.40148
        31.200    23127565.37148
  25559602.367 5 134316620.873 5        36.900                   104662308.88545
        17.800    25559604.90245
  24952877.070 4 131128109.442 4        34.200    24952883.293 5 102177885.44255
        16.300    24952883.04745  24952879.715 1  97920456.841 1        26.300
  21887028.969 9 115017124.351 9        50.300                    89623745.59749
        37.400    21887032.41049
  21426762.891 9 112598422.857 9        50.500                    87739060.09749
        40.900    21426766.43449
  23000242.875 8 120867058.341 8        46.800    23000247.086 7  94182181.53748
        33.600    23000246.18448
  20996672.945 9 110338300.783 9        52.500    20996680.016 9  85977939.39049
        44.600    20996679.17649  20996676.152 6  82395514.534 6        40.800
  20769525.055 9 109144605.259 9        54.200                    85047771.96549
        44.600    20769528.19949
 15  8 24  1 36  0.0000000  0  9G05G07G21G08G20G28G15G30G13
  21151093.844 9 111149742.006 9        51.900    21151098.227 9  86610242.49349
        44.300    21151097.61349
  23144454.852 7 121624966.829 7        43.200    23144459.469 7  94772732.07948
        31.900    23144458.40648
  25556990.094 6 134302890.786 6        38.200                   104651610.13745
        19.300    25556992.84845
  24949925.023 5 131112591.107 5        35.200    24949930.859 5 102165793.21345
        17.800    24949930.11345  24949925.844 1  97908868.459 1        25.500
  21878165.461 9 114970546.563 9        50.300                    89587451.20749
        36.200    21878168.85949
  21419088.328 9 112558093.005 9        50.000                    87707634.25249
        41.400    21419092.02049
  22983321.422 8 120778135.241 8        45.700    22983325.566 7  94112890.81149
        34.900    22983324.93049
  21007358.453 9 110394453.632 9        52.800    21007365.547 9  86021694.85049
        44.500    21007364.71949  21007361.582 7  82437446.858 7        41.400
  20760061.664 9 109094875.755 9        54.300                    85009021.70649
        44.300    20760065.15249
 15  8 24  1 36 30.0000000  0 10G05G07G21G08G20G28G15G30G19G13
  21161050.039 9 111202062.744 9        50.600    21161054.398 9  86651011.89149
        44.000    21161053.84449
  23161371.641 7 121713861.369 7        43.200    23161375.313 7  94842000.55048
        31.900    23161374.89148
  25554463.156 5 134289611.005 5        37.200                   104641262.24745
        19.600    25554466.68845
  24947069.188 4 131097587.993 4        34.700    24947075.180 5 102154102.49045
        16.900    24947075.10945  24947070.371 1  97897664.812 1        24.600
  21869404.180 9 114924505.466 9        48.600                    89551575.02449
        36.700    21869407.48849
  21411511.023 9 112518274.983 9        49.400                    87676607.23549
        41.000    21411514.46549
  22966428.281 8 120689361.647 8        46.000    22966432.941 7  94043716.58649
        34.600    22966432.26249
  21018106.273 9 110450932.898 9        53.000    21018112.984 9  86065704.66649
        44.500    21018112.29749  21018109.273 6  82479622.934 6        40.600
  25013051.398 2 131444430.24212        31.000

  20750657.484 9 109045456.045 9        53.900                    84970512.84849
        44.200    20750660.94949
 15  8 24  1 37  0.0000000  0 10G05G07G21G08G20G28G15G30G19G13
  21171104.414 9 111254899.658 9        51.800    21171109.152 9  86692183.50349
        44.900    21171108.52049
  23178309.672 7 121802873.900 7        43.200    23178313.402 7  94911360.93748
        31.000    23178312.89148
  25552022.078 5 134276782.089 5        37.600                   104631265.68745
        19.600    25552024.62545
  24944311.648 4 131083102.078 4        34.300    24944320.020 5 102142814.75045
        16.300    24944318.67245  24944314.227 1  97886847.425 1        24.800
  21860745.625 9 114879003.553 9        50.900                    89516118.98949
        37.100    21860748.81649
  21404031.414 9 112478970.655 9        50.300                    87645980.50349
        40.600    21404034.96549
  22949563.734 8 120600739.000 8        45.400    22949568.145 7  93974659.99849
        34.500    22949567.52749
  21028915.828 9 110507737.536 9        52.900    21028922.633 9  86109968.02649
        44.500    21028921.64149  21028918.914 7  82522041.980 7        41.100
  25008163.195 1 131418741.95211        30.700

  20741312.594 9 108996348.150 9        54.500                    84932246.95549
        44.600    20741316.00849
 15  8 24  1 37 30.0000000  0 10G05G07G21G08G20G28G15G30G19G13
  21181257.164 9 111308250.974 9        52.200    21181261.246 9  86733755.94649
        44.600    21181260.81649
  23195270.516 7 121892002.980 7        43.000    23195274.266 7  94980812.15448
        31.000    23195273.78948
  25549666.570 5 134264404.123 5        37.100                   104621620.50446
        20.900    25549669.42246
  24941654.578 5 131069133.63615        35.400    24941661.328 5 102131930.23655
        16.900    24941660.09045  24941656.113 1  97876416.42311        25.200
  21852189.609 9 114834042.029 9        50.600                    89481084.03149
        37.100    21852192.36349
  21396650.250 9 112440180.851 9        50.400                    87615754.69449
        41.700    21396653.82049
  22932728.469 8 120512268.577 8        45.500    22932733.316 7  93905722.01549
        34.400    22932732.89849
  21039786.906 9 110564865.530 9        53.000    21039793.980 9  86154483.34349
        44.300    21039792.84049  21039790.285 6  82564702.495 6        40.900
  25003378.000 1 131393594.22911        30.500

  20732027.125 9 108947553.006 9        54.500                    84894224.76149
        44.600    20732030.65649
 15  8 24  1 38  0.0000000  0  9G05G07G21G08G20G28G15G30G13
  21191507.133 9 111362115.428 9        50.500    21191511.871 9  86775728.24249
        44.700    21191511.21949
  23212252.711 7 121981246.973 7        43.900    23212256.613 7  95050352.93348
        31.200    23212256.28548
  25547396.344 6 134252476.765 6        38.100                   104612326.44346
        20.900    25547399.91446
  24939094.891 4 131055684.246 4        34.300    24939101.574 6 102121450.18345
        16.900    24939100.40645  24939096.020 1  97866373.073 1        22.900
  21843736.922 9 114789622.786 9        50.500                    89446471.62549
        37.300    21843739.82449
  21389367.172 9 112401907.026 9        49.500                    87585930.95049
        40.900    21389370.76249
  22915922.648 8 120423951.985 8        46.000    22915926.797 7  93836903.91949
        34.400    22915926.02049
  21050719.289 9 110622315.420 9        52.500    21050726.098 9  86199249.49249
        44.500    21050724.89849  21050722.402 7  82607603.390 7        41.100
  20722801.438 9 108899072.149 9        54.300                    84856447.47949
        44.100    20722805.00049
 15  8 24  1 38 30.0000000  0  9G05G07G21G08G20G28G15G30G13
  21201854.586 9 111416491.081 9        51.000    21201858.676 9  86818098.87149
        44.400    21201858.23449
  23229256.813 7 122070604.909 7        42.600    23229261.441 7  95119982.48148
        30.600    23229260.89848
  25545212.383 6 134241000.462 6        38.200                   104603383.83245
        19.300    25545216.17245
  24936635.250 4 131042754.931 4        34.500    24936641.613 6 102111375.45544
        14.800    24936639.87544  24936636.371 1  97856718.089 1        25.100
  21835387.453 9 114745747.554 9        50.200                    89412283.13349
        36.900    21835390.43449
  21382181.883 9 112364149.994 9        49.300                    87556509.89949
        41.100    21382185.68849
  22899145.570 8 120335791.031 8        45.500    22899150.582 7  93768207.06749
        34.600    22899149.55949
  21061712.625 9 110680085.730 9        52.700    21061719.520 9  86244265.31949
        44.600    21061718.75049  21061716.020 6  82650743.553 6        40.400
  20713635.789 9 108850907.052 9        54.200                    84818916.24649
        44.200    20713639.24249
 15  8 24  1 39  0.0000000  0  9G05G07G21G08G20G28G15G30G13
  21212298.602 9 111471375.933 9        52.200    21212303.266 9  86860866.28449
        44.500    21212302.75849
  23246282.789 7 122160075.005 7        43.600    23246287.266 7  95189699.40548
        31.100    23246286.54348
  25543114.539 6 134229974.276 6        38.300                   104594792.03345
        19.300    25543117.36745
  24934273.477 3 131030345.64613        33.400    24934279.746 6 102101705.91855
        16.900    24934279.32845  24934274.648 1  97847451.41811        25.600
  21827142.383 9 114702416.918 9        50.800                    89378519.00649
        37.700    21827145.02049
  21375095.844 9 112326910.575 9        50.500                    87527492.19549
        42.000    21375099.43849
  22882399.305 8 120247786.079 8        45.800    22882402.957 7  93699631.80349
        34.000    22882402.54749
  21072766.422 9 110738173.774 9        53.100    21072773.211 9  86289528.73549
        44.700    21072772.44149  21072769.418 6  82694120.994 6        40.600
  20704530.367 9 108803058.015 9        54.500                    84781631.28349
        44.800    20704533.59849
 15  8 24  1 39 30.0000000  0  9G05G07G21G08G20G28G15G30G13
  21222839.719 9 111526768.806 9        50.500    21222843.867 9  86904029.54749
        44.500    21222843.48849
  23263329.633 7 122249655.918 7        44.500    23263333.695 7  95259502.70548
        31.500    23263333.02348
  25541101.156 5 134219398.816 5        36.300                   104586551.41045
        17.800    25541104.81645
  24932010.969 5 131018458.084 5        35.900    24932018.414 6 102092442.91345
        17.800    24932017.39845  24932012.836 1  97838574.349 1        26.000
  21819000.828 9 114659633.086 9        48.300                    89345180.95949
        37.000    21819003.80949
  21368108.109 9 112290190.372 9        49.600                    87498879.06849
        41.400    21368111.60949
  22865682.680 8 120159939.245 8        46.300    22865686.984 7  93631179.72849
        35.400    22865686.60949
  21083880.414 9 110796578.516 9        52.500    21083887.477 9  86335038.93049
        44.200    21083886.77049  21083883.867 6  82737734.930 6        40.700
  20695485.758 9 108755526.852 9        53.500                    84744594.01749
        45.000    20695489.19949
 15  8 24  1 40  0.0000000  0  9G05G07G21G08G20G28G15G30G13
  21233476.852 9 111582667.817 9        50.700    21233481.578 9  86947587.21049
        43.900    21233480.72749
  23280397.430 7 122339346.577 7        43.100    23280401.180 7  95329391.53048
        31.600    23280400.43848
  25539175.539 5 134209274.345 5        36.000                   104578662.26045
        18.600    25539178.68045
  24929847.805 5 131007093.270 5        35.700    24929855.352 6 102083587.23445
        16.900    24929854.76645  24929850.148 1  97830087.629 1        26.800
  21810963.266 9 114617397.881 9        49.800                    89312270.40049
        37.500    21810966.85949
  21361219.594 9 112253990.826 9        49.500                    87470671.64349
        41.600    21361222.50849
  22848995.984 8 120072252.103 8        45.400    22849000.023 7  93562852.07949
        34.500    22848999.28549
  21095054.445 9 110855298.444 9        52.300    21095061.363 9  86380794.71349
        44.100    21095060.57849  21095057.617 7  82781584.229 7        41.200
  20686501.586 9 108708315.199 9        54.100                    84707805.71549
        44.700    20686505.30549
 15  8 24  1 40 30.0000000  0  9G05G07G21G08G20G28G15G30G13
  21244210.227 9 111639071.407 9        50.200    21244214.582 9  86991538.04949
        44.300    21244214.23449
  23297484.664 7 122429145.560 7        43.200    23297489.504 7  95399364.74948
        31.000    23297488.85948
  25537333.156 5 134199600.774 5        35.500                   104571124.38745
        17.400    25537336.96145
  24927784.953 5 130996252.114 5        37.400    24927791.980 6 102075139.55445
        19.000    24927791.22745  24927786.781 1  97821991.964 1        25.900
  21803031.555 9 114575712.751 9        50.200                    89279788.48749
        37.000    21803034.46549
  21354430.117 9 112218312.668 9        50.600                    87442870.49449
        40.900    21354433.61349
  22832340.539 8 119984726.188 8        45.700    22832344.789 7  93494650.08349
        35.100    22832344.37949
  21106288.234 9 110914331.852 9        50.000    21106294.453 9  86426794.77249
        44.500    21106293.64549  21106291.090 6  82825667.617 6        40.800
  20677578.531 9 108661424.417 9        54.300                    84671267.44849
        44.500    20677582.03149
 15  8 24  1 41  0.0000000  0  9G05G07G21G08G20G28G15G30G13
  21255038.789 9 111695977.749 9        51.100    21255043.664 9  87035880.64249
        44.100    21255042.87549
  23314593.969 7 122519051.062 7        43.200    23314598.102 7  95469420.97948
        31.200    23314597.20748
  25535578.242 3 134190378.056 3        33.700                   104563937.84745
        16.900    25535582.07445
  24925821.375 5 130985935.328 5        35.800    24925829.063 6 102067100.50245
        17.400    24925828.20345  24925823.523 1  97814287.856 1        25.300
  21795203.539 9 114534578.821 9        50.700                    89247736.06349
        36.700    21795206.37949
  21347740.266 9 112183156.298 9        50.200                    87415475.93349
        41.600    21347743.33649
  22815715.797 8 119897362.466 8        45.700    22815720.297 7  93426574.45549
        35.500    22815719.64849
  21117581.195 9 110973676.632 9        52.300    21117587.715 9  86473037.46449
        43.900    21117586.87949  21117584.035 7  82869983.525 7        41.300
  20668716.781 9 108614855.282 9        54.200                    84634979.81649
        45.000    20668720.03949
 15  8 24  1 41 30.0000000  0 10G05G07G21G08G20G28G15G30G19G13
  21265963.383 9 111753385.225 9        50.300    21265967.652 9  87080613.73049
        44.400    21265967.08649
  23331722.000 7 122609061.878 7        43.200    23331726.566 7  95539559.28548
        30.900    23331725.59448
  25533909.586 4 134181605.918 4        34.500                   104557102.45445
        17.400    25533912.87145
  24923958.734 5 130976143.287 5        36.200    24923965.730 6 102059470.38445
        18.600    24923964.99245  24923959.961 1  97806975.641 1        26.200
  21787481.414 9 114493997.685 9        49.900                    89216114.39649
        36.800    21787484.24649
  21341149.711 9 112148523.379 9        50.200                    87388489.25849
        41.300    21341152.78549
  22799121.734 8 119810162.602 8        45.800    22799126.918 7  93358626.53749
        35.000    22799126.39549
  21128932.859 9 111033331.152 9        49.800    21128939.641 9  86519521.51049
        44.400    21128938.84449  21128936.000 7  82914530.732 7        41.100
  24968832.945 4 131212053.95814        34.300

  20659916.781 9 108568609.135 9        54.700                    84598943.85149
        44.800    20659920.32449
 15  8 24  1 42  0.0000000  0 10G05G07G21G08G20G28G15G30G19G13
  21276982.719 9 111811292.280 9        50.200    21276987.449 9  87125736.10449
        43.900    21276986.71149
  23348871.234 7 122699176.938 7        41.500    23348874.813 6  95609778.80248
        30.000    23348873.80548
  25532326.375 5 134173284.019 5        37.100                   104550617.90645
        19.000    25532329.05145
  24922195.734 5 130966877.174 5        35.100    24922202.371 6 102052250.03745
        17.400    24922200.85945  24922196.414 1  97800056.162 1        24.100
  21779864.492 9 114453971.262 9        50.700                    89184924.97449
        37.800    21779867.77349
  21334658.688 9 112114414.533 9        50.000                    87361910.95749
        41.600    21334662.19149
  22782559.945 8 119723128.276 8        46.000    22782564.328 7  93290807.57849
        35.400    22782564.24249
  21140343.438 9 111093294.085 9        50.900    21140350.313 9  86566245.86949
        44.100    21140349.37949  21140346.238 6  82959308.250 6        40.200
  24964983.539 1 131191838.573 1        28.600

  20651177.805 9 108522687.561 9        54.500                    84563160.80649
        44.900    20651181.40649
 15  8 24  1 42 30.0000000  0 10G05G07G21G08G20G28G15G30G19G13
  21288096.703 9 111869696.843 9        51.800    21288101.477 9  87171246.13749
        43.900    21288101.01649
  23366038.148 7 122789395.114 7        42.700    23366042.688 7  95680078.65348
        30.400    23366041.93848
  25530829.844 5 134165412.447 5        37.700                   104544484.19545
        19.600    25530831.95745
  24920531.930 5 130958137.75115        35.400    24920539.676 6 102045440.11855
        17.800    24920538.14845  24920533.938 1  97793529.97811        26.000
  21772353.594 9 114414500.893 9        50.700                    89154168.85449
        37.100    21772356.63349
  21328267.930 9 112080831.079 9        49.800                    87335742.04349
        41.400    21328271.47349
  22766030.063 8 119636261.165 8        45.800    22766034.215 7  93223118.94449
        35.500    22766033.53549
  21151812.500 9 111153563.731 9        52.100    21151819.141 9  86613209.22549
        44.100    21151818.32449  21151815.539 6  83004314.798 6        40.800
  24961242.359 1 131172178.20511        27.600

  20642501.297 9 108477092.057 9        54.500                    84527631.84649
        45.300    20642504.85249
 15  8 24  1 43  0.0000000  0 10G05G07G21G08G20G28G15G30G19G13
  21299305.188 9 111928597.262 9        50.400    21299310.102 9  87217142.55849
        44.200    21299309.35549
  23383225.711 7 122879714.643 7        42.500    23383230.344 6  95750457.51447
        29.900    23383229.62147
  25529415.992 5 134157991.230 5        37.000                   104538701.43845
        18.300    25529419.74645
  24918969.656 5                        35.100

  21764948.906 9 114375587.898 9        50.800                    89123847.03349
        37.600    21764951.68849
  21321977.734 9 112047773.856 9        49.700                    87309983.18449
        41.900    21321981.19149
  22749531.836 8 119549562.159 8        46.300    22749536.063 7  93155561.27849
        35.700    22749535.69149
  21163339.484 9 111214138.083 9        51.500    21163345.840 9  86660410.02549
        43.800    21163344.98449  21163342.430 6  83049548.900 6        40.400
  24957608.289 2 131153073.857 2        31.600

  20633886.828 9 108431823.501 9        54.500                    84492357.65349
        44.900    20633890.41449
 15  8 24  1 43 30.0000000  0 10G05G07G21G08G20G28G15G30G19G13
  21310607.406 9 111987991.597 9        51.000    21310612.414 9  87263423.84649
        44.300    21310611.39849
  23400431.672 7 122970134.357 7        42.200    23400436.340 6  95820914.42747
        29.000    23400435.44947
  25528089.859 5 134151020.224 5        37.000                   104533269.49745
        18.600    25528093.46945
  24917507.289 4 130942242.54814        34.300    24917514.723 6 102033054.28055
        16.900    24917513.75445  24917509.719 1  97781660.21511        27.400
  21757649.773 9 114337233.627 9        50.200                    89093960.57649
        37.600    21757652.93049
  21315787.391 9 112015243.922 9        49.400                    87284635.20049
        42.300    21315790.83649
  22733065.531 8 119463033.112 8        45.200    22733070.246 7  93088136.06049
        36.200    22733069.29749
  21174924.148 9 111275015.666 9        50.700    21174930.492 9  86707847.11449
        44.100    21174929.53949  21174927.102 6  83095009.434 6        40.200
  24954078.031 3 131134526.989 3        32.200

  20625334.898 9 108386883.383 9        55.200                    84457339.38149
        45.200    20625338.55149
 15  8 24  1 44  0.0000000  0 10G05G07G21G08G20G28G15G30G19G13
  21322003.578 9 112047877.870 9        51.100    21322007.781 9  87310088.46649
        44.400    21322007.19149
  23417656.672 7 123060652.747 7        41.900    23417661.078 6  95891448.22547
        28.300    23417659.97747
  25526849.219 5 134144498.678 5        37.400                   104528187.76846
        20.400    25526852.48046
  24916146.008 4 130935087.55014        34.300    24916153.254 6 102027478.98755
        16.900    24916152.27045  24916148.762 1  97776317.23411        26.700
  21750457.938 9 114299439.106 9        50.300                    89064510.30049
        37.500    21750461.18849
  21309697.383 9 111983241.639 9        49.500                    87259698.37549
        42.100    21309700.66049
  22716632.031 8 119376675.267 8        45.000    22716636.422 7  93020844.24449
        35.200    22716635.87949
  21186566.016 9 111336194.440 9        50.500    21186572.594 9  86755518.88849
        44.000    21186571.77749  21186569.164 6  83140694.889 6        40.400
  24950656.094 5 131116538.555 5        36.400                   102168774.33855
        15.600    24950658.96945
  20616845.781 9 108342272.371 9        54.300                    84422577.55149
        44.700    20616849.50049
 15  8 24  1 44 30.0000000  0 10G05G07G21G08G20G28G15G30G19G13
  21333492.797 9 112108254.374 9        51.900    21333497.063 9  87357135.08449
        44.100    21333496.49649
  23434901.141 7 123151268.707 7        42.100    23434904.426 6  95962058.06947
        29.100    23434903.47347
  25525694.258 6 134138427.174 6        38.300                   104523456.69445
        19.000    25525696.70345
  24914883.563 4                        34.100

  21743372.883 9 114262206.237 9        50.300                    89035497.67349
        37.400    21743376.06349
  21303708.297 9 111951767.891 9        49.400                    87235173.39049
        41.500    21303711.70349
  22700232.016 8 119290490.382 8        46.000    22700235.934 7  92953687.18749
        36.100    22700235.59849
  21198264.914 9 111397673.037 9        50.100    21198272.129 9  86803424.28149
        43.700    21198271.29349  21198268.270 6  83186604.226 6        40.600
  24947340.281 5 131099110.061 5        37.000                   102155193.59645
        15.600    24947341.34445
  20608419.867 9 108297992.349 9        54.400                    84388073.64449
        44.900    20608423.10249
 15  8 24  1 45  0.0000000  0 10G05G07G21G08G20G28G15G30G19G13
  21345074.852 9 112169119.621 9        50.300    21345079.793 9  87404562.54749
        43.400    21345079.22349
  23452162.688 7 123241980.944 7        42.900    23452167.020 6  96032742.92247
        29.100    23452166.23447
  25524623.875 5 134132805.678 5        36.700                   104519076.31045
        17.400    25524627.39145
  24913725.047 3 130922367.67913        33.700    24913731.957 5 102017567.49755
        16.300    24913730.85245  24913727.109 1  97766818.66411        25.500
  21736395.016 9 114225536.698 9        50.300                    89006924.00249
        37.900    21736398.18049
  21297819.797 9 111920824.130 9        49.500                    87211061.38049
        42.400    21297823.18449
  22683864.539 8 119204480.157 8        45.200    22683868.742 7  92886666.24749
        35.800    22683868.13349
  21210020.492 9 111459450.058 9        50.300    21210028.031 9  86851562.22449
        43.500    21210027.42249  21210024.281 6  83232736.422 6        40.000
  24944128.945 5 131082242.960 5        35.600                   102142050.37245
        15.600    24944132.07445
  20600056.953 9 108254045.013 9        54.600                    84353828.96849
        45.300    20600060.17249
 15  8 24  1 45 30.0000000  0 10G05G07G21G08G20G28G15G30G19G13
  21356749.641 9 112230471.628 9        50.200    21356754.430 9  87452369.28749
        43.300    21356753.84049
  23469443.039 7 123332788.152 7        42.700    23469446.949 6  96103501.76747
        28.200    23469446.11347
  25523638.703 5 134127633.169 5        35.100                   104515045.82145
        16.900    25523643.37145
  24912665.906 3 130916803.91613        33.400    24912674.039 5 102013232.10353
        13.900    24912672.88743  24912668.211 1  97762663.89911        26.700
  21729524.063 9 114189431.232 9        50.000                    88978789.86549
        38.000    21729527.57049
  21292032.484 9 111890411.174 9        49.600                    87187362.99049
        41.600    21292035.59049
  22667530.609 8 119118646.114 8        45.400    22667535.016 7  92819782.57849
        35.900    22667534.60949
  21221832.844 9 111521523.540 9        49.900    21221839.734 9  86899931.17549
        43.300    21221839.02749  21221836.125 6  83279089.995 6        40.600
  24941027.008 4 131065937.986 4        34.700                   102129345.11345
        16.900    24941028.58645
  20591757.656 9 108210431.275 9        53.900                    84319844.23949
        45.200    20591760.79749
 15  8 24  1 46  0.0000000  0 10G05G07G21G08G20G28G15G30G19G13
  21368516.930 9 112292308.655 9        50.300    21368521.789 9  87500553.96649
        43.800    21368521.12549
  23486741.047 7 123423689.255 7        41.800    23486745.063 6  96174333.81147
        29.300    23486744.39847
  25522740.008 5 134122910.039 5        37.800                   104511365.47345
        19.000    25522744.36345
  24911708.930 3 130911771.95113        32.500    24911715.945 4 102009302.09214
        34.100                    24911711.867 1  97758906.31311        25.600
  21722761.172 9 114153891.358 9        49.900                    88951096.45749
        37.500    21722764.21549
  21286345.930 9 111860529.647 9        49.700                    87164078.69949
        42.200    21286349.39149
  22651230.852 8 119032989.229 8        45.200    22651235.398 7  92753036.95649
        37.000    22651234.64149
  21233701.164 9 111583891.975 9        50.100    21233708.109 9  86948529.95649
        43.700    21233707.30149  21233704.629 6  83325663.826 6        40.100
  24938031.055 4 131050196.521 4        34.800                   102117079.10045
        18.600    24938033.41445
  20583521.648 9 108167152.526 9        53.900                    84286120.53649
        45.200    20583524.91049
 15  8 24  1 46 30.0000000  0 10G05G07G21G08G20G28G15G30G19G13
  21380376.109 9 112354628.387 9        50.200    21380381.027 9  87549114.79249
        43.800    21380380.31649
  23504055.727 7 123514682.661 7        41.800    23504059.992 7  96245237.74547
        27.700    23504059.46547
  25521926.336 5 134118635.833 5        35.900                   104508034.88045
        17.800    25521930.31645
  24910850.930 3 130907272.40113        33.400    24910858.770 3 102005795.90613
        32.400                    24910856.000 1  97755546.25211        25.600
  21716106.070 9 114118918.600 9        50.600                    88923844.96049
        37.800    21716109.18849
  21280761.086 9 111831180.548 9        50.000                    87141209.29049
        42.200    21280764.71949
  22634965.430 8 118947511.537 8        46.400    22634969.352 7  92686430.96849
        35.900    22634968.59449
  21245625.117 9 111646553.535 9        50.900    21245631.617 9  86997357.15049
        43.300    21245630.70349  21245628.031 6  83372456.554 6        40.300
  24935144.227 5 131035019.526 5        35.700                   102105252.92945
        17.400    24935144.99645
  20575349.805 9 108124209.904 9        54.500                    84252658.75749
        45.300    20575353.21949
 15  8 24  1 47  0.0000000  0 10G05G07G21G08G20G28G15G30G19G13
  21392327.000 9 112417429.208 9        50.000    21392331.391 9  87598050.48649
        43.800    21392330.74649
  23521388.648 6 123605767.176 6        40.500    23521393.125 7  96316212.65847
        28.900    23521392.44947
  25521199.828 5 134114810.330 5        35.400                   104505053.94445
        16.300    25521201.73845
  24910098.039 5 130903305.64215        35.800    24910104.906 3 102002704.89213
        33.600                    24910100.879 1  97752584.08011        24.600
  21709559.164 9 114084514.382 9        51.300                    88897036.47849
        37.900    21709562.28149
  21275277.703 9 111802364.265 9        49.300                    87118755.06249
        42.300    21275280.77749
  22618733.680 8 118862214.508 8        45.800    22618737.531 7  92619965.78049
        36.900    22618737.10249
  21257604.156 9 111709506.661 9        50.300    21257611.313 9  87046411.53949
        43.000    21257610.50049  21257607.715 6  83419467.010 6        40.600
  24932363.102 5 131020408.438 5        35.700                   102093867.68045
        17.800    24932363.92245
  20567242.656 9 108081604.916 9        53.900                    84219460.06449
        45.100    20567245.95749
 15  8 24  1 47 30.0000000  0 10G05G07G21G08G20G28G15G30G19G13
  21404368.430 9 112480709.209 9        49.500    21404373.410 9  87647359.57149
        43.800    21404372.81349
  23538739.578 7 123696941.682 7        41.400    23538743.148 7  96387257.71047
        28.900    23538742.95347
  25520557.305 6 134111433.113 6        38.700                   104502422.43245
        17.800    25520558.51645
  24909443.719 4 130899872.453 4        34.800    24909450.848 4 102000034.63955
        15.600    24909450.07045  24909445.801 1  97750020.297 1        25.400
  21703120.313 9 114050679.315 9        50.400                    88870671.48649
        37.700    21703123.94549
  21269895.563 9 111774081.751 9        50.100                    87096716.74949
        42.100    21269899.17649
  22602536.203 8 118777099.341 8        45.300    22602541.191 7  92553642.27149
        36.900    22602540.69949
  21269639.664 9 111772749.567 9        50.200    21269646.574 9  87095691.72849
        43.700    21269645.69149  21269643.078 6  83466693.853 6        40.000
  24929689.570 5 131006364.134 5        36.600                   102082924.06745
        19.000    24929691.51645
  20559199.602 9 108039338.752 9        54.900                    84186525.38849
        45.800    20559202.98849
 15  8 24  1 48  0.0000000  0 10G05G07G21G08G20G28G15G30G19G13
  21416501.000 9 112544466.254 9        49.700    21416505.594 9  87697040.37449
        43.600    21416504.90249
  23556106.703 6 123788204.676 6        40.800    23556109.957 7  96458371.71247
        29.800    23556109.73047
  25519999.555 6 134108503.891 6        38.600                   104500139.89745
        18.300    25520001.62145
  24908893.281 4 130896973.137 4        34.100    24908899.777 5 101997775.54345
        15.600    24908898.57045  24908895.301 1  97747855.247 1        24.600
  21696790.789 9 114017414.784 9        50.500                    88844751.07949
        38.200    21696794.00849
  21264615.344 9 111746334.099 9        49.400                    87075095.21749
        41.900    21264619.21549
  22586374.578 8 118692167.948 8        45.000    22586379.254 8  92487461.98349
        36.200    22586378.69149
  21281728.633 9 111836280.536 9        51.000    21281735.719 9  87145196.37949
        42.800    21281735.14549  21281732.594 6  83514135.815 6        40.000
  24927125.945 5 130992887.231 5        35.100                   102072422.60945
        19.300    24927127.37945
  20551221.547 9 107997412.647 9        54.600                    84153855.70349
        45.800    20551224.68449
 15  8 24  1 48 30.0000000  0 10G05G07G21G08G20G28G15G30G19G13
  21428723.977 9 112608698.646 9        51.300    21428728.934 9  87747091.57349
        43.400    21428728.16449
  23573488.992 6 123879554.993 6        40.800    23573493.453 7  96529553.75448
        30.200    23573492.77048
  25519527.313 6 134106022.543 6        38.100                   104498206.38545
        18.600    25519529.89845
  24908444.320 5 130894608.294 5        37.000    24908449.391 5 101995932.76745
        15.600    24908448.59845  24908444.621 1  97746089.284 1        24.800
  21690569.391 9 113984722.098 9        49.600                    88819276.24749
        37.800    21690572.50849
  21259436.898 9 111719121.549 9        49.400                    87053890.64449
        42.000    21259440.18449
  22570248.391 8 118607421.824 8        46.200    22570252.527 8  92421426.04449
        36.500    22570251.70349
  21293873.211 9 111900098.109 9        50.900    21293880.340 9  87194924.35749
        43.600    21293879.24249  21293876.570 6  83561791.794 6        40.900
  24924669.023 5 130979979.306 5        37.100                   102062364.47145
        18.600    24924671.02345
  20543308.023 9 107955828.004 9        54.100                    84121452.07649
        45.500    20543311.49649
 15  8 24  1 49  0.0000000  0 10G05G07G21G08G20G28G15G30G19G13
  21441037.250 9 112673404.256 9        50.800    21441041.711 9  87797511.53249
        43.000    21441041.18849
  23590889.156 7 123970990.959 7        41.400    23590893.219 7  96600802.53348
        30.600    23590892.51648
  25519140.031 5 134103988.445 5        37.300                   104496621.37645
        17.400    25519143.21945
  24908095.164 5 130892778.425 5        35.500    24908101.816 5 101994506.90645
        16.900    24908100.32445  24908097.285 1  97744722.803 1        26.200
  21684457.164 9 113952602.539 9        50.000                    88794248.01849
        38.400    21684460.49249
  21254360.508 9 111692444.720 9        50.800                    87033103.52449
        42.200    21254363.60549
  22554157.211 8 118522862.316 8        46.300    22554161.242 7  92355535.52749
        37.000    22554160.52749
  21306071.539 9 111964200.271 9        51.900    21306078.328 9  87244874.09649
        43.400    21306077.48449  21306074.871 6  83609660.297 6        40.500
  24922321.617 4 130967640.731 4        34.800                   102052750.04445
        18.300    24922323.09845
  20535459.813 9 107914585.851 9        54.300                    84089315.33849
        45.400    20535463.24649
 15  8 24  1 49 30.0000000  0 10G05G07G21G08G20G28G15G30G19G13
  21453439.656 9 112738581.021 9        50.300    21453444.824 9  87848298.60949
        43.300    21453443.96949
  23608304.391 7 124062511.633 7        41.400    23608308.879 7  96672117.33747
        29.400    23608308.07847
  25518836.664 3 134102401.181 3        32.900                   104495384.50644
        14.800    25518841.10944
  24907848.297 5 130891484.004 5        37.300    24907855.246 5 101993498.28945
        16.900    24907853.91845  24907850.820 1  97743756.213 1        27.800
  21678454.758 9 113921057.445 9        50.100                    88769667.42649
        38.800    21678458.11349
  21249386.242 9 111666303.828 9        49.500                    87012734.01249
        41.800    21249389.77349
  22538101.867 8 118438490.819 8        46.100    22538105.527 7  92289791.50949
        37.500    22538105.36749
  21318323.367 9 112028585.468 9        51.100    21318330.379 9  87295044.37749
        42.600    21318329.27349  21318327.070 6  83657740.145 6        40.700
  24920081.250 5 130955872.752 5        36.300                   102043580.20345
        17.800    24920084.59845
  20527677.227 9 107873687.432 9        54.100                    84057446.43849
        45.800    20527680.70749
 15  8 24  1 50  0.0000000  0 10G05G07G21G08G20G28G15G30G19G13
  21465931.406 9 112804226.893 9        51.300    21465936.625 9  87899451.22849
        43.700    21465936.10949
  23625736.477 7 124154116.481 7        41.300    23625740.816 7  96743497.70147
        29.600    23625740.25447
  25518621.133 5 134101260.533 5        37.400                   104494495.72145
        16.900    25518624.00445
  24907704.695 5 130890725.485 5        37.300    24907710.848 5 101992907.19045
        17.800    24907709.32445  24907706.344 1  97743189.786 1        28.100
  21672560.734 9 113890088.143 9        49.800                    88745535.50649
        38.400    21672564.32049
  21244513.875 9 111640700.636 9        49.800                    86992783.48849
        41.800    21244517.47349
  22522082.570 8 118354309.443 8        46.400    22522086.582 8  92224195.63749
        37.600    22522086.23849
  21330629.398 9 112093252.318 9        51.500    21330636.094 9  87345434.13949
        43.400    21330635.41049  21330632.859 6  83706030.330 6        40.100
  24917951.453 5 130944676.62115        37.500                   102034856.04155
        17.400    24917953.48845
  20519960.438 9 107833134.563 9        53.900                    84025846.80649
        46.000    20519963.94549
 15  8 24  1 50 30.0000000  0 10G05G07G21G08G20G28G15G30G19G13
  21478512.930 9 112870339.791 9        52.100    21478517.781 9  87950967.76149
        43.500    21478517.07849
  23643183.656 7 124245803.776 7        41.800    23643188.426 7  96814942.33447
        28.900    23643187.84047
  25518489.148 5 134100566.293 5        36.400                   104493954.71745
        18.300    25518491.33245
  24907663.477 5 130890503.726 5        37.800    24907668.297 5 101992734.35845
        17.400    24907666.37145  24907664.035 1  97743024.194 1        26.700
  21666777.492 9 113859695.316 9        50.000                    88721852.79149
        38.800    21666781.04749
  21239744.000 9 111615635.504 9        50.900                    86973252.23049
        41.800    21239747.50849
  22506099.578 8 118270319.627 8        46.800    22506104.090 7  92158749.03649
        37.100    22506103.46949
  21342988.047 9 112158199.140 9        51.900    21342994.949 9  87396042.05449
        42.800    21342994.33649  21342991.137 6  83754529.585 6        40.200
  24915929.039 5 130934053.278 5        37.100                   102026578.10145
        17.400    24915931.85945
  20512309.352 9 107792928.289 9        54.500                    83994517.24049
        45.500    20512312.44149
 15  8 24  1 51  0.0000000  0 10G05G07G21G08G20G28G15G30G19G13
  21491181.813 9 112936918.030 9        51.500    21491186.891 9  88002846.89949
        43.100    21491186.17649
  23660647.023 6 124337571.873 6        40.900    23660651.113 6  96886449.93347
        29.200    23660650.28547
  25518441.664 5 134100317.919 5        36.900                   104493761.22245
        19.000    25518444.88745
  24907722.672 5 130890818.579 5        36.400    24907728.055 5 101992979.65845
        16.900    24907727.49245  24907725.039 1  97743259.306 1        27.300
  21661103.641 9 113829880.321 9        50.300                    88698620.32449
        38.300    21661107.53549
  21235077.039 9 111591109.250 9        51.600                    86954140.87949
        42.300    21235080.67249
  22490153.492 8 118186522.661 8        47.000    22490158.004 7  92093452.70549
        37.900    22490157.28949
  21355400.063 9 112223424.096 9        51.000    21355406.766 9  87446866.68949
        42.600    21355406.16449  21355403.434 6  83803236.527 6        40.200
  24914017.469 6 130924003.388 6        38.200                   102018746.97045
        16.300    24914018.73845
  20504724.445 9 107753069.793 9        54.600                    83963458.67649
        45.900    20504727.90249
 15  8 24  1 51 30.0000000  0 10G05G07G21G08G20G28G15G30G19G13
  21503939.828 9 113003959.670 9        50.900    21503944.566 9  88055087.13149
        43.400    21503943.86349
  23678125.320 7 124429419.881 7        42.200    23678129.082 7  96958019.79147
        29.400    23678128.82847
  25518479.898 5 134100515.168 5        37.200                   104493914.83545
        19.000    25518482.09045
  24907885.250 5 130891670.567 5        35.400    24907891.820 5 101993643.52845
        16.900    24907890.50445  24907886.996 1  97743895.528 1        25.800
  21655540.531 9 113800644.227 9        51.100                    88675838.95149
        38.600    21655544.12149
  21230512.211 9 111567121.667 9        50.700                    86935449.27549
        42.600    21230515.94149
  22474244.438 8 118102920.440 8        46.500    22474248.652 7  92028308.12149
        36.700    22474248.03549
  21367864.664 9 112288925.641 9        51.100    21367871.395 9  87497906.86649
        42.700    21367870.21549  21367867.719 6  83852150.032 6        40.800
  24912213.641 5 130914527.742 5        36.400                   102011363.34845
        17.800    24912214.85245
  20497206.242 9 107713560.775 9        54.800                    83932672.42549
        46.200    20497209.32049
 15  8 24  1 52  0.0000000  0 10G05G07G21G08G20G28G15G30G19G13
  21516785.125 9 113071462.217 9        52.200    21516789.938 9  88107686.51449
        43.000    21516789.13349
  23695618.586 7 124521346.330 7        42.800    23695622.016 7  97029650.78847
        29.700    23695621.55947
  25518601.586 5 134101156.822 5        37.000                   104494414.78245
        17.400    25518604.19145
  24908147.805 5 130893059.94915        36.900    24908155.000 5 101994726.21655
        18.300    24908154.28145  24908149.484 1  97744933.07311        25.600
  21650087.500 9 113771987.464 9        50.100                    88653509.00549
        38.500    21650090.44549
  21226050.680 9 111543673.561 9        50.500                    86917178.04049
        42.200    21226053.84449
  22458372.984 8 118019514.167 8        47.400    22458377.480 7  91963316.24449
        37.600    22458376.39849
  21380381.320 9 112354701.762 9        51.100    21380388.102 9  87549160.98349
        42.700    21380387.28149  21380384.785 6  83901268.563 6        40.500
  24910520.242 5 130905627.229 5        36.400                   102004427.87245
        17.800    24910521.90645
  20489754.383 9 107674401.738 9        54.600                    83902158.89249
        45.500    20489757.98049
 15  8 24  1 52 30.0000000  0 10G05G07G21G08G20G28G15G30G19G13
  21529717.883 9 113139423.922 9        49.400    21529722.668 9  88160643.67349
        43.400    21529721.99649
  23713125.883 7 124613350.536 7        42.200    23713130.730 7  97101342.35947
        29.300    23713129.91847
  25518807.500 5 134102243.030 5        35.800                   104495261.24545
        15.600    25518811.06645
  24908516.016 6 130894987.426 6        38.700    24908522.195 5 101996228.14045
        17.800    24908521.88745  24908516.680 1  97746372.394 1        25.500
  21644744.813 9 113743911.917 9        50.300                    88631631.94949
        38.700    21644747.82849
  21221691.008 9 111520765.721 9        51.000                    86899327.79349
        42.600    21221694.50049
  22442539.117 8 117936305.624 8        47.000    22442542.766 8  91898478.41949
        38.400    22442541.93849
  21392950.039 9 112420751.345 9        48.900    21392956.637 9  87600628.20149
        42.700    21392955.68849  21392953.191 6  83950591.305 6        39.600
  24908935.227 5 130897302.553 5        36.400                   101997941.11345
        17.800    24908937.77345
  20482369.680 9 107635594.689 9        54.600                    83871919.64149
        46.100    20482373.28149
 15  8 24  1 53  0.0000000  0 10G05G07G21G08G20G28G15G30G19G13
  21542737.344 9 113207842.591 9        49.400    21542742.512 9  88213956.90749
        43.000    21542742.14149
  23730648.805 7 124705431.085 7        42.200    23730652.723 7  97173093.40247
        28.700    23730652.13747
  25519099.398 6 134103773.382 6        38.000                   104496453.74245
        17.800    25519102.61345
  24908984.742 5 130897453.111 5        37.400    24908991.949 6 101998149.44546
        20.400    24908990.61346  24908986.051 1  97748213.648 1        26.400
  21639513.141 9 113716418.589 9        49.900                    88610208.57649
        37.800    21639516.43049
  21217434.500 9 111498398.467 9        50.100                    86881898.77449
        42.600    21217437.95349
  22426742.664 8 117853296.309 8        47.000    22426747.086 7  91833795.84549
        37.100    22426746.03549
  21405570.383 9 112487072.508 9        49.000    21405577.480 9  87652307.03149
        42.700    21405576.66049  21405573.988 6  84000116.848 6        39.900
  24907461.891 6 130889554.739 6        38.900                   101991903.85845
        19.300    24907463.55145
  20475052.070 9 107597140.718 9        54.100                    83841955.50649
        45.900    20475055.88349
 15  8 24  1 53 30.0000000  0 10G05G07G21G08G20G28G15G30G19G13
  21555843.664 9 113276715.991 9        51.600    21555848.320 9  88267624.48049
        43.100    21555847.65249
  23748184.828 7 124797586.656 7        43.200    23748188.801 6  97244902.93947
        28.800    23748187.76647
  25519475.055 5 134105747.256 5        37.700                   104497991.81145
        18.600    25519477.03145
  24909555.820 5 130900457.307 5        37.700    24909563.098 6 102000490.38145
        19.300    24909563.59445  24909557.391 1  97750457.036 1        27.100
  21634392.117 9 113689508.304 9        49.100                    88589239.52449
        39.300    21634395.30549
  21213281.281 9 111476571.840 9        50.200                    86864891.01849
        42.800    21213284.68449
  22410984.719 8 117770488.125 8        46.700    22410989.383 8  91769269.99649
        37.400    22410988.71149
  21418242.602 9 112553663.571 9        49.600    21418249.383 9  87704196.16749
        42.700    21418248.61349  21418245.883 6  84049843.944 6        39.800
  24906096.375 4 130882384.632 4        34.300                   101986316.78145
        16.900    24906098.44145
  20467801.797 9 107559041.147 9        54.100                    83812267.52749
        46.000    20467805.78949
 15  8 24  1 54  0.0000000  0 10G05G07G21G08G20G28G15G30G19G13
  21569036.078 9 113346041.983 9        49.400    21569040.941 9  88321644.72649
        43.400    21569040.31349
  23765735.883 7 124889816.485 7        42.400    23765740.211 7  97316770.31047
        29.700    23765740.09047
  25519935.703 5 134108164.002 5        36.300                   104499874.98046
        20.400    25519937.58246
  24910229.242 6 130904000.412 6        38.500    24910237.336 6 102003251.25646
        20.100    24910236.90646  24910232.695 1  97753102.863 1        28.300
  21629382.352 9 113663182.137 9        48.200                    88568725.62349
        38.600    21629385.62949
  21209230.961 9 111455287.891 9        50.700                    86848306.14549
        42.500    21209234.53149
  22395265.117 8 117687882.639 8        46.400    22395269.598 8  91704902.08949
        37.800    22395269.30549
  21430965.242 9 112620523.115 9        49.100    21430972.094 9  87756294.51449
        42.600    21430971.33249  21430968.191 6  84099771.530 6        39.700
  24904842.750 5 130875792.940 5        35.000                   101981180.41545
        16.900    24904844.74645
  20460619.086 9 107521297.350 9        54.400                    83782856.77849
        46.200    20460623.15649
 15  8 24  1 54 30.0000000  0 10G05G07G21G08G20G28G15G30G19G13
  21582313.875 9 113415818.914 9        51.000    21582318.805 9  88376016.34549
        43.300    21582318.12949
  23783300.336 7 124982118.970 7        42.500    23783304.480 7  97388694.29547
        29.000    23783304.17247
  25520479.211 5 134111023.394 5        36.500                   104502103.01945
        17.800    25520481.89145
  24911007.203 6 130908082.510 6        38.300    24911013.930 6 102006432.10846
        20.400    24911013.57846  24911009.898 1  97756151.194 1        28.200
  21624484.094 9 113637441.057 9        48.400                    88548667.63349
        38.800    21624487.14149
  21205283.805 9 111434545.615 9        50.100                    86832143.34349
        42.600    21205286.96149
  22379584.664 8 117605481.553 8        46.400    22379589.609 8  91640693.47149
        38.000    22379589.12549
  21443739.031 9 112687649.493 9        49.100    21443745.848 9  87808600.78349
        42.500    21443744.91049  21443742.473 6  84149898.368 6        39.600
  24903697.961 3 130869780.427 3        33.900                   101976495.32845
        17.400    24903700.00845
  20453505.078 9 107483910.702 9        53.900                    83753724.32849
        46.300    20453508.69149
 15  8 24  1 55  0.0000000  0 10G05G07G21G08G20G28G15G30G19G13
  21595677.555 9 113486044.218 9        51.000    21595682.250 9  88430737.34449
        43.100    21595681.70349
  23800878.406 7 125074493.027 7        42.100    23800882.680 6  97460674.06147
        28.000    23800881.70347
  25521106.813 5 134114324.456 5        35.900                   104504675.26145
        19.000    25521109.49645
  24911885.813 5 130912703.996 5        37.200    24911892.918 6 102010033.26646
        20.600    24911893.23046  24911888.551 1  97759602.324 1        27.300
  21619697.000 9 113612285.800 9        49.100                    88529066.14249
        38.700    21619700.11349
  21201439.781 9 111414345.759 9        50.500                    86816403.21249
        42.400    21201443.28149
  22363943.633 8 117523286.099 8        46.500    22363947.887 7  91576645.06949
        38.300    22363947.38749
  21456563.063 9 112755040.879 9        49.300    21456570.152 9  87861113.55149
        41.600    21456569.23849  21456566.742 6  84200223.095 6        40.400
  24902663.648 3 130864347.507 3        33.800                   101972261.89345
        19.300    24902666.59845
  20446458.781 9 107446882.217 9        54.100                    83724870.96149
        45.800    20446462.44949
 15  8 24  1 55 30.0000000  0 10G05G07G21G08G20G28G15G30G19G13
  21609125.844 9 113556715.870 9        51.600    21609130.250 9  88485806.15649
        42.800    21609129.82049
  23818470.211 6 125166937.530 6        40.900    23818473.676 6  97532708.72147
        28.100    23818473.31647
  25521818.672 4 134118066.855 4        34.200                   104507591.36945
        16.300    25521821.98445
  24912867.617 6 130917864.903 6        39.300    24912875.258 6 102014054.73145
        19.900    24912875.09045  24912870.996 1  97763456.219 1        27.500
  21615022.086 9 113587717.729 9        49.000                    88509922.19649
        39.000    21615025.52349
  21197699.281 9 111394688.979 9        49.800                    86801086.25149
        42.200    21197702.55149
  22348342.352 8 117441298.067 8        47.000    22348346.512 8  91512758.31249
        38.600    22348345.98849
  21469437.250 9 112822695.790 9        49.400    21469444.742 9  87913831.66149
        42.300    21469443.74249  21469440.953 6  84250744.622 6        40.000
  24901741.867 5 130859494.913 5        35.400                   101968480.69345
        17.800    24901743.70345
  20439481.164 9 107410213.260 9        55.100                    83696297.75849
        45.800    20439484.71549
 15  8 24  1 56  0.0000000  0 10G05G07G21G08G20G28G15G30G19G13
  21622658.797 9 113627831.650 9        50.800    21622663.488 9  88541221.04749
        42.100    21622663.04349
  23836074.938 7 125259451.204 7        42.100    23836079.176 6  97604797.30147
        28.400    23836078.76247
  25522614.930 5 134122249.941 5        35.800                   104510850.93445
        16.300    25522618.00445
  24913952.461 6 130923565.410 6        38.100    24913959.875 6 102018496.66146
        20.900    24913959.85246  24913955.758 1  97767713.076 1        26.500
  21610458.289 8 113563737.264 8        47.900                    88491236.10449
        39.200    21610462.17249
  21194062.102 9 111375575.776 9        50.300                    86786192.86249
        42.600    21194065.14149
  22332780.031 8 117359518.976 8        46.800    22332784.523 8  91449034.35649
        38.600    22332784.35249
  21482361.797 9 112890612.466 9        49.800    21482368.711 9  87966753.74849
        42.200    21482367.73449  21482364.945 6  84301461.623 6        39.500
  24900928.227 3 130855223.502 3        32.600                   101965152.33245
        17.400    24900930.42245
  20432571.828 9 107373905.024 9        54.900                    83668005.61949
        45.800    20432575.25849
 15  8 24  1 56 30.0000000  0 10G05G07G21G08G20G28G15G30G19G13
  21636275.547 9 113699389.224 9        51.400    21636281.102 9  88596980.18349
        42.700    21636280.43449
  23853692.609 7 125352032.651 7        42.000    23853696.262 7  97676938.65847
        28.100    23853696.10547
  25523494.203 4 134126872.863 4        34.800                   104514453.28345
        17.400    25523497.88745
  24915140.508 6 130929805.462 6        38.500    24915147.602 6 102023359.03646
        21.700    24915147.05546  24915143.195 1  97772372.848 1        27.500
  21606007.297 9 113540345.109 9        49.100                    88473008.44749
        38.700    21606010.19149
  21190528.602 9 111357006.122 9        50.300                    86771723.01849
        42.500    21190531.81649
  22317257.914 8 117277949.865 8        46.800    22317262.078 8  91385474.01649
        38.400    22317261.87949
  21495335.461 9 112958788.907 9        49.800    21495342.188 9  88019878.25149
        42.700    21495341.44549  21495338.539 6  84352372.604 6        39.600
  24900225.930 3 130851533.212 3        32.900                   101962276.80045
        16.900    24900228.15645
  20425731.297 9 107337958.129 9        54.500                    83639995.05449
        46.100    20425734.35949
 15  8 24  1 57  0.0000000  0 10G05G07G21G08G20G28G15G30G19G13
  21649976.336 9 113771386.367 9        51.900    21649981.727 9  88653081.83649
        43.000    21649980.96549
  23871322.961 7 125444681.076 7        41.900    23871327.379 6  97749132.22647
        27.300    23871326.87547
  25524458.492 5 134131935.112 5        35.000                   104518397.88545
        17.800    25524460.95745
  24916431.039 6 130936585.693 6        38.000    24916437.727 6 102028642.35046
        20.400    24916437.46146  24916433.602 1  97777436.027 1        27.100
  21601667.977 9 113517542.325 9        49.600                    88455240.04849
        39.100    21601670.94949
  21187098.828 9 111338980.477 9        51.400                    86757677.07149
        42.400    21187101.66849
  22301776.531 8 117196593.134 8        47.700    22301780.219 8  91322079.17049
        38.700    22301779.79349
  21508358.039 9 113027223.802 9        50.000    21508364.520 9  88073204.13549
        42.200    21508363.71549  21508361.102 6  84403476.580 6        40.200
  24899635.289 5 130848424.923 5        36.300                   101959854.72143
        13.900    24899636.57043
  20418960.039 9 107302374.637 9        54.600                    83612267.66849
        46.300    20418963.38749
 15  8 24  1 57 30.0000000  0 10G05G07G21G08G20G28G15G30G19G13
  21663760.555 9 113843821.280 9        51.600    21663764.867 9  88709524.61849
        43.000    21663764.36349
  23888966.297 7 125537395.962 7        41.600    23888970.313 6  97821377.57247
        26.800    23888969.43047
  25525504.781 5 134137436.615 5        35.400                   104522684.80945
        16.900    25525507.47745
  24917823.469 6 130943906.157 6        38.500    24917830.121 6 102034346.62646
        20.400    24917829.69946  24917826.430 1  97782902.622 1        28.100
  21597441.547 9 113495330.426 9        50.400                    88437932.07049
        39.300    21597444.41849
  21183771.984 9 111321499.451 9        52.100                    86744055.50749
        42.600    21183775.72749
  22286334.938 8 117115450.847 8        47.100    22286339.805 8  91258851.42249
        38.000    22286339.18049
  21521429.789 9 113095916.280 9        51.300    21521437.055 9  88126730.74049
        42.000    21521435.82849  21521433.098 6  84454772.904 6        39.700
  24899154.055 4 130845900.031 4        34.800                   101957887.17045
        16.300    24899155.01245
  20412258.305 9 107267156.621 9        54.400                    83584825.05649
        46.000    20412261.76649
 15  8 24  1 58  0.0000000  0 10G05G07G21G08G20G28G15G30G19G13
  21677627.141 9 113916691.584 9        51.500    21677631.793 9  88766306.67249
        42.500    21677631.30149
  23906621.078 7 125630175.097 7        42.800    23906625.863 6  97893672.96847
        28.300    23906624.87147
  25526635.430 2 134143375.977 2        31.800                   104527312.87845
        16.900    25526637.22745
  24919319.930 6 130951766.527 6        39.800    24919326.363 6 102040471.58346
        20.100    24919325.32446  24919322.348 1  97788772.374 1        28.500
  21593327.117 9 113473709.475 9        51.300                    88421084.57249
        38.400    21593330.21549
  21180549.117 9 111304563.069 9        51.900                    86730858.34049
        42.400    21180552.05549
  22270935.086 9 117034523.804 9        48.300    22270939.316 8  91195791.39849
        37.700    22270938.89549
  21534549.898 9 113164863.714 9        51.300    21534557.047 9  88180456.01949
        41.900    21534556.16049  21534553.313 6  84506259.627 6        40.000
  24898784.688 5 130843957.968 5        35.000                   101956373.91344
        14.800    24898785.68044
  20405626.125 9 107232304.040 9        54.600                    83557667.20949
        45.900    20405629.07449
 15  8 24  1 58 30.0000000  0 10G05G07G21G08G20G28G15G30G19G13
  21691576.047 9 113989994.971 9        51.700    21691580.758 9  88823426.18749
        42.600    21691580.19549
  23924288.930 7 125723017.536 7        43.100    23924293.129 6  97966017.70347
        26.500    23924292.35947
  25527848.016 3 134149752.691 3        32.500                   104532281.69745
        16.900    25527850.77745
  24920918.055 6 130960167.048 6        39.000    24920925.176 6 102047017.44946
        21.300    24920923.91846  24920920.469 1  97795045.507 1        27.300
  21589325.266 9 113452680.395 9        50.900                    88404698.27549
        38.800    21589328.43849
  21177429.758 9 111288171.608 9        51.700                    86718085.78449
        42.300    21177433.00449
  22255576.656 9 116953813.885 9        49.300    22255581.418 8  91132900.56949
        38.800    22255580.52049
  21547718.430 9 113234064.850 9        51.200    21547725.480 9  88234378.97849
        41.700    21547724.52049  21547721.555 6  84557935.792 6        39.800
  24898524.711 2 130842599.730 2        31.300                   101955315.58444
        14.800    24898527.51244
  20399063.547 9 107197818.431 9        54.700                    83530795.31149
        46.200    20399067.01649
 15  8 24  1 59  0.0000000  0 10G05G07G21G08G20G28G15G30G19G13
  21705607.531 9 114063729.475 9        51.700    21705612.227 9  88880881.63649
        42.400    21705611.64849
  23941967.273 7 125815922.645 7        42.500    23941971.957 6  98038411.26847
        28.300    23941971.62147
  25529145.602 4 134156566.414 4        34.100                   104537591.05145
        18.300    25529148.39845
  24922619.750 6 130969108.025 6        40.400    24922626.695 6 102053984.44346
        22.500    24922625.19946  24922621.867 1  97801722.215 1        28.800
  21585436.320 9 113432244.069 9        50.300                    88388773.86049
        38.900    21585439.25849
  21174414.234 9 111272325.600 9        52.300                    86705738.25849
        42.800    21174417.95349
  22240260.273 9 116873322.943 9        48.900    22240264.203 8  91070180.36349
        39.200    22240263.75049
  21560935.250 9 113303518.356 9        52.300    21560942.199 9  88288498.58849
        42.500    21560941.46149  21560938.734 6  84609800.420 6        39.600
  24898379.219 5 130841826.068 5        36.300                   101954712.71945
        16.900    24898381.06645
  20392571.609 9 107163701.787 9        54.300                    83504210.91449
        46.600    20392574.76649
 15  8 24  1 59 30.0000000  0 10G05G07G21G08G20G28G15G30G19G13
  21719720.008 9 114137892.409 9        50.700    21719724.879 9  88938670.92849
        42.100    21719724.08249
  23959659.219 7 125908888.988 7        43.500    23959663.383 6  98110852.55747
        26.800    23959662.29347
  25530524.984 4 134163815.884 4        34.300                   104543239.97145
        19.000    25530528.17645
  24924423.391 7 130978588.883 7        41.100    24924431.227 6 102061372.13746
        21.500    24924430.11746  24924426.668 1  97808802.082 1        28.200
  21581660.328 9 113412400.997 9        48.700                    88373311.71649
        38.800    21581663.08249
  21171502.625 9 111257024.910 9        51.000                    86693815.65649
        42.200    21171506.14849
  22224985.281 9 116793052.355 9        50.100    22224989.059 8  91007631.86149
        39.000    22224988.60249
  21574199.430 9 113373222.120 9        51.400    21574206.160 9  88342813.20849
        42.200    21574205.27749  21574202.664 6  84661851.928 6        39.200
  24898343.086 5 130841636.874 5        36.100                   101954565.30245
        19.000    24898345.09845
  20386149.453 9 107129954.550 9        53.900                    83477914.37049
        46.200    20386152.80149
 15  8 24  2  0  0.0000000  0 10G05G07G21G08G20G28G15G30G19G13
  21733913.625 9 114212481.715 9        50.800    21733918.871 9  88996792.45749
        42.100    21733918.30549
  23977361.789 7 126001915.913 7        43.000    23977365.605 6  98183341.06647
        27.800    23977364.73047
  25531987.398 5 134171501.107 5        37.300                   104549228.46245
        19.900    25531990.25845
  24926331.102 6 130988610.280 6        40.600    24926338.371 6 102069181.01746
        22.300    24926337.16446  24926334.246 1  97816285.566 1        29.100
  21577997.461 9 113393152.138 9        48.100                    88358312.60149
        38.900    21578000.99649
  21168694.992 9 111242270.204 9        51.500                    86682318.49549
        42.600    21168698.38749
  22209752.438 9 116713004.180 9        49.700    22209756.461 8  90945256.67049
        39.800    22209755.56649
  21587510.859 9 113443175.081 9        51.600    21587517.637 9  88397322.00949
        41.600    21587516.57049  21587514.074 6  84714089.529 6        38.800
  24898419.063 5 130842033.214 5        37.200                   101954874.11245
        18.300    24898421.77745
  20379798.594 9 107096578.828 9        54.200                    83451907.32449
        46.300    20379801.97349
 15  8 24  2  0 30.0000000  0 10G05G07G21G08G20G28G15G30G19G13
  21748188.484 9 114287494.991 9        51.200    21748193.566 9  89055244.34549
        42.000    21748192.88349
  23995074.906 7 126095001.654 7        43.500    23995080.051 6  98255875.37947
        28.100    23995079.26247
  25533532.680 5 134179620.967 5        35.700                   104555555.64545
        17.800    25533535.14545
  24928341.203 6 130999172.089 6        39.400    24928347.305 6 102077411.01146
        20.600    24928346.54746  24928343.566 1  97824172.649 1        29.700
  21574447.836 9 113374498.077 9        48.700                    88343776.97149
        39.800    21574451.07849
  21165991.180 9 111228061.517 9        52.500                    86671246.80349
        42.200    21165994.65649
  22194561.430 9 116633179.560 9        49.000    22194566.551 8  90883055.66449
        39.200    22194565.66449
  21600869.797 9 113513375.212 9        50.800    21600876.246 9  88452023.40749
        41.700    21600875.79749  21600873.184 6  84766511.701 6        40.000
  24898604.977 5 130843014.953 5        36.300                   101955639.11945
        18.300    24898608.64145
  20373518.031 9 107063575.133 9        54.300                    83426190.15649
        46.200    20373521.28149
 15  8 24  2  1  0.0000000  0 10G05G07G21G08G20G28G15G30G19G13
  21762543.547 9 114362930.029 9        51.300    21762548.105 9  89114024.88849
        42.200    21762547.63349
  24012800.430 7 126188145.244 7        43.600    24012803.855 7  98328454.77547
        28.600    24012803.71147
  25535159.805 5 134188173.954 5        35.900                   104562220.29245
        16.900    25535162.80945
  24930453.375 5 131010273.757 5        37.600    24930459.441 5 102086061.66945
        19.600    24930458.37945  24930455.457 1  97832462.877 1        29.500
  21571011.563 9 113356439.419 9        48.100                    88329705.27949
        39.000    21571014.12549
  21163391.266 9 111214398.835 9        51.900                    86660600.56949
        42.600    21163394.22749
  22179414.781 8 116553580.119 8        47.400    22179419.621 8  90821030.14049
        39.500    22179418.84049
  21614274.984 9 113583820.871 9        50.200    21614281.930 9  88506916.12049
        41.600    21614281.44549  21614278.539 6  84819117.215 6        39.500
  24898903.359 6 130844582.327 6        38.500                   101956860.44245
        19.300    24898906.75045
  20367308.602 9 107030944.559 9        53.200                    83400763.74049
        46.200    20367312.10249
 15  8 24  2  1 30.0000000  0 10G05G07G21G08G20G28G15G30G19G13
  21776978.203 9 114438784.327 9        50.500    21776982.660 8  89173132.13149
        41.400    21776982.14849
  24030535.000 7 126281345.901 7        42.600    24030539.047 6  98401078.61247
        27.800    24030538.85947
  25536869.383 4 134197160.067 4        34.300                   104569222.47845
        16.900    25536873.37945
  24932668.883 5 131021915.731 5        37.600    24932674.887 5 102095133.33545
        18.300    24932674.41845  24932671.145 1  97841156.564 1        30.700
  21567688.156 9 113338976.840 9        48.100                    88316098.06949
        38.800    21567691.21149
  21160895.250 9 111201282.663 9        52.400                    86650380.19149
        42.400    21160898.24249
  22164310.250 9 116474207.838 9        49.200    22164315.035 8  90759181.62149
        39.000    22164314.57449
  21627726.961 9 113654510.681 9        49.900    21627733.531 9  88561999.08649
        41.400    21627733.03149  21627730.125 6  84871905.060 6        39.800
  24899314.383 7 130846735.924 7        41.100                   101958538.60646
        22.200    24899315.91046
  20361170.367 9 106998688.751 9        54.300                    83375629.35249
        46.500    20361174.15649
 15  8 24  2  2  0.0000000  0 10G05G07G21G08G20G28G15G30G19G13
  21791491.977 9 114515055.889 9        49.800    21791496.855 9  89232564.51249
        41.700    21791496.04349
  24048281.414 7 126374602.394 7        42.600    24048285.063 6  98473745.99047
        26.000    24048284.43047
  25538663.094 5 134206578.626 5        36.700                   104576561.62245
        17.800    25538665.43045
  24934986.391 5 131034097.485 5        37.000    24934993.637 6 102104625.61345
        18.300    24934992.92245  24934989.238 1  97850253.352 1        29.700
  21564478.773 9 113322111.056 9        48.300                    88302955.89549
        38.900    21564481.89549
  21158503.445 9 111188712.943 9        52.400                    86640585.61649
        42.800    21158506.60949
  22149249.766 9 116395064.313 9        48.400    22149254.855 8  90697511.35049
        39.200    22149254.71149
  21641224.961 9 113725443.102 9        50.100    21641231.340 9  88617271.10549
        41.300    21641230.44549  21641227.715 6  84924874.075 6        39.800
  24899835.648 7 130849476.164 7        41.000                   101960673.83946
        21.100    24899837.05146
  20355104.180 9 106966809.048 9        54.700                    83350788.03549
        46.700    20355107.23449
 15  8 24  2  2 30.0000000  0 10G05G07G21G08G20G28G15G30G19G13
  21806085.266 9 114591742.298 9        49.800    21806089.703 9  89292320.14749
        42.300    21806089.07849
  24066037.883 7 126467913.663 7        42.600    24066042.055 6  98546456.06947
        26.000    24066040.98847
  25540536.586 4 134216428.42914        34.200                   104584236.78755
        15.600    25540539.56345
  24937407.813 5 131046819.391 5        36.000    24937414.445 5 102114538.82445
        19.600    24937413.74245  24937410.527 1  97859753.477 1        29.100
  21561382.773 9 113305842.552 9        48.600                    88290279.13249
        38.500    21561386.14849
  21156215.289 9 111176689.625 9        51.500                    86631216.80949
        42.600    21156218.63749
  22134233.430 9 116316151.586 9        49.600    22134237.734 8  90636020.92749
        39.600    22134237.28549
  21654768.969 9 113796616.583 9        49.700    21654775.680 9  88672730.96149
        41.300    21654774.82449  21654772.387 6  84978023.097 6        39.500
  24900468.781 6 130852803.594 6        40.300                   101963266.62146
        21.300    24900469.93446
  20349109.289 9 106935306.855 9        54.100                    83326240.87149
        46.200    20349112.63349
 15  8 24  2  3  0.0000000  0 10G05G07G21G08G20G28G15G30G19G13
  21820756.445 9 114668841.060 9        49.400    21820761.348 9  89352397.09449
        41.900    21820760.74649
  24083804.742 7 126561278.492 7        41.400    24083809.117 6  98619207.84547
        27.200    24083808.23047
  25542493.453 3                        33.100

  24939930.859 5 131060081.071 5        37.200    24939937.938 5 102124872.60045
        19.300    24939937.69145  24939934.008 1  97869656.680 1        28.900
  21558401.258 9 113290172.250 9        48.400                    88278068.49349
        39.000    21558404.39549
  21154031.305 9 111165213.010 9        51.800                    86622274.00349
        42.600    21154034.64149
  22119261.227 9 116237470.871 9        49.800    22119265.402 8  90574711.28649
        39.400    22119265.22749
  21668357.953 9 113868029.409 9        49.600    21668364.746 9  88728377.31749
        40.600    21668364.08649  21668361.063 6  85031350.856 6        39.400
  24901213.219 6 130856718.205 6        39.800                   101966316.94146
        20.100    24901214.89146
  20343186.859 9 106904183.116 9        53.300                    83301988.61549
        46.200    20343189.83649
 15  8 24  2  3 30.0000000  0 10G05G07G21G08G20G28G15G30G19G13
  21835506.031 9 114746350.196 9        49.100    21835510.254 8  89412793.81749
        42.100    21835509.77749
  24101581.320 6 126654695.992 6        40.000    24101586.098 7  98692000.66547
        26.400    24101585.47747
  25544530.523 3                        33.700

  24942557.680 5 131073882.372 5        37.500    24942564.551 3 102135626.82145
        18.300    24942562.07845  24942560.152 1  97879962.805 1        27.900
  21555532.875 9 113275100.527 9        48.000                    88266324.29449
        38.700    21555536.39549
  21151951.641 9 111154282.940 9        51.400                    86613757.08049
        42.300    21151954.53149
  22104333.438 9 116159023.872 9        49.400    22104337.543 8  90513583.76649
        39.900    22104337.20349
  21681992.891 9 113939680.074 9        49.300    21681999.266 9  88784208.99049
        41.100    21681998.89149  21681996.164 6  85084856.211 6        39.100
  24902070.445 6 130861220.141 6        38.900                   101969824.95145
        19.000    24902071.19945
  20337336.273 9 106873439.353 9        54.100                    83278032.43949
        46.300    20337339.73049
 15  8 24  2  4  0.0000000  0 10G05G07G21G08G20G28G15G30G19G13
  21850332.789 9 114824266.999 9        49.100    21850337.930 8  89473508.19649
        41.800    21850337.25049
  24119368.008 6 126748165.435 6        39.200    24119372.207 6  98764833.96647
        27.200    24119371.58647
  25546651.742 5 134248558.05615        35.000                   104609272.78154
        14.800    25546653.48844
  24945285.430 5 131088223.442 5        36.900    24945292.336 4 102146801.69245
        18.300    24945290.80145  24945289.344 1  97890672.043 1        29.400
  21552778.992 9 113260628.224 9        48.400                    88255047.16349
        38.800    21552782.19149
  21149975.742 9 111143900.637 9        50.500                    86605666.99049
        42.100    21149978.86349
  22089450.273 9 116080812.874 9        49.700    22089454.277 8  90452640.13049
        40.600    22089454.00849
  21695672.141 9 114011567.395 9        51.400    21695679.012 9  88840225.08449
        41.100    21695678.53549  21695675.453 6  85138538.299 6        39.200
  24903038.859 5 130866310.162 5        35.900                   101973791.25045
        16.900    24903039.50045
  20331558.453 9 106843077.032 9        54.700                    83254373.48549
        46.900    20331561.60249
 15  8 24  2  4 30.0000000  0 10G05G07G21G08G20G28G15G30G19G13
  21865237.336 9 114902589.271 9        48.800    21865241.734 8  89534538.53249
        41.600    21865240.89149
  24137163.984 6 126841685.068 6        38.300    24137168.547 6  98837706.40846
        21.800    24137167.47346
  25548852.398 5 134260124.73215        36.400                   104618285.73155
        15.600    25548854.80145
  24948117.313 5 131103103.252 5        35.400    24948124.867 5 102158396.34945
        19.300    24948122.02745  24948121.688 1  97901783.582 1        28.400
  21550138.945 9 113246755.352 9        49.000                    88244237.12949
        39.200    21550142.32449
  21148103.836 9 111134064.720 9        51.800                    86598002.65249
        42.500    21148107.24649
  22074611.969 9 116002838.728 9        49.900    22074616.191 8  90391881.07049
        40.400    22074615.90249
  21709396.859 9 114083689.206 9        51.500    21709403.539 9  88896423.89449
        41.700    21709402.63749  21709399.906 6  85192395.496 6        38.800
  24904118.594 6 130871987.727 6        39.500                   101978215.29945
        17.400    24904119.35945
  20325853.563 9 106813096.674 9        54.500                    83231012.17749
        46.300    20325856.97749
 15  8 24  2  5  0.0000000  0 10G05G07G21G08G20G28G15G30G19G13
  21880218.664 9 114981314.662 9        48.500    21880223.152 8  89595882.98749
        41.700    21880222.47349
  24154969.742 6 126935254.395 6        39.000    24154974.102 6  98910617.55346
        23.000    24154973.50046
  25551135.008 5 134272118.31115        35.600                   104627631.34355
        15.600    25551136.88745
  24951050.906 3 131118521.960 3        33.400    24951058.762 5 102170410.95945
        17.400    24951057.60545  24951055.098 1  97913297.538 1        27.900
  21547612.984 8 113233482.481 8        47.700                    88233894.62549
        39.900    21547616.39849
  21146336.484 9 111124775.339 9        51.500                    86590764.18049
        43.300    21146339.97749
  22059819.969 9 115925103.454 9        50.500    22059823.953 8  90331308.14049
        40.000    22059823.19549
  21723164.820 9 114156044.184 9        51.200    21723172.543 9  88952804.39149
        41.300    21723171.52349  21723168.734 6  85246426.802 6        38.900
  24905311.273 6 130878253.194 6        39.300                   101983097.46745
        19.600    24905311.80545
  20320221.391 9 106783499.893 9        54.400                    83207949.75849
        46.500    20320224.62549
 15  8 24  2  5 30.0000000  0 10G05G07G21G08G20G28G15G30G19G13
  21895275.383 9 115060440.607 9        48.300    21895280.086 9  89657539.55549
        42.000    21895279.51649
  24172784.727 6 127028871.827 6        38.400    24172789.070 6  98983566.18947
        25.300    24172788.60947
  25553498.547 5 134284538.24715        36.600                   104637309.26254
        14.800    25553499.51644
  24954088.063 5 131134479.572 5        36.100    24954095.926 6 102182845.45345
        19.300    24954095.13745  24954091.336 1  97925213.920 1        28.000
  21545201.633 9 113220809.841 9        50.000                    88224019.83349
        39.100    21545205.12149
  21144672.688 9 111116032.537 9        50.300                    86583951.62349
        43.400    21144675.75449
  22045072.680 9 115847608.681 9        50.400    22045077.207 8  90270922.60749
        39.900    22045076.41449
  21736978.016 9 114228630.448 9        51.600    21736984.781 9  89009365.11149
        41.100    21736983.99649  21736981.266 6  85300630.820 6        38.900
  24906614.820 6 130885106.802 6        39.900                   101988437.96845
        19.600    24906617.22745
  20314662.398 9 106754287.767 9        53.700                    83185187.06849
        46.300    20314665.88349
 15  8 24  2  6  0.0000000  0 10G05G07G21G08G20G28G15G30G19G13
  21910408.273 9 115139964.807 9        49.500    21910413.363 8  89719506.45849
        42.100    21910412.67249
  24190608.977 6 127122536.696 6        39.400    24190612.984 6  99056551.79046
        24.200    24190612.10946
  25555942.555 5                        35.400

  24957227.336 5 131150975.482 5        35.000    24957234.020 5 102195699.47545
        18.600    24957234.20745  24957229.996 1  97937532.328 1        28.900
  21542904.664 9 113208738.381 9        49.200                    88214613.50549
        39.000    21542907.80549
  21143112.984 9 111107836.517 9        51.400                    86577565.12449
        43.000    21143116.32049
  22030372.031 9 115770356.297 9        50.200    22030376.586 8  90210725.95249
        40.200    22030375.77049
  21750834.984 9 114301446.782 9        51.500    21750841.563 9  89066105.11149
        40.900    21750840.74649  21750838.191 6  85355006.652 6        39.400
  24908031.617 5 130892548.585 5        37.800                   101994236.76146
        20.400    24908033.19546
  20309177.133 9 106725461.765 9        53.500                    83162725.25349
        47.000    20309180.55549
