     2.11           OBSERVATION DATA    G (GPS)             RINEX VERSION / TYPE
teqc  2019Feb12                         20210103 00:30:51UTCPGM / RUN BY / DATE
ZIMM                                                        MARKER NAME
14001M004                                                   MARKER NUMBER
TRIMBLE NETR9       SWISSTOPO                               OBSERVER / AGENCY
5429R49141          TRIMBLE NETR9       5.45                REC # / TYPE / VERS
99390               TRM29659.00     NONE                    ANT # / TYPE
  4331297.3480   567555.6390  4633133.7280                  APPROX POSITION XYZ
        0.0000        0.0000        0.0000                  ANTENNA: DELTA H/E/N
     1     1                                                WAVELENGTH FACT L1/2
    10    C1    L1    S1    C2    L2    S2    P2    C5    L5# / TYPES OF OBSERV
          S5                                                # / TYPES OF OBSERV
    30.0000                                                 INTERVAL
Linux 2.4.21-27.ELsmp|Opteron|gcc -static|Linux 64|=+       COMMENT
     2.11           OBSERVATION DATA    M (MIXED)           COMMENT
NetR9 5.45          Receiver Operator   20210102 000001 UTC COMMENT
L2C CARRIER PHASE MEASUREMENTS: PHASE SHIFTS REMOVED        COMMENT
L2C PHASE MATCHES L2 P PHASE                                COMMENT
GLONASS C/A & P PHASE MATCH: PHASE SHIFTS REMOVED           COMMENT
Forced Modulo Decimation to 30 seconds                      COMMENT
teqc edited: all GLONASS satellites excluded                COMMENT
teqc edited: all Galileo satellites excluded                COMMENT
  2021     1     2     0     0    0.0000000     GPS         TIME OF FIRST OBS
                                                            END OF HEADER
 21  1  2  0  0  0.0000000  0 11G21G23G16G07G15G26G08G18G27G20G10
  23589929.625 6 123965922.744 6        40.200                    96596843.86946
        23.500    23589932.59446
  21442010.617 8 112678538.433 8        47.900    21442015.238 9  87801476.79249
        38.800    21442014.96549  21442015.520 6  84143075.486 6        39.400
  21524837.695 9 113113846.640 9        48.600                    88140631.84049
        39.800    21524840.87549
  24653562.547 5 129555346.563 5        36.900    24653567.270 5 100952218.55046
        21.800    24653566.30146
  24511558.688 5 128809118.464 5        35.500    24511564.406 3 100370754.69847
        27.000    24511563.68047
  23568414.258 7 123852836.276 7        41.400    23568421.813 7  96508754.92949
        39.000    23568421.36749  23568416.262 2  92487530.942 2        31.600
  22079879.852 8 116030577.566 8        46.300    22079886.852 8  90413454.70749
        48.500    22079885.66049  22079882.020 5  86646214.334 5        37.900
  23442181.359 6 123189515.537 6        40.100    23442186.449 7  95991843.32547
        25.400    23442185.78147  23442187.676 4  91992170.722 4        34.100
  20231335.547 9 106316411.623 9        50.500    20231341.727 9  82843988.33649
        55.300    20231341.12549  20231337.559 7  79392147.003 7        43.700
  21405321.484 8 112485728.866 8        47.200                    87651247.78249
        38.200    21405324.75449
  21099651.328 9 110879423.715 9        52.000    21099657.727 9  86399624.28849
        54.900    21099657.62949  21099652.871 7  82799543.655 7        41.100
 21  1  2  0  0 30.0000000  0 11G21G23G16G07G15G26G08G18G27G20G10
  23575105.313 6 123888019.802 6        40.800                    96536140.28347
        25.600    23575108.39547
  21448642.609 9 112713388.486 9        48.400    21448647.184 9  87828632.68649
        39.200    21448646.50849  21448646.855 6  84169099.885 6        39.700
  21539376.688 9 113190249.797 9        48.500                    88200166.77049
        40.600    21539379.94149
  24656790.563 6 129572301.828 6        38.600    24656794.629 5 100965430.41446
        22.500    24656793.36346
  24514137.813 5 128822667.54315        35.400    24514141.660 3 100381312.42557
        27.800    24514141.55147
  23589016.383 6 123961102.180 6        40.300    23589023.984 7  96593117.96049
        38.200    23589023.18849  23589018.523 3  92568378.861 3        32.300
  22065272.750 8 115953820.613 8        46.300    22065280.531 8  90353644.10249
        48.700    22065279.43849  22065275.145 5  86588895.801 5        37.500
  23460117.352 6 123283768.690 6        40.600    23460121.973 7  96065287.29547
        27.500    23460121.22347  23460122.672 4  92062554.553 4        34.200
  20228498.047 9 106301499.241 9        51.300    20228504.012 9  82832368.29549
        55.100    20228503.48849  20228499.793 7  79381011.151 7        43.000
  21413558.078 8 112529012.194 8        47.000                    87684975.05049
        37.900    21413560.98449
  21093416.742 9 110846659.599 9        52.600    21093422.992 9  86374093.81249
        55.000    21093422.82849  21093418.102 6  82775076.945 6        40.800
 21  1  2  0  1  0.0000000  0 11G21G23G16G07G15G26G08G18G27G20G10
  23560317.164 6 123810308.703 6        40.500                    96475586.19346
        23.500    23560320.87146
  21455382.750 9 112748809.419 9        48.600    21455387.270 9  87856233.42349
        39.000    21455386.90649  21455387.266 6  84195550.567 6        39.100
  21553998.797 9 113267090.096 9        48.300                    88260042.32249
        39.800    21554002.08249
  24660109.711 5 129589748.282 5        36.900    24660114.066 5 100979025.02746
        20.400    24660113.16046
  24516826.234 4 128836797.613 4        34.500    24516830.273 3 100392322.91747
        26.900    24516830.35247
  23609644.742 6 124069505.614 6        40.500    23609652.324 7  96677588.15349
        37.800    23609651.69149  23609647.715 3  92649329.479 3        32.900
  22050706.117 8 115877271.807 8        45.500    22050713.906 8  90293995.70649
        48.600    22050712.89149  22050708.805 6  86531732.765 6        38.100
  23478068.898 6 123378107.134 6        40.900    23478074.223 7  96138797.77647
        26.000    23478073.70347  23478074.660 3  92133002.058 3        33.900
  20225737.406 9 106286993.498 9        50.900    20225743.609 9  82821065.11849
        55.000    20225743.11349  20225739.535 7  79370178.940 7        43.400
  21421892.820 8 112572812.562 8        47.200                    87719105.21249
        37.400    21421895.67249
  21087287.719 9 110814453.272 9        52.700    21087294.305 9  86348997.98849
        55.000    21087294.21149  21087289.281 6  82751026.782 6        40.800
 21  1  2  0  1 30.0000000  0 11G21G23G16G07G15G26G08G18G27G20G10
  23545565.648 6 123732789.335 6        40.900                    96415181.49146
        24.300    23545569.38346
  21462231.164 8 112784799.224 8        47.500    21462236.156 9  87884277.43149
        39.100    21462235.37549  21462235.824 6  84222426.118 6        39.300
  21568704.047 9 113344364.777 9        48.300                    88320256.36349
        39.900    21568707.18449
  24663522.836 5 129607684.430 5        37.900    24663527.887 5 100993001.20046
        22.200    24663527.14546
  24519626.609 5 128851508.462 5        35.900    24519629.988 5 100403785.93747
        27.900    24519629.84447
  23630299.047 6 124178043.557 6        40.200    23630306.613 7  96762163.18849
        38.100    23630306.12949  23630301.617 3  92730380.502 3        32.600
  22036179.008 8 115800931.858 8        45.900    22036186.555 8  90234510.05649
        48.800    22036185.73449  22036181.758 6  86474725.688 6        38.200
  23496036.945 6 123472529.018 6        39.900    23496042.395 7  96212373.25347
        25.800    23496041.28147  23496042.688 4  92203511.896 4        34.400
  20223054.672 9 106272894.744 9        51.300    20223060.539 9  82810079.08149
        55.000    20223060.25049  20223056.492 7  79359650.647 7        42.900
  21430325.727 8 112617127.886 8        46.900                    87753636.64949
        38.400    21430328.82049
  21081265.602 9 110782805.089 9        53.200    21081271.840 9  86324337.07549
        55.000    21081271.72749  21081266.797 6  82727393.411 6        40.900
 21  1  2  0  2  0.0000000  0 11G21G23G16G07G15G26G08G18G27G20G10
  23530849.797 6 123655461.703 6        39.500                    96354926.19646
        24.500    23530854.37546
  21469187.898 8 112821356.124 8        47.600    21469192.500 9  87912763.34149
        39.400    21469191.94949  21469192.398 6  84249725.103 6        39.200
  21583490.766 9 113422071.214 9        48.600                    88380806.82949
        40.600    21583494.10549
  24667029.891 6 129626108.639 6        39.000    24667033.051 5 101007357.66846
        21.500    24667032.38746
  24522536.359 5 128866799.47715        35.400    24522539.711 5 100415701.07257
        27.800    24522539.00047
  23650978.508 6 124286713.155 6        40.600    23650985.355 7  96846840.78649
        39.000    23650985.47749  23650980.137 2  92811529.90712        31.200
  22021692.344 8 115724802.120 8        46.000    22021699.590 8  90175188.19249
        49.000    22021698.75449  22021695.039 6  86417875.574 6        38.400
  23514020.930 6 123567032.695 6        39.600    23514026.074 7  96286012.47547
        26.000    23514025.05147  23514026.883 3  92274082.742 3        33.600
  20220449.086 9 106259203.526 9        50.900    20220455.441 9  82799410.59749
        55.200    20220454.82049  20220451.207 7  79349426.673 7        43.400
  21438855.828 8 112661956.189 8        46.500                    87788567.79249
        37.500    21438859.17649
  21075349.508 9 110751715.684 9        53.800    21075355.895 9  86300111.57249
        55.500    21075355.46149  21075350.813 7  82704177.309 7        41.100
 21  1  2  0  2 30.0000000  0 11G21G23G16G07G15G26G08G18G27G20G10
  23516172.430 6 123578327.517 6        40.400                    96294821.63447
        26.300    23516175.23847
  21476252.367 9 112858479.874 9        48.800    21476256.945 9  87941690.94449
        38.800    21476256.30949  21476257.047 6  84277447.378 6        39.900
  21598359.844 9 113500208.388 9        48.600                    88441692.92749
        40.400    21598363.08649
  24670627.758 5 129645020.700 5        37.600    24670632.055 5 101022094.34146
        21.300    24670631.46546
  24525555.016 4 128882671.62314        34.800    24525559.832 5 100428069.03157
        29.800    24525560.21147
  23671682.219 6 124395513.206 6        40.300    23671689.770 7  96931620.03449
        37.700    23671688.97749  23671684.371 2  92892776.71312        31.700
  22007245.945 8 115648885.165 8        46.100    22007253.059 8  90116032.13949
        48.900    22007251.88349  22007248.027 6  86361184.365 6        38.400
  23532019.648 6 123661618.033 6        40.200    23532025.156 7  96359715.30347
        26.500    23532024.26247  23532025.777 3  92344714.637 3        33.600
  20217921.633 9 106245921.951 9        51.400    20217928.023 9  82789061.32249
        54.900    20217927.21949  20217923.758 7  79339508.625 7        43.600
  21447484.102 8 112707297.166 8        46.600                    87823898.43649
        37.900    21447487.48449
  21069540.250 9 110721187.135 9        53.400    21069546.297 9  86276323.09549
        55.100    21069545.97749  21069541.668 7  82681380.025 7        41.300
 21  1  2  0  3  0.0000000  0 11G21G23G16G07G15G26G08G18G27G20G10
  23501530.969 6 123501385.610 6        40.800                    96234866.93947
        25.600    23501534.26647
  21483424.070 9 112896167.451 9        48.300    21483428.535 9  87971057.89849
        38.700    21483427.46149  21483428.914 6  84305590.721 6        39.900
  21613310.258 9 113578772.909 9        48.300                    88502912.03749
        39.600    21613313.37149
  24674319.055 6 129664418.041 6        38.100    24674322.723 5 101037209.11546
        20.600    24674322.90646
  24528686.633 5 128899123.067 5        37.200    24528689.973 5 100440888.38048
        31.300    24528689.72348
  23692410.398 6 124504439.706 6        40.300    23692417.789 7  97016497.82249
        38.400    23692416.99249  23692413.551 3  92974117.897 3        32.500
  21992839.664 8 115573181.234 8        46.600    21992846.910 8  90057042.06949
        48.900    21992845.81649  21992842.008 6  86304652.222 6        38.700
  23550033.008 6 123756282.231 6        38.100    23550038.902 7  96433479.57446
        24.400    23550037.84446  23550039.016 3  92415405.40413        33.400
  20215472.109 9 106233049.356 9        50.800    20215478.547 9  82779030.72149
        55.200    20215477.73849  20215474.375 7  79329895.967 7        43.400
  21456209.625 8 112753147.511 8        46.500                    87859625.98049
        37.400    21456212.75049
  21063837.102 9 110691218.800 9        52.800    21063843.621 9  86252971.15949
        55.100    21063843.23049  21063838.922 7  82659001.063 7        41.500
 21  1  2  0  3 30.0000000  0 11G21G23G16G07G15G26G08G18G27G20G10
  23486927.008 7 123424637.917 7        41.700                    96175063.56747
        25.300    23486929.88347
  21490703.250 8 112934418.575 8        47.600    21490707.520 9  88000863.97849
        38.700    21490707.14549  21490708.184 6  84334154.871 6        39.900
  21628341.555 9 113657763.529 9        48.300                    88564463.17649
        39.400    21628344.75849
  24678103.281 6 129684300.585 6        38.100    24678106.703 5 101052702.01246
        20.600    24678105.78146
  24531928.258 5 128916155.412 5        37.500    24531932.180 6 100454160.38548
        32.300    24531931.55148
  23713161.516 6 124613491.391 6        39.400    23713169.766 7  97101473.15049
        38.000    23713169.18849  23713165.090 3  93055552.553 3        32.100
  21978474.656 8 115497693.177 8        46.100    21978482.434 8  89998220.22449
        49.100    21978480.88749  21978477.063 6  86248281.269 6        38.400
  23568061.820 6 123851025.298 6        38.800    23568068.109 7  96507305.30446
        24.200    23568067.07846  23568068.074 3  92486155.041 3        32.900
  20213100.961 9 106220587.846 9        50.700    20213107.012 9  82769320.45849
        55.200    20213106.47349  20213103.023 7  79320590.313 7        43.600
  21465031.188 8 112799506.734 8        46.700                    87895750.05349
        37.800    21465034.30149
  21058241.352 9 110661812.769 9        53.100    21058247.582 9  86230057.37749
        54.900    21058247.69149  21058242.824 7  82637042.048 7        41.100
 21  1  2  0  4  0.0000000  0 11G21G23G16G07G15G26G08G18G27G20G10
  23472359.422 7 123348083.796 7        42.400                    96115411.02147
        26.200    23472362.05947
  21498088.930 8 112973230.545 8        47.900    21498093.230 9  88031107.08349
        39.200    21498093.01649  21498093.617 6  84363137.847 6        39.500
  21643453.961 9 113737177.212 9        48.700                    88626343.96849
        39.800    21643456.77749
  24681977.875 6 129704665.977 6        38.400    24681982.418 4 101068571.12146
        21.100    24681981.37946
  24535277.469 5 128933766.929 5        37.500    24535283.594 5 100467883.70048
        31.100    24535282.57848
  23733936.664 6 124722664.679 6        40.500    23733945.293 7  97186543.21849
        38.800    23733944.35949  23733939.172 2  93137078.075 2        31.200
  21964151.328 8 115422421.022 8        46.200    21964158.348 8  89939566.60349
        49.300    21964157.13349  21964153.137 6  86192071.599 6        38.400
  23586106.656 6 123945844.716 6        39.400    23586111.387 7  96581190.55547
        25.300    23586110.46547  23586111.715 4  92556961.805 4        34.200
  20210807.477 9 106208537.165 9        51.000    20210813.863 9  82759930.31549
        55.000    20210813.28549  20210809.527 7  79311591.424 7        43.100
  21473949.492 8 112846372.007 8        46.700                    87932268.44449
        37.900    21473952.76249
  21052752.531 9 110632968.798 9        53.100    21052758.758 9  86207581.57149
        54.900    21052758.62949  21052754.164 7  82615502.726 7        41.100
 21  1  2  0  4 30.0000000  0 11G21G23G16G07G15G26G08G18G27G20G10
  23457827.352 7 123271723.803 7        41.600                    96055909.74647
        25.800    23457831.37547
  21505580.422 8 113012602.282 8        47.300    21505585.426 9  88061786.35549
        39.000    21505584.94549  21505585.820 6  84392538.824 6        39.000
  21658645.297 8 113817011.967 8        47.800                    88688552.86149
        39.000    21658648.62949
  24685945.133 6 129725513.323 6        38.500    24685949.211 5 101084815.79746
        20.600    24685948.76646
  24538740.258 5 128951957.525 5        37.200    24538744.363 5 100482058.17948
        30.900    24538744.32848
  23754734.891 6 124831957.501 6        40.100    23754741.555 6  97271706.45349
        37.100    23754741.39549  23754737.531 2  93218692.868 2        31.700
  21949868.984 8 115347367.004 8        47.000    21949876.086 8  89881082.96449
        49.600    21949874.81649  21949871.125 6  86136024.752 6        38.800
  23604164.383 6 124040739.665 6        39.200    23604169.258 7  96655134.66447
        25.600    23604168.91447  23604169.785 4  92627824.848 4        34.000
  20208592.891 9 106196898.545 9        51.100    20208599.148 9  82750861.27149
        55.000    20208598.50849  20208594.730 7  79302900.265 7        42.700
  21482963.820 8 112893741.971 8        46.300                    87969180.11749
        37.100    21482967.02749
  21047370.961 9 110604688.069 9        53.200    21047377.129 9  86185544.64649
        55.600    21047377.10949  21047372.492 7  82594384.009 7        41.600
 21  1  2  0  5  0.0000000  0 11G21G23G16G07G15G26G08G18G27G20G10
  23443334.164 7 123195558.469 7        41.100                    95996560.15947
        26.300    23443337.21147
  21513179.234 8 113052532.311 8        47.800    21513183.563 9  88092900.67949
        38.800    21513183.54349  21513184.242 6  84422356.724 6        39.400
  21673917.133 8 113897265.408 8        47.800                    88751088.00349
        38.900    21673920.42649
  24690004.688 6 129746841.376 6        39.200    24690008.203 5 101101434.98046
        21.800    24690007.80146
  24542312.055 5 128970727.037 5        35.000    24542316.031 5 100496683.83147
        28.900    24542316.09847
  23775554.406 6 124941367.549 6        39.400    23775561.867 7  97356961.06149
        37.400    23775561.83649  23775557.402 3  93300395.140 3        32.600
  21935628.750 8 115272533.311 8        46.700    21935635.484 8  89822771.00649
        49.500    21935634.38749  21935631.176 6  86080142.467 6        38.500
  23622236.336 6 124135709.032 6        38.800    23622241.086 7  96729136.72046
        23.300    23622240.84046  23622241.836 4  92698743.489 4        34.200
  20206456.828 9 106185672.971 9        51.200    20206462.828 9  82742114.06849
        55.300    20206462.14149  20206458.477 7  79294517.532 7        42.800
  21492073.656 8 112941614.989 8        46.900                    88006483.77749
        37.400    21492076.65649
  21042096.734 9 110576971.491 9        52.700    21042102.863 9  86163947.31649
        55.000    21042102.80149  21042098.555 7  82573686.588 7        41.300
 21  1  2  0  5 30.0000000  0 11G21G23G16G07G15G26G08G18G27G20G10
  23428877.008 6 123119588.182 6        40.800                    95937362.56446
        24.900    23428880.64546
  21520883.742 9 113093018.886 9        48.100    21520888.070 9  88124448.65849
        39.000    21520887.73849  21520888.449 6  84452590.209 6        38.800
  21689268.336 9 113977935.453 9        48.100                    88813947.77549
        39.400    21689271.70749
  24694154.258 6 129768648.809 6        39.000    24694157.871 5 101118427.83446
        21.500    24694157.39846
  24545992.922 5 128990075.555 5        35.900    24545997.453 4 100511760.60547
        29.500    24545997.11347
  23796396.734 6 125050892.095 6        40.000    23796404.445 7  97442304.83649
        37.900    23796403.84849  23796399.336 3  93382182.905 3        32.700
  21921430.133 8 115197920.420 8        46.400    21921437.383 8  89764631.10749
        49.500    21921436.03949  21921432.605 6  86024425.081 6        38.300
  23640322.719 6 124230751.319 6        39.500    23640327.211 7  96803195.64947
        25.600    23640326.25447  23640327.734 3  92769716.603 3        33.800
  20204399.102 9 106174861.112 9        51.200    20204405.582 9  82733689.24649
        55.600    20204404.85549  20204401.227 7  79286443.725 7        43.300
  21501279.195 8 112989989.381 8        47.100                    88044178.11049
        37.600    21501282.23849
  21036929.469 9 110549819.666 9        53.000    21036936.113 9  86142790.06649
        55.300    21036935.95349  21036931.238 7  82553410.872 7        41.400
 21  1  2  0  6  0.0000000  0 11G21G23G16G07G15G26G08G18G27G20G10
  23414457.945 7 123043813.105 7        42.200                    95878317.07247
        26.200    23414461.49647
  21528693.055 9 113134059.906 9        48.100    21528697.914 9  88156428.67349
        38.400    21528697.38349  21528698.004 6  84483237.741 6        39.400
  21704697.773 9 114059019.551 9        48.400                    88877130.19249
        39.400    21704701.59849
  24698394.539 5 129790933.952 5        36.900    24698399.082 5 101135792.84945
        19.900    24698397.84045
  24549785.703 5 129010001.93215        37.500    24549789.484 5 100527287.71657
        29.700    24549789.74647
  23817258.859 6 125160528.240 6        38.800    23817267.008 6  97527735.58349
        36.800    23817266.60249  23817261.949 2  93464054.071 2        31.200
  21907274.258 9 115123530.270 9        48.000    21907281.336 8  89706664.77049
        49.700    21907280.34049  21907276.496 6  85968873.993 6        39.000
  23658422.469 6 124325864.781 6        39.400    23658426.590 7  96877310.03047
        25.500    23658426.21547  23658427.039 3  92840742.856 3        33.200
  20202420.516 9 106164463.324 9        50.900    20202427.043 9  82725587.07049
        55.800    20202426.42649  20202422.582 7  79278679.148 7        43.200
  21510579.055 8 113038862.748 8        46.600                    88082261.25949
        37.600    21510582.59049
  21031870.320 9 110523232.870 9        52.900    21031876.770 9  86122073.08949
        55.000    21031876.78149  21031872.059 7  82533557.127 7        41.200
 21  1  2  0  6 30.0000000  0 11G21G23G16G07G15G26G08G18G27G20G10
  23400076.078 7 122968234.736 7        42.600                    95819424.87047
        26.600    23400079.17647
  21536608.773 8 113175655.128 8        47.300    21536613.102 9  88188840.54649
        38.300    21536612.71149  21536613.590 6  84514299.123 6        39.300
  21720206.414 8 114140516.094 8        47.900                    88940633.98449
        38.900    21720209.87949
  24702726.695 6 129813696.381 6        38.700    24702729.988 5 101153529.78246
        22.000    24702728.97346
  24553687.180 5 129030507.212 5        37.600    24553691.266 4 100543265.87247
        28.900    24553691.70747
  23838144.219 6 125270274.883 6        39.900    23838150.957 6  97613252.44749
        37.100    23838150.70349  23838145.680 2  93546007.722 2        31.600
  21893161.313 8 115049365.220 8        47.300    21893167.977 8  89648873.83949
        49.900    21893167.03949  21893163.395 6  85913491.050 6        38.300
  23676534.961 6 124421049.624 6        38.600    23676540.031 7  96951479.99646
        24.700    23676539.46146  23676540.336 3  92911822.451 3        33.100
  20200521.320 9 106154481.815 9        51.700    20200527.449 9  82717809.26849
        56.000    20200526.96549  20200523.219 7  79271225.418 7        43.200
  21519974.250 8 113088234.654 8        46.800                    88120732.86549
        37.900    21519977.81649
  21026918.914 9 110497213.194 9        53.500    21026925.375 9  86101798.03249
        55.300    21026925.26649  21026920.484 6  82514126.857 6        40.900
 21  1  2  0  7  0.0000000  0 11G21G23G16G07G15G26G08G18G27G20G10
  23385730.992 7 122892851.922 7        41.300                    95760685.03447
        25.800    23385733.83247
  21544628.859 9 113217801.615 9        48.400    21544633.238 9  88221681.97149
        38.700    21544632.82449  21544633.648 6  84545772.139 6        39.000
  21735792.445 8 114222421.792 8        47.700                    89004456.60549
        38.900    21735796.00849
  24707147.734 6 129836933.661 6        38.000    24707152.289 5 101171636.70646
        20.100    24707150.97346
  24557699.063 5 129051589.651 5        36.900    24557703.895 5 100559693.78747
        29.600    24557703.30147
  23859048.320 6 125380128.267 6        39.600    23859055.566 7  97698852.48349
        37.200    23859054.97349  23859051.000 2  93628041.126 2        31.900
  21879091.125 9 114975425.808 9        48.100    21879098.004 8  89591258.73249
        49.900    21879096.76249  21879093.027 6  85858276.562 6        38.900
  23694660.516 6 124516303.236 6        39.400    23694666.332 7  97025703.57146
        24.600    23694665.54346  23694666.895 3  92982953.390 3        33.600
  20198701.047 9 106144916.083 9        51.000    20198707.121 9  82710355.45849
        55.200    20198706.53949  20198702.832 7  79264082.190 7        43.400
  21529464.266 8 113138102.176 8        46.700                    88159590.67649
        37.200    21529467.13349
  21022075.656 9 110471760.042 9        53.600    21022081.766 9  86081964.41349
        55.000    21022081.67249  21022076.664 6  82495119.639 6        40.900
 21  1  2  0  7 30.0000000  0 11G21G23G16G07G15G26G08G18G27G20G10
  23371423.461 7 122817665.463 7        41.700                    95702098.21047
        27.400    23371426.83247
  21552753.547 8 113260497.761 8        47.300    21552758.355 9  88254951.69249
        38.400    21552757.75849  21552758.270 6  84577655.622 6        39.200
  21751456.250 8 114304734.977 8        47.900                    89068596.75349
        39.400    21751459.53949
  24711661.445 6 129860644.346 6        38.300    24711664.043 5 101190112.52246
        21.100    24711663.64546
  24561821.500 5 129073248.921 5        37.800    24561825.176 5 100576571.18748
        30.200    24561825.11348
  23879972.945 6 125490085.921 6        39.900    23879979.465 7  97784533.77549
        37.900    23879979.52749  23879975.430 3  93710152.30713        32.100
  21865063.961 9 114901713.505 9        48.000    21865070.934 8  89533820.58649
        50.300    21865069.87549  21865066.086 6  85803231.678 6        38.600
  23712800.633 6 124611624.464 6        39.800    23712804.867 7  97099979.84047
        25.500    23712804.16847  23712805.520 3  93054134.779 3        33.500
  20196960.008 9 106135767.029 9        51.300    20196966.031 9  82703226.32549
        55.900    20196965.60549  20196962.020 7  79257250.109 7        43.200
  21539047.258 8 113188463.636 8        46.000                    88198833.39149
        36.700    21539050.50049
  21017339.836 9 110446874.140 9        53.200    21017346.098 9  86062572.81249
        55.100    21017345.98849  21017341.176 7  82476536.031 7        41.000
 21  1  2  0  8  0.0000000  0 11G21G23G16G07G15G26G08G18G27G20G10
  23357153.336 7 122742675.798 7        41.800                    95643664.72547
        28.600    23357156.91847
  21560982.461 8 113303742.054 8        46.600    21560987.402 9  88288648.55249
        38.800    21560986.90249  21560987.598 6  84609948.448 6        39.300
  21767197.039 9 114387453.249 9        48.100                    89133052.55049
        39.300    21767200.52749
  24716261.648 5 129884827.349 5        36.800    24716266.023 5 101208956.36445
        19.600    24716265.21945
  24566051.469 5 129095485.002 5        36.600    24566056.715 5 100593898.06547
        29.200    24566056.22747
  23900916.000 6 125600145.632 6        39.200    23900923.879 7  97870294.57449
        37.400    23900923.44949  23900918.785 2  93792339.757 2        31.400
  21851080.117 8 114828230.427 8        46.700    21851087.484 8  89476561.04949
        50.000    21851086.20749  21851082.422 6  85748357.945 6        38.400
  23730952.438 6 124707012.266 6        40.500    23730956.863 7  97174307.99346
        24.400    23730956.00446  23730957.957 3  93125365.90913        33.700
  20195298.352 9 106127035.638 9        50.900    20195304.676 9  82696422.64049
        56.100    20195303.94149  20195300.641 7  79250729.923 7        43.600
  21548724.500 8 113239317.438 8        46.200                    88238459.72849
        37.100    21548727.57849
  21012712.594 9 110422556.352 9        54.100    21012718.688 9  86043623.89349
        55.200    21012718.23049  21012713.883 7  82458376.649 7        41.700
 21  1  2  0  8 30.0000000  0 11G21G23G16G07G15G26G08G18G27G20G10
  23342920.727 7 122667883.413 7        42.300                    95585384.96247
        27.600    23342924.32447
  21569315.859 8 113347532.888 8        47.400    21569320.637 9  88322771.28749
        39.100    21569320.09049  21569320.672 6  84642649.402 6        39.200
  21783014.398 9 114470574.297 9        48.500                    89197822.19549
        39.000    21783017.87149
  24720953.242 6 129909481.357 6        38.000    24720956.996 5 101228167.26745
        19.600    24720956.93445
  24570393.469 5 129118297.170 5        35.900    24570397.582 5 100611673.86847
        29.800    24570396.82447
  23921878.742 6 125710305.007 6        39.300    23921885.992 6  97956133.04849
        36.900    23921885.91049  23921880.809 2  93874601.637 2        31.800
  21837140.797 8 114754978.180 8        47.300    21837148.129 8  89419481.39649
        50.000    21837146.76649  21837143.320 6  85693656.622 6        39.200
  23749116.094 6 124802465.508 6        39.600    23749121.102 7  97248687.12546
        24.700    23749120.81646  23749121.289 3  93196645.895 3        32.800
  20193716.586 9 106118722.790 9        50.700    20193722.926 9  82689945.09649
        56.000    20193722.02349  20193718.629 7  79244522.247 7        43.100
  21558494.820 8 113290661.468 8        46.800                    88278468.07649
        37.700    21558498.03549
  21008193.000 9 110398807.376 9        53.700    21008199.258 9  86025118.20849
        54.900    21008199.16849  21008194.465 7  82440642.034 7        41.700
 21  1  2  0  9  0.0000000  0 11G21G23G16G07G15G26G08G18G27G20G10
  23328726.344 7 122593288.752 7        42.900                    95527259.26747
        27.800    23328729.21947
  21577752.633 8 113391868.724 8        47.200    21577757.418 9  88357318.69749
        38.600    21577756.91849  21577757.688 6  84675757.335 6        39.400
  21798908.227 9 114554096.117 9        48.100                    89262904.12549
        38.900    21798911.57049
  24725734.414 5 129934604.674 5        37.900    24725738.535 5 101247743.83646
        22.000    24725737.49246
  24574844.117 5 129141684.870 5        36.500    24574847.426 5 100629898.06947
        29.700    24574847.89847
  23942859.938 6 125820561.714 6        38.600    23942867.676 7  98042047.35049
        36.000    23942867.02749  23942863.223 3  93956936.136 3        32.100
  21823245.477 9 114681958.531 9        48.200    21823252.844 9  89362582.98049
        50.100    21823251.60549  21823247.809 6  85639128.964 6        38.900
  23767292.664 6 124897983.065 6        40.100    23767297.215 7  97323116.38446
        24.900    23767296.69546  23767298.039 3  93267973.970 3        32.500
  20192214.461 9 106110829.415 9        51.200    20192220.770 9  82683794.40849
        56.200    20192219.89549  20192216.320 7  79238627.852 7        43.400
  21568357.961 8 113342494.262 8        47.300                    88318857.26649
        37.100    21568361.29349
  21003782.117 9 110375628.002 9        52.900    21003788.402 9  86007056.36249
        55.300    21003788.28949  21003783.328 7  82423332.779 7        41.100
 21  1  2  0  9 30.0000000  0 11G21G23G16G07G15G26G08G18G27G20G10
  23314568.258 7 122518891.831 7        42.500                    95469287.64847
        25.800    23314571.55547
  21586292.930 8 113436747.497 8        47.900    21586297.469 9  88392289.17349
        38.500    21586297.08249  21586298.074 6  84709270.699 6        39.500
  21814877.828 9 114638015.536 9        48.100                    89328295.88349
        39.400    21814880.77049
  24730603.766 5 129960195.755 5        37.300    24730607.996 5 101267684.87646
        20.900    24730607.48046
  24579404.625 6 129165647.834 6        38.000    24579407.813 5 100648570.51448
        30.700    24579407.53548
  23963859.000 6 125930912.900 6        39.200    23963866.918 7  98128035.25349
        37.200    23963866.78149  23963862.180 2  94039341.226 2        31.200
  21809394.664 8 114609172.243 8        46.700    21809402.133 8  89305866.40549
        50.100    21809401.01249  21809397.047 6  85584775.619 6        39.200
  23785480.734 6 124993563.488 6        39.600    23785486.320 7  97397594.60946
        24.400    23785485.21546  23785486.551 3  93339348.984 3        32.700
  20190792.453 9 106103355.983 9        50.900    20190798.406 9  82677970.96449
        55.400    20190797.95749  20190794.328 7  79233047.053 7        43.200
  21578314.469 8 113394813.639 8        46.700                    88359625.61749
        37.200    21578317.67249
  20999479.484 9 110353018.449 9        53.200    20999485.945 9  85989438.52749
        55.200    20999485.91049  20999480.602 6  82406449.025 6        40.900
 21  1  2  0 10  0.0000000  0 11G21G23G16G07G15G26G08G18G27G20G10
  23300448.648 7 122444693.275 7        41.500                    95411470.61747
        26.800    23300452.32047
  21594935.953 9 113482167.444 9        48.100    21594940.531 9  88427681.35149
        38.400    21594940.03149  21594940.910 6  84743188.217 6        39.200
  21830921.633 8 114722330.805 8        47.500                    89393996.09149
        39.000    21830925.27049
  24735563.047 6 129986253.069 6        38.000    24735566.660 5 101287989.25746
        20.100    24735566.41446
  24584072.898 5 129190185.248 5        37.100    24584077.047 5 100667690.62248
        30.700    24584076.89848
  23984875.664 6 126041356.197 6        40.200    23984883.125 6  98214094.97249
        37.200    23984882.77749  23984878.230 2  94121815.130 2        31.300
  21795589.125 8 114536621.489 8        46.700    21795596.047 8  89249333.37349
        50.300    21795594.94949  21795591.398 6  85530598.106 6        39.400
  23803680.930 6 125089205.518 6        39.500    23803686.098 7  97472120.85746
        23.900    23803685.76246  23803687.055 3  93410769.915 3        33.100
  20189449.891 9 106096303.294 9        50.800    20189456.363 9  82672475.36149
        56.600    20189455.86749  20189452.223 7  79227780.430 7        43.600
  21588362.602 8 113447617.825 8        46.400                    88400771.74549
        37.400    21588366.01649
  20995285.555 9 110330979.322 9        53.000    20995292.031 9  85972265.20149
        55.000    20995291.89549  20995286.953 6  82389991.245 6        40.900
 21  1  2  0 10 30.0000000  0 11G21G23G16G07G15G26G08G18G27G20G10
  23286367.594 7 122370693.447 7        42.600                    95353808.43147
        27.900    23286370.87947
  21603681.805 8 113528126.909 8        47.900    21603686.535 9  88463493.92749
        38.500    21603685.78149  21603687.059 6  84777508.582 6        39.000
  21847041.313 8 114807039.191 8        47.500                    89460002.62649
        38.300    21847044.92649
  24740609.500 6 130012775.235 6        38.900    24740613.914 5 101308655.85446
        21.100    24740613.43046
  24588852.086 5 129215296.597 5        37.700    24588855.664 5 100687257.91648
        30.200    24588855.65648
  24005909.008 6 126151889.182 6        39.900    24005917.246 6  98300224.56949
        37.100    24005916.61349  24005912.500 1  94204356.022 1        30.600
  21781828.227 8 114464307.690 8        47.800    21781835.016 8  89192984.97349
        50.300    21781834.01649  21781830.840 6  85476597.554 6        39.600
  23821892.352 6 125184908.053 6        38.300    23821897.914 7  97546694.21346
        22.200    23821897.02746  23821898.441 3  93482236.096 3        32.600
  20188188.336 9 106089672.171 9        50.500    20188194.680 9  82667308.25649
        55.700    20188194.10249  20188190.488 7  79222828.632 7        43.300
  21598502.109 8 113500904.838 8        46.100                    88442294.09149
        36.900    21598506.25449
  20991200.500 9 110309511.245 9        53.400    20991206.777 9  85955536.83749
        55.100    20991206.50049  20991201.902 7  82373959.888 7        41.400
 21  1  2  0 11  0.0000000  0 11G21G23G16G07G15G26G08G18G27G20G10
  23272323.734 7 122296892.345 7        41.800                    95296301.07947
        27.600    23272326.58647
  21612530.141 8 113574623.829 8        47.500    21612534.367 9  88499725.30349
        38.800    21612533.78549  21612534.922 6  84812230.339 6        39.200
  21863235.344 8 114892138.101 8        47.500                    89526313.45949
        38.600    21863238.75849
  24745745.578 6 130039760.411 6        39.600    24745749.105 4 101329683.26246
        20.900    24745748.28546
  24593738.789 5 129240981.072 5        37.600    24593743.383 5 100707271.85447
        29.200    24593743.11747
  24026960.063 6 126262509.145 6        40.400    24026967.398 6  98386421.93849
        37.300    24026966.83249  24026962.773 2  94286961.797 2        31.500
  21768112.602 8 114392232.432 8        47.200    21768119.613 8  89136822.44449
        50.500    21768118.43049  21768114.910 6  85422775.148 6        39.100
  23840115.008 6 125280669.737 6        39.700    23840120.445 7  97621313.69446
        23.300    23840120.20346  23840121.156 3  93553746.338 3        32.500
  20187006.930 9 106083463.162 9        51.400    20187013.094 9  82662470.07049
        56.100    20187012.52349  20187008.746 7  79218192.042 7        43.400
  21608734.438 8 113554672.831 8        46.400                    88484191.22149
        36.600    21608737.75849
  20987224.078 9 110288614.501 9        53.200    20987230.258 9  85939253.67149
        55.000    20987230.01649  20987225.457 7  82358355.205 7        41.000
 21  1  2  0 11 30.0000000  0 11G21G23G16G07G15G26G08G18G27G20G10
  23258317.273 7 122223290.543 7        42.700                    95238949.05247
        26.800    23258321.02747
  21621479.820 8 113621656.599 8        47.500    21621484.598 9  88536374.22049
        38.000    21621483.74649  21621484.559 6  84847352.206 6        38.900
  21879502.742 8 114977625.686 8        47.600                    89592927.15649
        38.100    21879506.44149
  24750968.031 5 130067207.182 5        36.900    24750971.656 5 101351070.34045
        19.900    24750971.43045
  24598735.977 5 129267238.160 5        37.600    24598739.746 5 100727731.96048
        30.500    24598739.63348
  24048026.500 6 126373213.838 6        39.500    24048033.508 6  98472685.33549
        36.900    24048033.19949  24048029.492 2  94369630.892 2        31.600
  21754442.641 9 114320397.560 9        48.500    21754450.086 9  89080847.23649
        50.700    21754449.00849  21754445.117 6  85369132.257 6        39.600
  23858349.453 7 125376489.440 7        41.000    23858354.363 7  97695978.39747
        25.600    23858353.62547  23858354.637 3  93625300.065 3        32.700
  20185905.578 9 106077677.175 9        50.800    20185911.988 9  82657961.50449
        55.600    20185911.55549  20185907.734 7  79213871.329 7        43.600
  21619057.195 8 113608919.782 8        46.500                    88526461.58349
        37.300    21619060.42649
  20983356.195 9 110268289.712 9        53.800    20983362.672 9  85923416.18749
        55.000    20983362.30549  20983357.629 7  82343177.615 7        41.400
 21  1  2  0 12  0.0000000  0 11G21G23G16G07G15G26G08G18G27G20G10
  23244349.594 7 122149888.062 7        42.700                    95181752.32347
        27.900    23244352.89847
  21630531.164 8 113669223.463 8        47.300    21630536.168 9  88573439.32049
        38.000    21630535.65249  21630536.324 6  84882872.946 6        39.100
  21895844.234 8 115063499.774 8        47.300                    89659842.02149
        38.500    21895847.64549
  24756279.023 6 130095114.070 6        38.000    24756282.422 4 101372815.93045
        18.600    24756281.79745
  24603840.539 5 129294066.871 5        37.100    24603844.434 5 100748637.46547
        29.800    24603844.55147
  24069107.711 6 126484000.817 6        38.900    24069115.965 6  98559012.83749
        36.200    24069114.91849  24069110.496 1  94452361.45611        30.600
  21740819.133 9 114248804.776 9        48.100    21740826.453 9  89025060.66549
        50.900    21740825.48849  21740821.660 6  85315670.119 6        39.200
  23876594.281 6 125472366.129 6        40.300    23876599.016 7  97770687.47746
        22.900    23876598.70346  23876599.824 3  93696896.235 3        33.100
  20184885.344 9 106072315.018 9        50.900    20184891.793 9  82653783.19349
        56.300    20184891.18049  20184887.469 7  79209867.118 7        42.800
  21629470.961 8 113663643.962 8        46.400                    88569103.81349
        36.900    21629473.91449
  20979597.539 9 110248537.477 9        53.900    20979603.746 9  85908024.84549
        55.000    20979603.55549  20979598.781 6  82328427.585 6        40.500
 21  1  2  0 12 30.0000000  0 11G21G23G16G07G15G26G08G18G27G20G10
  23230419.867 7 122076685.787 7        43.000                    95124711.60947
        27.900    23230423.06647
  21639684.398 8 113717322.331 8        47.500    21639689.215 9  88610918.96149
        38.800    21639688.77749  21639689.109 6  84918790.941 6        38.600
  21912258.844 8 115149757.028 8        47.500                    89727055.46749
        38.400    21912261.85949
  24761676.922 6 130123479.339 6        38.000    24761680.082 5 101394918.72345
        19.300    24761679.30545
  24609054.602 5 129321467.323 5        37.900    24609059.430 5 100769988.47747
        29.900    24609059.00047
  24090204.492 6 126594867.406 6        38.300    24090212.414 6  98645402.38249
        35.300    24090212.25049  24090207.891 1  94535151.413 1        30.700
  21727241.836 8 114177455.120 8        47.900    21727249.094 9  88969463.54349
        50.900    21727247.97349  21727243.828 6  85262389.565 6        39.400
  23894849.398 6 125568298.364 6        39.900    23894854.785 7  97845439.81546
        22.300    23894853.59046  23894855.215 3  93768533.944 3        32.600
  20183945.758 9 106067377.193 9        51.100    20183952.008 9  82649935.54449
        55.800    20183951.40649  20183947.754 7  79206179.797 7        43.600
  21639975.508 8 113718843.262 8        46.500                    88612116.24549
        36.100    21639978.46149
  20975947.734 9 110229357.965 9        53.600    20975954.160 9  85893079.78449
        55.000    20975953.81349  20975949.195 7  82314105.246 7        41.200
 21  1  2  0 13  0.0000000  0 11G21G23G16G07G15G26G08G18G27G20G10
  23216527.141 7 122003683.743 7        42.700                    95067826.89747
        27.900    23216532.05547
  21648938.383 8 113765951.471 8        47.300    21648943.102 9  88648811.81149
        38.000    21648942.11349  21648942.984 6  84955104.934 6        39.200
  21928745.695 9 115236395.891 9        48.300                    89794566.26949
        38.200    21928748.71149
  24767160.188 5 130152301.390 5        35.200    24767164.633 5 101417377.41045
        17.400    24767164.87145
  24614378.461 5 129349438.486 5        37.500    24614382.203 5 100791784.19748
        30.600    24614381.73848
  24111317.359 6 126705811.225 6        38.800    24111325.137 6  98731852.09749
        36.400    24111324.61749  24111320.340 2  94617999.009 2        31.300
  21713711.148 9 114106350.395 9        48.300    21713718.090 8  88914057.28249
        50.900    21713717.14849  21713712.996 6  85209291.883 6        39.100
  23913115.023 7 125664285.082 7        41.100    23913119.980 7  97920234.65346
        23.900    23913119.60246  23913120.340 2  93840212.294 2        31.400
  20183086.727 9 106062864.540 9        50.300    20183093.195 9  82646419.19349
        55.500    20183092.67249  20183089.074 7  79202809.954 7        43.400
  21650569.188 8 113774515.202 8        46.400                    88655496.98949
        36.700    21650572.68449
  20972407.297 9 110210751.707 9        53.700    20972413.363 9  85878581.41549
        55.000    20972413.27749  20972408.379 7  82300210.963 7        41.600
 21  1  2  0 13 30.0000000  0 11G21G23G16G07G15G26G08G18G27G20G10
  23202674.336 7 121930882.150 7        42.700                    95011098.41147
        29.100    23202677.97347
  21658292.602 8 113815109.034 8        47.300    21658297.188 9  88687116.41249
        38.100    21658296.47749  21658297.344 6  84991813.504 6        39.200
  21945304.078 8 115323413.863 8        47.600                    89862372.47949
        38.400    21945307.39549
  24772732.172 6 130181578.332 6        38.400    24772736.043 5 101440190.61146
        20.100    24772735.06346
  24619808.641 5 129377979.501 5        37.100    24619813.637 5 100814023.96647
        29.600    24619812.59847
  24132443.555 6 126816829.787 6        40.200    24132451.238 6  98818360.04849
        36.700    24132450.43849  24132446.523 2  94700902.516 2        31.500
  21700227.297 8 114035492.537 8        47.500    21700234.191 9  88858843.37949
        51.000    21700233.23049  21700229.340 6  85156378.584 6        39.200
  23931391.391 6 125760325.147 6        40.300    23931395.820 7  97995071.04246
        24.400    23931395.29346  23931396.277 2  93911930.472 2        31.500
  20182309.477 9 106058777.802 9        50.600    20182315.539 9  82643234.71049
        55.500    20182315.10549  20182311.402 7  79199758.145 7        43.200
  21661253.047 8 113830658.855 8        46.400                    88699245.28949
        36.400    21661256.24649
  20968975.555 9 110192719.145 9        53.700    20968981.828 9  85864530.07949
        55.000    20968981.66449  20968976.938 7  82286745.096 7        41.700
 21  1  2  0 14  0.0000000  0 11G21G23G16G07G15G26G08G18G27G20G10
  23188858.789 7 121858281.069 7        42.700                    94954526.16047
        29.700    23188862.09847
  21667747.125 9 113864793.005 9        48.000    21667751.781 9  88725831.19749
        38.600    21667751.33649  21667751.805 6  85028915.166 6        39.400
  21961935.063 8 115410808.267 8        47.000                    89930472.01449
        37.500    21961938.17249
  24778389.477 5 130211308.768 5        35.700    24778393.949 5 101463357.15445
        18.600    24778393.01645
  24625348.430 5 129407089.655 5        37.700    24625352.449 5 100836707.20947
        29.000    24625352.01247
  24153583.148 6 126927920.639 6        39.300    24153590.727 6  98904924.35349
        35.500    24153590.20749  24153586.242 1  94783859.95311        30.900
  21686790.906 9 113964883.169 9        48.700    21686797.750 8  88803823.10549
        50.900    21686796.65249  21686793.297 6  85103650.804 6        39.700
  23949676.180 6 125856417.286 6        38.300    23949681.699 7  98069947.99146
        22.600    23949681.01646  23949682.242 2  93983687.609 2        31.500
  20181612.883 9 106055117.581 9        50.600    20181619.023 9  82640382.58949
        55.500    20181618.55949  20181615.074 7  79197024.868 7        43.600
  21672026.141 8 113887271.833 8        46.300                    88743359.30349
        36.600    21672029.28549
  20965653.391 9 110175260.555 9        54.500    20965659.699 9  85850925.99149
        54.900    20965659.27749  20965654.934 6  82273707.848 6        40.900
 21  1  2  0 14 30.0000000  0 11G21G23G16G07G15G26G08G18G27G20G10
  23175081.281 7 121785881.157 7        43.100                    94898110.66147
        28.200    23175084.83247
  21677301.859 9 113915001.524 9        48.100    21677306.238 9  88764954.71949
        37.900    21677305.48049  21677306.313 6  85066408.528 6        38.600
  21978636.734 8 115498576.716 8        47.400                    89998862.99949
        38.000    21978640.06649
  24784132.133 5 130241490.859 5        36.000    24784137.004 4 101486875.62745
        18.600    24784136.44545
  24630996.430 5 129436768.174 5        37.500    24630999.336 4 100859833.34147
        29.300    24630999.50847
  24174737.266 6 127039081.229 6        40.400    24174744.230 6  98991542.99249
        37.300    24174743.82849  24174739.223 2  94866869.43912        31.300
  21673401.867 9 113894523.578 9        48.300    21673409.008 9  88748997.46449
        50.700    21673407.63349  21673404.043 6  85051109.572 6        39.800
  23967971.188 6 125952560.402 6        39.200    23967976.965 6  98144864.66546
        22.800    23967976.98846  23967978.453 3  94055482.709 3        32.200
  20180997.578 9 106051884.602 9        50.500    20181003.805 9  82637863.38849
        56.300    20181003.34049  20181000.082 7  79194610.651 7        43.600
  21682887.898 8 113944352.083 8        46.100                    88787837.42349
        36.100    21682891.27349
  20962440.352 9 110158376.305 9        54.100    20962446.473 9  85837769.43749
        55.100    20962446.33649  20962441.641 7  82261099.479 7        41.500
 21  1  2  0 15  0.0000000  0 11G21G23G16G07G15G26G08G18G27G20G10
  23161342.727 7 121713682.800 7        43.600                    94841852.22547
        29.200    23161345.99647
  21686955.313 8 113965732.580 8        47.300    21686959.930 9  88804485.41949
        38.100    21686959.14149  21686960.512 6  85104292.133 6        39.000
  21995409.438 8 115586716.512 8        47.600                    90067543.35749
        38.200    21995412.61349
  24789962.766 5 130272122.815 5        37.100    24789966.379 4 101510744.74445
        17.800    24789965.73445
  24636751.203 5 129467014.129 5        35.500    24636755.270 4 100883401.65147
        28.700    24636755.19947
  24195902.281 6 127150309.054 6        39.600    24195909.875 7  99078214.02949
        36.000    24195909.92649  24195905.316 2  94949929.204 2        31.000
  21660060.539 8 113824415.436 8        47.300    21660067.477 9  88694367.76049
        51.100    21660066.77749  21660062.578 6  84998756.112 6        39.800
  23986277.039 6 126048753.221 6        39.600    23986281.645 6  98219820.10146
        24.200    23986281.59846  23986282.773 2  94127314.994 2        31.700
  20180463.688 9 106049079.470 9        51.500    20180470.105 9  82635677.57349
        55.900    20180469.60249  20180466.109 7  79192515.896 7        43.700
  21693838.563 8 114001897.610 8        47.000                    88832678.09049
        36.200    21693841.71149
  20959336.836 9 110142066.633 9        53.900    20959342.816 9  85825060.62149
        55.300    20959342.93049  20959338.094 7  82248920.191 7        41.700
 21  1  2  0 15 30.0000000  0 11G21G23G16G07G15G26G08G18G27G20G10
  23147642.703 7 121641685.998 7        43.900                    94785750.84447
        28.600    23147645.32447
  21696708.266 8 114016984.264 8        47.100    21696712.848 9  88844421.79149
        38.500    21696712.14849  21696713.398 6  85142564.482 6        39.000
  22012251.875 8 115675225.343 8        47.100                    90136511.26849
        37.400    22012255.15649
  24795877.320 5 130303203.074 5        37.300    24795881.070 5 101534963.08045
        19.600    24795879.34845
  24642615.344 5 129497826.721 5        35.800    24642618.664 5 100907411.49547
        27.900    24642618.76247
  24217080.688 6 127261601.730 6        38.600    24217088.648 6  99164935.55749
        36.300    24217088.10549  24217084.273 2  95033037.33212        31.000
  21646767.664 9 113754560.164 9        48.700    21646774.586 9  88639935.09949
        51.300    21646773.81649  21646769.172 6  84946591.469 6        39.500
  24004591.063 6 126144994.635 6        39.000    24004596.211 6  98294813.40546
        23.600    24004595.21146  24004596.797 2  94199183.585 2        31.800
  20180011.602 9 106046702.833 9        51.100    20180017.977 9  82633825.64449
        55.600    20180017.33249  20180013.520 7  79190741.150 7        44.100
  21704877.078 8 114059906.179 8        46.500                    88877879.58949
        36.000    21704880.20749
  20956342.625 9 110126331.832 9        54.700    20956348.770 9  85812799.74349
        55.400    20956348.59849  20956343.582 6  82237170.218 6        40.900
 21  1  2  0 16  0.0000000  0 11G21G23G16G07G15G26G08G18G27G20G10
  23133979.797 7 121569891.464 7        43.300                    94729807.06947
        29.200    23133982.85947
  21706559.703 8 114068754.695 8        46.400    21706564.398 9  88884762.39649
        38.000    21706563.91849  21706564.836 6  85181224.221 6        38.800
  22029164.195 8 115764100.602 8        47.600                    90205764.71549
        37.300    22029167.29349
  24801876.422 5 130334729.927 5        37.800    24801879.727 5 101559529.42845
        19.300    24801879.48445
  24648585.414 5 129529205.081 5        35.800    24648590.375 5 100931862.18447
        27.500    24648589.49647
  24238270.906 6 127372956.834 6        39.200    24238278.387 6  99251705.75649
        35.900    24238277.91049  24238273.684 2  95116192.120 2        31.000
  21633523.094 9 113684959.972 9        48.100    21633529.855 9  88585701.19449
        51.300    21633529.02749  21633525.078 6  84894617.313 6        39.500
  24022913.750 6 126241283.702 6        38.700    24022919.516 7  98369843.81046
        22.600    24022919.13346  24022919.852 3  94271087.68513        32.400
  20179641.406 9 106044755.549 9        51.400    20179647.082 9  82632308.28349
        55.700    20179646.71149  20179642.945 7  79189286.995 7        43.800
  21716003.680 8 114118375.786 8        46.500                    88923440.31649
        36.200    21716006.82449
  20953457.953 9 110111172.330 9        54.000    20953463.805 9  85800987.15949
        55.200    20953463.53149  20953458.910 7  82225849.817 7        41.100
 21  1  2  0 16 30.0000000  0 11G21G23G16G07G15G26G08G18G27G20G10
  23120355.969 7 121498298.921 7        42.300                    94674020.70947
        28.300    23120359.09447
  21716509.609 8 114121041.903 8        47.100    21716514.461 9  88925505.68449
        38.100    21716513.80949  21716514.406 6  85220269.878 6        39.200
  22046145.883 8 115853340.394 8        46.800                    90275302.20649
        37.000    22046149.12949
  24807959.758 5 130366701.734 5        36.600    24807963.789 5 101584442.45045
        19.300    24807963.40245
  24654665.102 5 129561148.396 5        36.100    24654668.793 4 100956753.13647
        28.700    24654667.23447
  24259472.445 6 127484371.898 6        39.300    24259479.648 6  99338522.68349
        34.600    24259479.26249  24259475.445 1  95199391.651 1        30.500
  21620327.469 9 113615616.330 9        48.200    21620334.234 9  88531667.20149
        51.200    21620333.12949  21620329.629 6  84842834.751 6        40.400
  24041246.555 6 126337619.141 6        38.300    24041251.664 7  98444910.36046
        22.800    24041251.23446  24041252.078 2  94343026.492 2        31.900
  20179352.266 9 106043238.249 9        52.000    20179358.527 9  82631125.96949
        56.300    20179357.95349  20179354.512 7  79188153.939 7        43.300
  21727217.875 8 114177305.230 8        47.300                    88969359.36349
        36.200    21727220.62949
  20950682.750 9 110096588.371 9        53.800    20950688.684 9  85789623.04349
        55.000    20950688.31649  20950683.617 7  82214959.227 7        41.600
 21  1  2  0 17  0.0000000  0 11G21G23G16G07G15G26G08G18G27G20G10
  23106771.125 7 121426908.830 7        43.300                    94618392.09147
        28.500    23106774.16847
  21726557.484 8 114173844.152 8        47.300    21726561.898 8  88966650.28449
        38.000    21726561.80949  21726562.043 6  85259700.129 6        38.300
  22063196.734 8 115942941.960 8        47.400                    90345121.60749
        38.100    22063199.83649
  24814128.453 5 130399116.673 5        37.000    24814133.125 5 101609700.80445
        19.600    24814132.64845
  24660851.523 5 129593656.193 5        37.900    24660854.629 5 100982083.91248
        30.200    24660854.63748
  24280685.297 6 127595844.652 6        39.100    24280693.078 6  99425384.56749
        35.000    24280692.12149  24280688.281 1  95282634.294 1        30.000
  21607180.922 9 113546530.833 9        48.200    21607188.250 9  88477834.35449
        51.400    21607186.77749  21607183.188 6  84791244.920 6        39.400
  24059587.102 6 126434000.146 6        39.000    24059592.398 7  98520012.45946
        24.000    24059591.53546  24059592.703 3  94414999.309 3        32.400
  20179145.375 9 106042151.786 9        50.900    20179151.762 9  82630279.37249
        55.700    20179151.30549  20179147.629 7  79187342.628 7        43.500
  21738518.695 8 114236691.853 8        46.200                    89015634.65449
        36.200    21738521.57049
  20948016.883 9 110082580.404 9        54.100    20948023.113 9  85778707.76649
        55.200    20948022.87949  20948018.336 7  82204498.726 7        41.300
 21  1  2  0 17 30.0000000  0 11G21G23G16G07G15G26G08G18G27G20G10
  23093224.883 7 121355721.571 7        44.100                    94562921.51947
        29.100    23093227.71547
  21736702.828 8 114227158.746 8        46.700    21736707.605 9  89008194.14049
        38.600    21736706.89149  21736707.809 6  85299512.973 6        38.600
  22080315.555 9 116032902.290 9        48.100                    90415220.56249
        37.900    22080319.16849
  24820380.898 5 130431972.643 5        37.000    24820385.434 5 101635302.81345
        18.600    24820384.41445
  24667143.977 6 129626726.610 6        38.200    24667148.391 4 101007853.08048
        31.200    24667146.97748
  24301908.828 6 127707372.052 6        40.600    24301916.184 7  99512289.01749
        36.400    24301915.50449  24301911.148 1  95365917.70311        30.100
  21594083.680 8 113477704.838 8        47.900    21594090.805 9  88424203.71949
        51.500    21594089.58249  21594086.469 6  84739848.903 6        40.100
  24077936.352 6 126530424.896 6        39.600    24077941.273 7  98595148.63446
        23.300    24077940.63746  24077941.469 2  94487004.821 2        31.400
  20179020.953 9 106041496.177 9        50.900    20179027.074 9  82629768.50649
        55.700    20179026.52049  20179022.949 7  79186853.054 7        43.300
  21749906.227 8 114296533.367 8        46.700                    89062264.40749
        35.900    21749908.89849
  20945460.969 9 110069147.984 9        53.400    20945466.977 9  85768240.96149
        55.300    20945466.85549  20945462.348 7  82194468.040 7        41.700
 21  1  2  0 18  0.0000000  0 11G21G23G16G07G15G26G08G18G27G20G10
  23079717.266 7 121284737.353 7        44.100                    94507609.18247
        29.200    23079719.86747
  21746946.133 8 114280983.933 8        46.800    21746950.371 8  89050135.84249
        37.900    21746949.73049  21746950.348 6  85339707.141 6        39.000
  22097502.398 8 116123219.316 8        47.500                    90485597.45249
        38.000    22097505.91849
  24826717.273 6 130465267.838 6        38.300    24826721.031 5 101661247.16045
        19.300    24826720.44545
  24673544.375 5 129660359.286 5        37.800    24673547.574 4 101034060.33948
        30.400    24673547.23848
  24323141.156 6 127818951.774 6        38.700    24323147.965 6  99599234.27049
        35.400    24323147.92649  24323143.785 1  95449240.235 1        30.200
  21581036.266 8 113409139.860 8        47.700    21581043.301 9  88370776.47749
        51.600    21581042.18449  21581038.574 6  84688647.844 6        39.300
  24096293.398 6 126626892.567 6        39.900    24096298.523 7  98670318.24246
        23.500    24096297.71546  24096298.477 2  94559042.322 2        31.900
  20178978.461 9 106041272.276 9        51.100    20178984.395 9  82629594.03849
        55.800    20178983.96549  20178980.289 7  79186685.850 7        43.400
  21761379.602 8 114356827.985 8        46.200                    89109247.23549
        35.800    21761382.74649
  20943014.578 9 110056291.501 9        53.200    20943020.602 9  85758222.93449
        54.900    20943020.38749  20943015.559 7  82184867.455 7        41.100
 21  1  2  0 18 30.0000000  0 11G21G23G16G07G15G26G08G18G27G20G10
  23066247.836 7 121213956.423 7        44.600                    94452455.23447
        29.600    23066250.57047
  21757285.133 8 114335317.671 8        46.600    21757289.691 9  89092473.83449
        38.200    21757289.17249  21757289.836 6  85380281.042 6        38.900
  22114756.383 9 116213890.480 9        48.000                    90556250.30249
        37.300    22114759.85949
  24833135.789 5 130499000.617 5        36.200    24833139.785 4 101687532.44545
        18.600    24833139.73445
  24680051.305 5 129694552.950 5        37.800    24680055.066 5 101060704.80048
        30.300    24680055.03948
  24344383.422 6 127930581.507 6        38.800    24344390.965 6  99686218.45749
        34.400    24344390.46549  24344385.977 1  95532600.11011        29.900
  21568038.914 8 113340837.999 8        47.700    21568045.832 9  88317554.26049
        51.700    21568044.60249  21568041.031 6  84637643.204 6        40.000
  24114658.852 6 126723402.006 6        39.800    24114663.840 7  98745520.39346
        24.700    24114663.51646  24114664.242 3  94631111.038 3        32.600
  20179017.789 9 106041480.702 9        51.200    20179023.973 9  82629756.44349
        55.500    20179023.57049  20179019.836 7  79186841.493 7        43.900
  21772939.102 8 114417573.198 8        46.300                    89156581.17649
        35.900    21772941.99249
  20940677.469 9 110044011.163 9        53.600    20940683.715 9  85748653.85049
        55.000    20940683.50049  20940678.668 7  82175697.064 7        42.000
 21  1  2  0 19  0.0000000  0 11G21G23G16G07G15G26G08G18G27G20G10
  23052816.906 7 121143378.986 7        43.200                    94397459.86547
        29.700    23052820.05147
  21767720.953 8 114390158.247 8        47.200    21767725.402 9  89135206.74649
        38.000    21767724.97749  21767726.121 6  85421233.413 6        39.000
  22132077.641 8 116304913.636 8        47.500                    90627177.43549
        36.400    22132080.57449
  24839637.898 3 130533169.146 3        33.500    24839641.914 4 101714157.28045
        15.600    24839641.31645
  24686665.086 6 129729307.148 6        38.300    24686668.133 5 101087786.03648
        30.300    24686667.87148
  24365635.359 6 128042259.023 6        38.800    24365642.961 6  99773239.89849
        36.800    24365642.27749  24365637.715 1  95615995.61411        30.200
  21555091.898 9 113272800.928 9        48.100    21555098.848 9  88264538.37149
        51.600    21555097.40249  21555093.914 6  84586836.302 6        40.200
  24133031.523 6 126819952.441 6        39.900    24133037.031 7  98820754.50246
        23.000    24133035.95346  24133036.930 3  94703210.440 3        33.300
  20179140.203 9 106042122.389 9        50.900    20179146.230 9  82630256.46149
        55.700    20179145.65249  20179142.027 7  79187320.660 7        42.800
  21784584.258 8 114478767.061 8        46.400                    89204264.70549
        36.200    21784587.01649
  20938450.164 9 110032307.398 9        53.300    20938456.441 9  85739534.03949
        55.000    20938456.33649  20938451.465 7  82166957.260 7        41.400
 21  1  2  0 19 30.0000000  0 11G21G23G16G07G15G26G08G18G27G20G10
  23039425.922 7 121073005.413 7        44.100                    94342623.34848
        30.100    23039428.75448
  21778252.672 8 114445503.350 8        46.700    21778257.441 8  89178332.80249
        38.100    21778256.76249  21778257.699 6  85462562.572 6        38.900
  22149465.125 8 116396285.734 8        47.300                    90698376.46749
        37.600    22149468.32849
  24846224.188 5 130567771.641 5        35.400    24846226.512 3 101741120.13345
        16.300    24846226.32845
  24693384.008 5 129764620.437 5        36.600    24693388.566 4 101115302.94447
        28.600    24693386.98447
  24386895.297 5 128153981.507 5        37.100    24386902.676 6  99860296.37448
        33.300    24386901.94148  24386897.625 1  95699424.752 1        30.000
  21542195.281 9 113205030.062 9        48.500    21542202.328 8  88211729.91049
        51.900    21542201.23849  21542197.688 6  84536228.212 6        39.900
  24151411.352 6 126916542.612 6        38.300    24151417.063 6  98896019.51846
        22.900    24151415.95746  24151417.953 3  94775339.430 3        32.500
  20179344.453 9 106043197.719 9        50.900    20179350.883 9  82631094.37649
        56.000    20179350.15249  20179346.813 7  79188123.677 7        43.800
  21796313.680 8 114540408.136 8        46.500                    89252296.70449
        36.100    21796317.23849
  20936332.742 9 110021180.112 9        53.000    20936338.973 9  85730863.44049
        55.200    20936338.77349  20936334.137 7  82158647.941 7        41.100
 21  1  2  0 20  0.0000000  0 11G21G23G16G07G15G26G08G18G27G20G10
  23026072.688 7 121002835.886 7        44.700                    94287945.81048
        31.100    23026076.37548
  21788880.117 8 114501350.798 8        47.300    21788884.605 9  89221850.30249
        37.800    21788884.03149  21788884.582 6  85504266.821 6        38.800
  22166918.648 8 116488004.020 8        47.300                    90769845.25049
        36.900    22166921.94149
  24852889.945 5 130602806.263 5        35.400    24852893.992 5 101768419.85345
        17.800    24852893.23045
  24700210.977 6 129800491.641 6        38.300    24700213.645 5 101143254.58947
        29.600    24700213.76247
  24408163.383 5 128265746.750 5        37.700    24408170.527 6  99947386.14548
        33.600    24408170.11348  24408165.465 1  95782885.75111        29.500
  21529350.094 8 113137527.262 8        47.700    21529357.215 9  88159130.34149
        51.800    21529356.19549  21529352.363 6  84485820.283 6        40.000
  24169799.125 6 127013171.279 6        38.000    24169804.742 6  98971314.58846
        22.200    24169803.97746  24169806.004 3  94847497.150 3        32.100
  20179631.797 9 106044707.211 9        52.100    20179638.004 9  82632270.60449
        55.600    20179637.44949  20179633.855 7  79189250.903 7        43.300
  21808128.141 8 114602493.931 8        46.100                    89300675.23749
        35.600    21808131.26249
  20934325.000 9 110010629.241 9        52.300    20934331.363 9  85722641.99649
        54.900    20934331.14149  20934326.328 7  82150769.061 7        41.500
 21  1  2  0 20 30.0000000  0 11G21G23G16G07G15G26G08G18G27G20G10
  23012758.563 7 120932870.751 7        43.900                    94233427.53948
        30.200    23012762.49648
  21799602.813 8 114557698.694 8        46.900    21799607.379 8  89265757.75449
        37.300    21799606.45749  21799607.199 6  85546344.788 6        39.000
  22184437.352 8 116580066.301 8        47.200                    90841582.08149
        37.300    22184440.97749
  24859637.969 5 130638270.764 5        35.100    24859642.035 5 101796054.45345
        16.900    24859642.14545
  24707143.164 6 129836919.974 6        38.400    24707146.254 4 101171640.31247
        28.900    24707146.27747
  24429439.852 6 128377552.202 6        38.800    24429447.047 6 100034507.27449
        36.400    24429446.65249  24429442.523 1  95866376.86211        30.800
  21516555.617 9 113070294.235 9        48.000    21516563.008 9  88106740.96949
        51.800    21516561.97749  21516558.246 6  84435613.805 6        40.100
  24188194.141 5 127109837.517 5        37.900    24188200.070 7  99046638.94546
        21.700    24188199.00046  24188200.348 2  94919682.971 2        31.600
  20180001.859 9 106046651.598 9        52.000    20180008.066 9  82633785.71749
        55.600    20180007.37949  20180003.832 7  79190702.879 7        43.600
  21820027.078 8 114665022.180 8        46.400                    89349398.55549
        36.800    21820029.82449
  20932426.805 9 110000655.168 9        52.900    20932433.063 9  85714869.99649
        55.000    20932433.34449  20932428.441 7  82143320.887 7        41.400
 21  1  2  0 21  0.0000000  0 11G21G23G16G07G15G26G08G18G27G20G10
  22999483.047 7 120863110.338 7        43.200                    94179068.79347
        28.900    22999486.96947
  21810420.148 8 114614544.868 8        47.300    21810424.887 8  89310053.48349
        37.700    21810424.13349  21810424.641 6  85588794.876 6        38.400
  22202021.102 8 116672470.599 8        47.300                    90913585.41949
        36.900    22202024.76249
  24866468.133 3 130674163.296 3        33.800    24866473.160 4 101824022.63145
        16.900    24866471.88345
  24714180.891 6 129873904.486 6        39.700    24714183.609 5 101200459.42347
        29.400    24714183.91047
  24450721.195 5 128489395.434 5        37.000    24450729.715 6 100121657.81448
        33.600    24450729.64148  24450724.961 1  95949896.12011        30.600
  21503813.688 8 113003332.422 8        47.900    21503820.555 9  88054562.94749
        51.800    21503819.50049  21503815.594 6  84385609.869 6        40.200
  24206596.945 5 127206540.186 5        37.800    24206602.223 7  99121991.64546
        22.800    24206601.85246  24206602.582 3  94991896.023 3        32.200
  20180455.000 9 106049031.437 9        50.800    20180460.895 9  82635640.12949
        55.800    20180460.32049  20180456.793 7  79192480.017 7        43.700
  21832009.711 8 114727990.972 8        47.000                    89398465.15749
        35.700    21832012.59049
  20930638.547 9 109991257.721 9        52.700    20930644.910 9  85707547.32549
        54.900    20930644.97349  20930640.344 7  82136303.351 7        42.000
 21  1  2  0 21 30.0000000  0 11G21G23G16G07G15G26G08G18G27G20G10
  22986247.602 7 120793554.817 7        43.500                    94124869.73447
        29.400    22986250.81347
  21821331.898 8 114671887.405 8        47.000    21821336.895 9  89354735.98949
        37.800    21821336.04349  21821336.813 6  85631615.591 6        38.200
  22219670.156 8 116765214.045 8        47.100                    90985853.03949
        37.400    22219673.12149
  24873379.586 4 130710482.212 4        34.900    24873382.848 2 101852323.07843
        13.900    24873383.28543
  24721322.625 5 129911444.014 5        37.000    24721328.105 5 101229711.00247
        28.800    24721326.49247
  24472012.656 6 128601274.220 6        39.400    24472019.238 5 100208836.08649
        34.300    24472018.24249  24472014.645 1  96033441.93611        29.900
  21491122.648 8 112936643.582 8        47.600    21491130.113 9  88002597.62849
        51.900    21491129.09049  21491125.207 6  84335809.762 6        40.200
  24225005.461 5 127303278.468 5        36.600    24225010.391 7  99197372.13046
        22.200    24225010.17246  24225011.246 3  95064135.687 3        32.100
  20180990.766 9 106051847.446 9        50.800    20180996.711 9  82637834.42549
        55.400    20180996.31649  20180992.891 7  79194582.890 7        43.700
  21844075.594 8 114791398.071 8        46.000                    89447873.28949
        35.700    21844078.69149
  20928960.289 9 109982437.172 9        52.500    20928966.598 9  85700674.18049
        55.300    20928966.20749  20928961.512 7  82129716.568 7        41.700
 21  1  2  0 22  0.0000000  0 11G21G23G16G07G15G26G08G18G27G20G10
  22973050.789 7 120724204.295 7        43.600                    94070830.38948
        30.400    22973054.11748
  21832338.000 8 114729723.928 8        47.400    21832342.789 8  89399803.40849
        37.900    21832342.24649  21832342.570 6  85674805.230 6        38.400
  22237382.180 8 116858293.875 8        47.200                    91058382.76749
        36.800    22237385.60949
  24880371.039 5 130747225.295 5        36.000    24880375.734 4 101880954.03045
        15.600    24880374.66445
  24728572.461 6 129949537.397 6        38.700    24728575.723 3 101259394.17047
        28.100    24728575.23047
  24493308.914 6 128713185.764 6        39.700    24493315.863 6 100296039.93649
        35.900    24493315.23449  24493310.938 1  96117012.31711        30.100
  21478485.016 8 112870228.973 8        47.700    21478492.148 9  87950845.99249
        51.900    21478490.76249  21478487.254 6  84286214.471 6        40.300
  24243420.039 5 127400051.074 5        36.200    24243425.207 6  99272779.33546
        21.100    24243425.09846  24243426.270 3  95136400.899 3        32.300
  20181609.461 9 106055099.981 9        51.400    20181615.848 9  82640368.86049
        54.900    20181615.14849  20181611.766 7  79197011.735 7        43.300
  21856224.352 8 114855241.214 8        46.300                    89497621.18949
        35.900    21856227.71549
  20927391.414 9 109974193.294 9        53.500    20927397.688 9  85694250.39349
        55.000    20927397.37949  20927392.656 7  82123560.442 7        41.200
 21  1  2  0 22 30.0000000  0 11G21G23G16G07G15G26G08G18G27G20G10
  22959892.547 7 120655059.114 7        44.100                    94016951.03448
        30.600    22959896.29748
  21843437.594 8 114788052.358 8        47.700    21843442.293 8  89445254.13749
        38.000    21843441.48849  21843442.434 6  85718362.153 6        38.900
  22255158.602 9 116951707.199 9        48.000                    91131172.37049
        37.100    22255161.57449
  24887443.859 5 130784390.982 5        36.500    24887448.773 4 101909914.28945
        17.400    24887447.54345
  24735927.164 5 129988183.154 5        37.600    24735930.461 4 101289507.83847
        28.700    24735929.40647
  24514608.625 5 128825127.868 5        36.500    24514617.688 6 100383267.50648
        33.200    24514617.17248  24514613.551 1  96200605.43411        30.900
  21465899.086 9 112804090.646 9        48.200    21465906.020 9  87899309.64349
        52.100    21465905.13749  21465901.293 6  84236825.485 6        40.600
  24261841.539 5 127496856.889 5        36.900    24261846.270 5  99348212.45045
        18.600    24261845.48845  24261847.762 2  95208690.963 2        31.800
  20182311.625 9 106058789.637 9        51.300    20182317.836 9  82643243.91249
        55.000    20182317.08649  20182313.816 7  79199766.973 7        43.700
  21868456.383 8 114919518.798 8        46.700                    89547707.62449
        35.400    21868459.28549
  20925932.461 9 109966526.123 9        52.200    20925938.551 9  85688275.98649
        55.100    20925938.70349  20925933.805 7  82117834.982 7        41.700
 21  1  2  0 23  0.0000000  0 11G21G23G16G07G15G26G08G18G27G20G10
  22946773.734 7 120586119.320 7        44.100                    93963231.74547
        29.900    22946777.23447
  21854630.094 9 114846870.429 9        48.400    21854634.938 8  89491086.40449
        37.300    21854634.29749  21854635.313 6  85762284.747 6        38.700
  22272997.500 8 117045451.478 8        46.700                    91204219.85449
        36.900    22273000.73049
  24894596.938 5 130821976.969 5        35.500    24894600.246 3 101939201.94945
        16.900    24894600.55145
  24743385.930 5 130027380.063 5        37.200    24743389.395 5 101320050.94147
        28.600    24743388.66847
  24535917.750 6 128937097.842 6        39.000    24535924.824 6 100470516.82049
        35.300    24535924.21549  24535920.219 1  96284219.313 1        30.400
  21453366.469 9 112738230.171 9        48.400    21453373.293 9  87847989.81549
        52.300    21453372.20749  21453368.777 6  84187643.972 6        40.500
  24280269.430 5 127593694.757 5        36.600    24280274.500 6  99423670.57546
        20.100    24280273.50046  24280275.211 2  95281005.006 2        31.200
  20183096.953 9 106062916.814 9        52.200    20183103.152 9  82646459.89349
        56.100    20183102.51649  20183099.113 7  79202848.972 7        43.300
  21880769.781 8 114984228.178 8        45.800                    89598130.51849
        35.400    21880772.95349
  20924583.023 9 109959435.458 9        52.400    20924589.211 9  85682750.80249
        55.200    20924589.43449  20924584.531 7  82112539.995 7        41.500
 21  1  2  0 23 30.0000000  0 11G21G23G16G07G15G26G08G18G27G20G10
  22933694.461 7 120517385.404 7        44.800                    93909672.85648
        30.600    22933697.58248
  21865915.891 8 114906176.234 8        47.500    21865920.355 8  89537298.71949
        37.500    21865919.89849  21865920.508 6  85806571.553 6        38.200
  22290899.297 8 117139524.839 8        47.500                    91277523.76749
        36.600    22290902.30149
  24901829.242 5 130859981.308 5        35.600    24901833.078 3 101968815.68045
        15.600    24901832.23045
  24750948.719 6 130067127.312 6        38.700    24750952.793 4 101351022.83948
        30.000    24750952.79748
  24557229.898 5 129049093.438 5        37.800    24557236.715 6 100557786.15248
        33.900    24557236.34448  24557231.938 1  96367852.39211        29.900
  21440886.500 9 112672649.600 9        48.800    21440894.012 9  87796888.07749
        52.200    21440892.76649  21440888.883 6  84138671.470 6        40.300
  24298702.688 5 127690564.042 5        36.200    24298708.910 6  99499153.10446
        20.900    24298708.12946  24298708.184 2  95353342.40512        31.200
  20183965.820 9 106067482.379 9        52.200    20183972.121 9  82650017.47049
        55.600    20183971.30549  20183967.887 7  79206258.308 7        43.900
  21893165.594 8 115049367.041 8        46.100                    89648888.07349
        35.400    21893168.24649
  20923343.797 9 109952921.543 9        53.300    20923349.641 9  85677675.03349
        55.000    20923349.75449  20923345.285 7  82107675.736 7        41.400
 21  1  2  0 24  0.0000000  0 11G21G23G16G07G15G26G08G18G27G20G10
  22920654.102 7 120448857.000 7        44.400                    93856274.11548
        30.500    22920656.78948
  21877293.547 8 114965967.326 8        47.000    21877298.262 8  89583889.18449
        37.600    21877297.35249  21877298.074 6  85851220.763 6        38.300
  22308863.008 8 117233924.493 8        47.100                    91351081.93549
        37.100    22308865.92649
  24909139.023 3 130898401.943 3        33.300    24909143.953 3 101998753.79945
        16.300    24909142.92245
  24758617.211 6 130107423.429 6        40.200    24758620.793 3 101382422.39047
        29.100    24758620.66047
  24578545.672 5 129161112.245 5        37.000    24578553.359 6 100645073.45148
        32.800    24578552.90648  24578548.977 1  96451502.772 1        30.200
  21428460.625 9 112607350.080 9        48.800    21428467.242 9  87746005.35149
        52.400    21428466.41449  21428462.852 6  84089908.867 6        40.700
  24317142.383 5 127787463.315 5        37.500    24317147.715 6  99574659.00646
        21.300    24317147.26246  24317148.684 2  95425702.233 2        31.200
  20184918.047 9 106072486.563 9        51.300    20184924.238 9  82653916.83049
        56.000    20184923.53549  20184920.211 7  79209995.194 7        43.700
  21905641.914 8 115114933.413 8        46.800                    89699978.76749
        35.400    21905645.11349
  20922213.594 9 109946984.005 9        52.800    20922219.883 9  85673048.38849
        54.900    20922219.89149  20922214.871 7  82103241.868 7        41.600
 21  1  2  0 24 30.0000000  0 11G21G23G16G07G15G26G08G18G27G20G10
  22907652.344 7 120380535.071 7        44.100                    93803036.23947
        29.800    22907656.00847
  21888763.609 8 115026241.785 8        47.300    21888768.012 8  89630856.31249
        37.800    21888767.31349  21888768.363 6  85896230.926 6        38.100
  22326887.742 8 117328647.610 8        46.800                    91424892.14649
        36.500    22326891.16849
  24916530.172 5 130937237.052 5        35.000    24916534.672 4 102029014.90145
        17.400    24916533.60945
  24766390.313 7 130148267.402 7        41.100    24766393.184 3 101414248.86048
        30.200    24766392.34448
  24599866.719 6 129273151.816 6        38.700    24599874.258 6 100732377.02849
        34.500    24599873.30949  24599869.340 1  96535168.70611        29.800
  21416088.391 9 112542333.861 9        48.000    21416095.344 9  87695343.36449
        52.500    21416094.18449  21416090.965 6  84041357.806 6        40.300
  24335587.320 5 127884391.828 5        37.700    24335592.813 6  99650187.72946
        20.600    24335592.23046  24335593.734 3  95498083.923 3        32.400
  20185953.859 9 106077930.142 9        51.600    20185960.133 9  82658158.58649
        55.300    20185959.50849  20185956.098 7  79214060.214 7        43.700
  21918200.000 8 115180925.384 8        46.000                    89751401.08149
        35.200    21918203.44149
  20921193.594 9 109941623.001 9        52.800    20921199.559 9  85668870.99949
        55.300    20921199.59849  20921194.793 7  82099238.536 7        41.400
 21  1  2  0 25  0.0000000  0 11G21G23G16G07G15G26G08G18G27G20G10
  22894690.305 7 120312419.187 7        44.000                    93749958.94848
        30.300    22894693.92248
  21900325.305 8 115086997.165 8        47.900    21900329.672 8  89678198.16749
        37.600    21900328.80149  21900329.715 6  85941600.198 6        38.500
  22344973.906 8 117423691.037 8        46.200                    91498951.95349
        36.400    22344977.27749
  24923997.148 1 130976484.317 1        28.600    24924002.199 3 102059597.14043
        13.900    24924003.02743
  24774266.711 6 130189657.807 6        38.700    24774269.859 5 101446501.17247
        29.400    24774268.49247
  24621190.320 5 129385209.562 5        35.900    24621198.012 6 100819694.75948
        31.900    24621197.15248  24621193.402 1  96618848.18111        29.900
  21403769.820 9 112477601.988 9        49.000    21403777.203 9  87644902.96149
        52.300    21403776.16849  21403772.770 6  83993019.091 6        40.400
  24354038.242 5 127981348.346 5        37.800    24354042.633 6  99725738.23946
        21.300    24354042.12546  24354043.496 2  95570486.490 2        31.100
  20187073.477 9 106083813.333 9        52.100    20187079.922 9  82662742.88249
        56.100    20187079.03149  20187075.516 7  79218453.512 7        43.700
  21930838.633 8 115247340.466 8        46.600                    89803153.09649
        35.200    21930841.88749
  20920282.930 9 109936838.128 9        52.900    20920289.203 9  85665142.53349
        55.300    20920289.12549  20920284.336 7  82095665.428 7        41.700
 21  1  2  0 25 30.0000000  0 11G21G23G16G07G15G26G08G18G27G20G10
  22881767.477 7 120244510.245 7        44.500                    93697042.88948
        30.500    22881770.82848
  21911977.227 8 115148231.577 8        47.200    21911982.031 8  89725913.29649
        37.600    21911981.16049  21911982.504 6  85987327.204 6        38.300
  22363120.758 8 117519053.602 8        46.200                    91573260.42249
        36.900    22363124.48449
  24931545.625 3 131016142.102 3        33.200    24931549.188 3 102090499.33245
        15.600    24931548.63745
  24782245.898 5 130231593.387 5        36.500    24782249.844 5 101479178.30447
        28.900    24782249.41447
  24642517.586 6 129497283.390 6        38.900    24642524.418 6 100907024.98548
        32.700    24642523.98448  24642520.508 1  96702539.64011        30.500
  21391506.594 9 112413156.644 9        48.300    21391513.762 9  87594685.81649
        52.700    21391512.81649  21391509.215 6  83944894.317 6        40.100
  24372492.797 6 128078332.199 6        38.000    24372498.652 6  99801310.06246
        22.000    24372497.57846  24372499.063 1  95642909.508 1        30.000
  20188276.898 9 106090137.037 9        51.100    20188283.230 9  82667670.44449
        55.900    20188282.41849  20188278.973 7  79223175.742 7        43.500
  21943556.891 8 115314176.883 8        46.800                    89855233.41749
        35.700    21943560.29749
  20919481.906 9 109932629.577 9        53.400    20919488.234 9  85661863.15349
        55.200    20919488.23449  20919483.656 7  82092522.712 7        41.600
 21  1  2  0 26  0.0000000  0 11G21G23G16G07G15G26G08G18G27G20G10
  22868883.984 7 120176807.847 7        44.000                    93644287.76948
        30.000    22868887.35948
  21923720.594 8 115209942.607 8        47.600    21923725.285 8  89773999.81149
        36.900    21923724.69949  21923725.398 6  86033410.120 6        38.200
  22381328.234 8 117614731.971 8        46.900                    91647814.99149
        36.200    22381331.11749
  24939169.328 1 131056207.84411        27.600    24939173.426 3 102121719.31752
        12.600    24939172.91042
  24790328.570 5 130274072.710 5        36.900    24790334.484 6 101512279.13748
        30.000    24790333.85548
  24663846.664 6 129609370.675 6        38.900    24663854.172 5 100994365.74048
        32.500    24663853.34448  24663849.316 1  96786241.22611        29.500
  21379298.000 9 112348999.258 9        48.700    21379304.840 9  87544693.05249
        52.500    21379304.00849  21379300.367 6  83896984.613 6        40.500
  24390953.977 5 128175342.134 5        37.300    24390958.934 7  99876902.19446
        22.500    24390958.42246  24390958.707 1  95715351.91311        29.900
  20189564.141 9 106096901.509 9        51.700    20189570.258 9  82672941.46149
        55.700    20189569.70349  20189566.156 7  79228227.149 7        43.200
  21956355.375 8 115381432.063 8        47.000                    89907640.04749
        35.200    21956358.02749
  20918790.898 9 109928997.000 9        53.400    20918796.918 9  85659032.58749
        55.600    20918797.00849  20918792.082 7  82089810.057 7        41.800
 21  1  2  0 26 30.0000000  0 13G32G01G21G23G16G07G15G26G08G18G27G20
                                G10
  25279893.234 6 132846716.79616        38.900    25279897.539 5 103516949.29258
        31.600    25279896.48848
  24787908.844 5                        37.000    24787917.285 5 101502369.90415
        37.300
  22856040.094 7 120109312.574 7        43.800                    93591694.07748
        31.100    22856044.35948
  21935554.125 8 115272127.918 8        47.700    21935558.680 8  89822455.89649
        37.300    21935557.98049  21935558.512 5  86079847.212 5        37.900
  22399594.570 8 117710723.377 8        46.500                    91722613.48949
        36.000    22399597.68849
  24946872.000 2 131096679.48512        31.800    24946874.926 3 102153255.74052
        12.600    24946873.85542
  24798516.961 6 130317094.511 6        40.300    24798520.441 5 101545802.64648
        31.600    24798520.20748
  24685178.016 5 129721468.986 5        36.400    24685185.625 6 101081715.05048
        32.200    24685185.27048  24685180.664 1  96869950.93511        29.700
  21367144.375 9 112285131.551 9        48.100    21367151.504 9  87494926.02649
        52.800    21367150.41449  21367146.539 6  83849291.211 6        40.200
  24409418.727 6 128272377.063 6        38.800    24409424.207 7  99952513.82346
        21.500    24409423.43846  24409424.223 1  95787813.05211        30.000
  20190935.250 9 106104107.115 9        51.900    20190941.672 9  82678556.21249
        55.400    20190940.96549  20190937.195 7  79233607.932 7        43.600
  21969232.656 8 115449103.764 8        46.000                    89960371.26449
        35.000    21969235.82849
  20918208.969 9 109925940.048 9        53.400    20918215.422 9  85656650.56149
        55.600    20918215.09049  20918210.336 7  82087527.297 7        41.400
 21  1  2  0 27  0.0000000  0 13G32G01G21G23G16G07G15G26G08G18G27G20
                                G10
  25262373.539 5 132754667.99515        35.700    25262382.285 5 103445222.95657
        29.300    25262380.62947
  24768264.555 5 130158118.164 5        35.100    24768273.281 5 101421935.59855
        18.600    24768272.72345
  22843236.336 8 120042024.392 8        45.400                    93539261.77448
        31.800    22843240.44148
  21947477.313 8 115334785.158 8        47.000    21947481.938 8  89871279.72349
        37.100    21947481.07849  21947481.871 6  86126636.715 6        38.100
  22417919.859 8 117807025.262 8        46.400                    91797653.91749
        35.600    22417923.52049
  24954648.398 1 131137555.12011        28.600    24954653.328 3 102185106.78154
        14.800    24954652.72344
  24806805.211 6 130360657.313 6        39.800    24806809.422 4 101579747.69247
        29.800    24806809.57447
  24706512.633 6 129833575.684 6        39.400    24706518.754 5 101169070.88048
        32.600    24706518.07448  24706514.773 2  96953666.95912        31.000
  21355046.219 9 112221554.850 9        48.400    21355052.973 9  87445385.74049
        52.900    21355052.11749  21355047.949 6  83801815.106 6        40.200
  24427888.180 5 128369435.863 5        36.300    24427893.621 6 100028144.03846
        21.300    24427893.13346  24427894.605 2  95860292.080 2        31.400
  20192390.289 9 106111754.216 9        51.300    20192396.469 9  82684514.98949
        55.300    20192396.07849  20192392.648 7  79239318.448 7        43.600
  21982189.148 8 115517189.497 8        46.000                    90013425.06149
        35.000    21982192.39549
  20917736.766 9 109923458.408 9        53.100    20917742.938 9  85654716.83249
        55.000    20917742.69949  20917738.324 7  82085674.135 7        41.100
 21  1  2  0 27 30.0000000  0 13G32G01G21G23G16G07G15G26G08G18G27G20
                                G10
  25244854.133 5 132662596.213 5        35.900    25244862.363 6 103373478.75648
        31.000    25244861.48848
  24748637.617 5 130054973.772 5        37.300    24748645.527 5 101341563.37445
        18.600    24748645.08245
  22830471.336 7 119974943.382 7        44.700                    93486990.88548
        31.900    22830474.67248
  21959489.969 8 115397912.280 8        46.900    21959494.582 8  89920469.69649
        37.000    21959493.90649  21959494.797 6  86173777.087 6        38.300
  22436304.211 8 117903634.727 8        45.900                    91872933.99749
        35.500    22436307.56349
  24962503.180 1 131178832.52611        30.500    24962508.078 3 102217270.98253
        13.900    24962508.05543
  24815197.961 6 130404759.867 6        38.400    24815202.039 3 101614113.31647
        28.200    24815201.25047
  24727845.602 5 129945688.603 5        36.800    24727853.016 5 101256431.64848
        31.400    24727852.33248  24727848.301 1  97037387.60111        29.400
  21343003.695 9 112158271.287 9        48.200    21343010.602 9  87396073.87449
        52.800    21343009.69149  21343005.594 6  83754557.924 6        40.400
  24446362.242 5 128466517.787 5        36.400    24446368.234 6 100103792.32846
        20.400    24446366.57046  24446368.496 2  95932788.257 2        31.800
  20193929.797 9 106119843.477 9        51.200    20193936.172 9  82690818.30249
        55.300    20193935.31349  20193931.727 7  79245359.120 7        43.700
  21995223.680 8 115585687.704 8        45.800                    90066800.29149
        34.700    21995226.80149
  20917373.734 9 109921552.021 9        52.700    20917380.176 9  85653231.34549
        55.100    20917379.97349  20917375.531 7  82084250.555 7        41.100
 21  1  2  0 28  0.0000000  0 13G32G01G21G23G16G07G15G26G08G18G27G20
                                G10
  25227329.578 5 132570504.346 5        36.600    25227337.039 5 103301718.87348
        32.200    25227336.37548
  24729026.008 6 129951915.312 6        38.800    24729034.000 5 101261258.07945
        18.600    24729033.35545
  22817745.563 8 119908070.378 8        46.000                    93434882.06748
        31.200    22817748.78548
  21971591.977 8 115461507.091 8        46.700    21971596.461 8  89970024.10049
        37.000    21971596.02749  21971596.645 6  86221266.735 6        38.300
  22454746.719 8 118000549.137 8        46.100                    91948451.71549
        35.900    22454749.89149
  24970434.984 3 131220509.688 3        33.400    24970439.211 3 102249746.60745
        16.300    24970439.63345
  24823691.438 5 130449400.915 5        35.500    24823696.551 3 101648898.56746
        24.700    24823695.52746
  24749179.953 5 130057805.474 5        35.700    24749188.441 5 101343795.38148
        31.300    24749187.89148  24749183.371 1  97121111.24611        27.400
  21331017.141 9 112095282.780 9        48.200    21331024.477 9  87346991.93849
        52.800    21331023.32449  21331019.242 6  83707521.047 6        40.600
  24464840.500 5 128563621.889 5        36.700    24464845.926 6 100179457.85346
        21.300    24464845.00446  24464846.051 2  96005301.028 2        31.000
  20195553.227 9 106128375.459 9        51.500    20195559.613 9  82697466.59749
        55.100    20195558.77049  20195555.324 7  79251730.388 7        43.300
  22008336.758 8 115654596.000 8        46.000                    90120495.06349
        34.300    22008339.50849
  20917120.758 9 109920220.721 9        52.100    20917126.777 9  85652193.96249
        55.100    20917126.73049  20917121.703 6  82083256.402 6        40.900
 21  1  2  0 28 30.0000000  0 13G32G01G21G23G16G07G15G26G08G18G27G20
                                G10
  25209801.859 5 132478395.172 5        37.600    25209810.270 6 103229945.55248
        33.100    25209809.96948
  24709431.703 6 129848943.437 6        38.000    24709439.395 6 101181020.24846
        20.600    24709438.75446  24709436.148 2  96965135.15512        31.600
  22805059.531 7 119841404.994 7        44.900                    93382935.03848
        30.500    22805062.12548
  21983782.211 8 115525567.288 8        47.300    21983786.633 9  90019941.14149
        37.800    21983786.34049  21983786.629 5  86269103.885 5        37.800
  22473246.242 8 118097766.334 8        46.300                    92024205.36349
        36.200    22473249.61749
  24978441.430 3 131262584.623 3        33.500    24978446.039 3 102282532.25243
        13.900    24978445.56343
  24832290.039 6 130494579.027 6        38.100    24832293.848 3 101684102.33547
        28.700    24832293.05547
  24770516.867 6 130169923.717 6        38.900    24770523.805 6 101431160.22248
        32.800    24770523.09448  24770519.180 1  97204835.97211        29.500
  21319087.242 9 112032590.464 9        48.200    21319094.387 9  87298140.79849
        52.900    21319093.19949  21319089.246 6  83660705.367 6        40.600
  24483324.047 5 128660747.203 5        37.800    24483328.266 6 100255139.88146
        21.700    24483327.25446  24483328.586 1  96077829.709 1        30.700
  20197261.547 9 106137350.571 9        51.400    20197267.383 9  82704460.19049
        54.900    20197266.88749  20197263.406 7  79258432.586 7        43.600
  22021526.883 8 115723912.014 8        46.400                    90174507.55049
        35.000    22021529.99249
  20916976.414 9 109919464.218 9        52.200    20916983.023 9  85651604.50149
        55.000    20916982.61749  20916978.156 7  82082691.483 7        41.700
 21  1  2  0 29  0.0000000  0 13G32G01G21G23G16G07G15G26G08G18G27G20
                                G10
  25192273.438 6 132386271.247 6        40.400    25192278.121 5 103158160.60548
        32.400    25192276.11348
  24689851.609 5 129746058.656 5        35.500    24689860.984 5 101100850.30645
        17.400    24689860.80945  24689856.488 1  96888305.672 1        30.800
  22792413.016 8 119774947.141 8        46.200                    93331149.71448
        30.400    22792415.95748
  21996060.547 8 115590090.314 8        46.300    21996064.840 8  90070218.81849
        37.200    21996064.25849  21996064.984 6  86317286.665 6        38.100
  22491803.117 8 118195283.565 8        45.900                    92100192.80349
        35.200    22491806.42249
  24986521.359 1 131305054.844 1        30.300    24986527.191 3 102315625.87443
        13.900    24986527.57443
  24840989.539 6 130540292.455 6        39.400    24840993.023 4 101719723.24247
        29.700    24840991.82447
  24791851.063 5 130282040.773 5        37.200    24791858.848 6 101518524.17148
        31.100    24791858.07848  24791855.406 1  97288559.69811        30.200
  21307214.234 9 111970196.335 9        48.400    21307221.113 9  87249521.99949
        52.800    21307219.92649  21307216.219 6  83614112.364 6        40.600
  24501809.695 5 128757892.447 5        37.200    24501814.762 6 100330837.48846
        21.300    24501814.25446  24501815.027 2  96150373.232 2        31.100
  20199053.461 9 106146768.950 9        51.400    20199059.805 9  82711799.18949
        55.400    20199059.21149  20199055.559 7  79265465.794 7        43.500
  22034794.422 8 115793633.116 8        45.900                    90228835.68949
        34.500    22034797.54749
  20916941.867 9 109919282.101 9        52.100    20916948.371 9  85651462.59949
        55.000    20916948.12549  20916943.508 7  82082555.515 7        42.300
 21  1  2  0 29 30.0000000  0 13G32G01G21G23G16G07G15G26G08G18G27G20
                                G10
  25174738.172 5 132294136.277 5        35.900    25174745.516 5 103086367.12447
        29.700    25174743.65247
  24670291.398 5 129643262.911 5        37.600    24670299.582 5 101020749.72945
        19.300    24670299.34845  24670295.652 3  96811542.62313        32.100
  22779805.836 8 119708697.606 8        46.700                    93279526.72848
        30.600    22779808.87148
  22008426.375 8 115655074.803 8        47.000    22008430.898 8  90120856.08949
        36.100    22008430.04749  22008430.867 5  86365814.053 5        37.300
  22510416.992 8 118293099.130 8        46.000                    92176412.72249
        34.900    22510420.25849
  24994680.813 1 131347919.14511        30.300    24994683.762 3 102349026.43552
        12.600    24994683.85942
  24849790.188 6 130586540.858 6        38.400    24849793.328 5 101755760.96348
        30.400    24849793.52748
  24813186.211 5 130394155.132 5        36.800    24813193.445 5 101605886.01548
        30.700    24813192.50048
  21295398.656 9 111908102.501 9        48.800    21295404.891 9  87201137.20249
        53.300    21295403.79749  21295400.168 6  83567743.607 6        40.300
  24520299.281 5 128855057.660 5        36.700    24520304.531 6 100406550.62046
        21.100    24520303.79746  24520305.426 2  96222931.673 2        31.600
  20200930.445 9 106156631.952 9        52.200    20200936.824 9  82719484.64049
        55.100    20200936.01649  20200932.559 7  79272831.020 7        43.700
  22048138.703 8 115863758.327 8        45.800                    90283478.71049
        34.700    22048141.85549
  20917016.656 9 109919674.546 9        52.000    20917022.855 9  85651768.41749
        55.000    20917022.72349  20917017.984 7  82082848.589 7        41.100
 21  1  2  0 30  0.0000000  0 13G32G01G21G23G16G07G15G26G08G18G27G20
                                G10
  25157204.211 6 132201991.971 6        38.100    25157211.445 6 103014566.38748
        32.200    25157211.23048
  24650746.648 5 129540556.078 5        36.500    24650755.820 6 100940718.37246
        20.400    24650754.70746  24650750.348 1  96734845.94211        29.100
  22767238.609 8 119642656.114 8        46.600                    93228065.81948
        30.700    22767240.93848
  22020880.047 8 115720517.425 8        47.400    22020884.313 8  90171850.33849
        37.100    22020883.52349  22020884.441 5  86414683.552 5        37.700
  22529086.422 8 118391208.842 8        46.000                    92252861.83549
        35.300    22529090.18049
  25002911.641 1 131391174.12511        30.100    25002916.000 3 102382731.68054
        14.800    25002914.86344
  24858693.250 5 130633321.264 5        36.900    24858696.488 5 101792213.27147
        28.100    24858696.91447
  24834520.039 5 130506263.439 5        37.300    24834527.262 6 101693243.11748
        32.300    24834526.69148
  21283639.758 9 111846309.983 9        49.000    21283646.422 9  87152987.19049
        53.300    21283645.01649  21283641.656 6  83521599.839 6        40.400
  24538792.211 5 128952240.797 5        37.300    24538797.398 6 100482277.74046
        21.100    24538796.96546  24538798.574 2  96295503.458 2        31.100
  20202891.664 9 106166938.989 9        51.900    20202898.016 9  82727516.09649
        55.000    20202897.37949  20202893.855 7  79280527.829 7        43.600
  22061559.297 8 115934284.321 8        46.000                    90338434.02149
        34.800    22061562.93049
  20917200.367 9 109920640.392 9        52.200    20917206.492 9  85652521.03649
        54.900    20917206.50849  20917201.875 7  82083569.845 7        41.700
 21  1  2  0 30 30.0000000  0 13G32G01G21G23G16G07G15G26G08G18G27G20
                                G10
  25139670.672 6 132109841.331 6        38.700    25139676.773 6 102942760.77648
        33.200    25139675.94148
  24631219.258 5 129437939.090 5        36.700    24631227.941 6 100860757.08045
        19.300    24631227.82445  24631223.316 1  96658216.33011        30.100
  22754710.852 8 119576823.232 8        46.600                    93176767.48848
        30.500    22754713.84048
  22033419.813 8 115786416.043 8        46.800    22033424.176 8  90223199.91549
        36.700    22033423.64149  22033424.645 5  86463893.535 5        37.600
  22547811.273 8 118489610.230 8        45.200                    92329538.22249
        34.700    22547815.25049
  25011216.906 4 131434817.69414        34.500    25011221.441 5 102416739.62555
        17.400    25011220.63745
  24867693.938 5 130680632.453 5        35.300    24867698.793 5 101829079.13347
        26.400    24867699.19147
  24855851.891 5 130618363.347 5        37.200    24855858.398 5 101780593.68048
        30.400    24855858.19548
  21271938.297 9 111784820.461 9        48.500    21271945.219 9  87105073.28849
        53.300    21271943.96149  21271940.324 6  83475682.347 6        40.700
  24557289.922 5 129049441.076 5        37.500    24557293.008 6 100558018.20245
        19.300    24557293.43045  24557294.879 1  96368088.03811        30.600
  20204937.688 9 106177690.579 9        51.900    20204944.070 9  82735893.95849
        55.300    20204943.20349  20204939.785 7  79288556.625 7        43.300
  22075055.758 8 116005208.771 8        46.100                    90393699.82349
        35.200    22075058.97349
  20917493.227 9 109922179.398 9        52.500    20917499.297 9  85653720.27049
        55.000    20917499.46549  20917494.469 7  82084719.125 7        41.500
 21  1  2  0 31  0.0000000  0 13G32G01G21G23G16G07G15G26G08G18G27G20
                                G10
  25122132.109 5 132017687.779 5        37.900    25122138.906 5 102870952.74448
        32.500    25122137.92648
  24611709.914 6 129335413.257 6        38.400    24611717.414 5 100780866.84746
        20.600    24611717.28546  24611714.047 1  96581654.84011        30.300
  22742222.930 8 119511199.062 8        45.400                    93125631.79448
        30.900    22742226.53548
  22046046.375 8 115852768.746 8        46.300    22046051.074 8  90274903.32149
        36.900    22046050.33249  22046050.926 5  86513442.657 5        37.800
  22566592.109 8 118588301.305 8        45.500                    92406440.35849
        34.700    22566595.53149
  25019595.250 1 131478848.211 1        30.700    25019600.066 5 102451049.05545
        16.300    25019599.35245
  24876799.234 6 130728473.410 6        38.300    24876802.500 4 101866357.81547
        28.000    24876802.06647
  24877182.109 5 130730453.029 5        37.000    24877188.855 5 101867936.24048
        30.200    24877188.32048
  21260295.266 9 111723635.952 9        48.800    21260302.305 9  87057397.04749
        53.500    21260300.97349  21260297.324 6  83429992.630 6        40.600
  24575789.164 6 129146657.950 6        38.500    24575793.551 5 100633771.55446
        20.400    24575793.26646  24575794.379 1  96440685.04111        29.700
  20207068.367 9 106188887.556 9        51.500    20207074.707 9  82744618.86549
        55.000    20207074.10549  20207070.555 7  79296917.986 7        43.100
  22088627.328 8 116076529.518 8        46.500                    90449274.43948
        33.900    22088631.00048
  20917895.391 9 109924291.633 9        52.900    20917901.402 9  85655366.17949
        55.100    20917901.37549  20917896.438 7  82086296.464 7        41.300
 21  1  2  0 31 30.0000000  0 13G32G01G21G23G16G07G15G26G08G18G27G20
                                G10
  25104598.070 6 131925533.812 6        40.500    25104602.453 5 102799144.44048
        33.100    25104601.24648
  24592217.055 5 129232979.367 5        37.400    24592225.570 5 100701048.15846
        20.400    24592224.59046  24592220.844 1  96505162.012 1        28.500
  22729774.656 8 119445783.716 8        45.800                    93074658.84248
        31.400    22729778.62548
  22058758.828 8 115919573.001 8        46.000    22058763.598 8  90326958.58249
        36.600    22058762.84049  22058763.293 5  86563328.962 5        37.100
  22585427.313 8 118687279.472 8        45.500                    92483566.19549
        35.400    22585430.03549
  25028047.273 3 131523263.21613        33.200    25028050.934 4 102485658.18955
        15.600    25028050.85245
  24886003.047 5 130776842.634 5        37.900    24886005.824 3 101904048.11347
        27.900    24886005.44547
  24898509.500 5 130842529.816 5        36.700    24898516.191 5 101955268.82848
        30.800    24898515.91848
  21248710.820 9 111662758.127 9        49.300    21248717.609 9  87009959.78749
        53.400    21248716.53549  21248712.660 6  83384531.918 6        40.800
  24594291.992 5 129243890.339 5        37.600    24594296.672 6 100709537.07446
        20.900    24594295.55146  24594296.531 1  96513293.64011        29.700
  20209284.102 9 106200530.158 9        51.800    20209290.332 9  82753691.02249
        55.600    20209289.53549  20209286.078 7  79305612.151 7        44.100
  22102274.641 8 116148244.635 8        45.800                    90505156.34549
        34.100    22102278.09449
  20918406.195 9 109926976.476 9        53.000    20918412.449 9  85657458.27549
        54.900    20918412.35949  20918407.250 7  82088301.380 7        41.200
 21  1  2  0 32  0.0000000  0 13G32G01G21G23G16G07G15G26G08G18G27G20
                                G10
  25087060.336 5 131833382.088 5        36.200    25087067.586 6 102727337.93948
        31.700    25087066.74248
  24572741.102 5 129130638.011 5        36.800    24572750.789 6 100621301.71945
        19.900    24572749.98445  24572746.152 1  96428738.21211        29.300
  22717366.766 8 119380577.067 8        46.100                    93023848.48548
        31.900    22717369.86748
  22071556.789 8 115986826.404 8        46.300    22071561.086 8  90379363.82849
        36.200    22071560.78149  22071561.555 5  86613550.646 5        37.500
  22604316.398 8 118786541.684 8        46.000                    92560913.37749
        35.200    22604319.54349
  25036572.898 5 131568060.588 5        35.800    25036576.367 3 102520565.05645
        17.400    25036574.96145
  24895307.992 6 130825738.090 6        39.900    24895311.949 4 101942148.47547
        29.300    24895310.25047
  24919832.617 5 130954591.255 5        35.500    24919841.496 6 102042589.42648
        30.000    24919840.69948
  21237184.586 9 111602188.660 9        49.100    21237191.750 9  86962762.80549
        53.400    21237190.60549  21237186.945 7  83339301.479 7        41.100
  24612797.297 5 129341137.256 5        37.000    24612802.309 5 100785313.85945
        19.000    24612801.53945  24612802.543 1  96585913.13011        29.200
  20211584.500 9 106212618.627 9        51.900    20211590.785 9  82763110.60049
        54.900    20211589.82849  20211586.105 7  79314639.236 7        43.400
  22115996.711 8 116220351.866 8        45.300                    90561343.79848
        33.600    22115999.40648
  20919026.320 9 109930233.385 9        53.100    20919032.086 9  85659996.14649
        55.000    20919032.14849  20919027.168 7  82090733.502 7        41.600
 21  1  2  0 32 30.0000000  0 13G32G01G21G23G16G07G15G26G08G18G27G20
                                G10
  25069525.367 5 131741235.579 5        35.500    25069532.957 6 102655535.50348
        30.500    25069532.46948
  24553285.070 6 129028390.143 6        38.000    24553293.527 6 100541628.06446
        21.700    24553292.94146  24553289.652 2  96352384.373 2        31.100
  22704997.930 8 119315579.449 8        46.000                    92973201.01948
        32.600    22705001.68048
  22084439.797 8 116054526.576 8        46.600    22084444.035 8  90432117.22749
        36.400    22084443.47749  22084444.828 6  86664105.965 6        38.100
  22623258.430 8 118886084.930 8        45.600                    92638479.54749
        34.800    22623261.93449
  25045168.609 4 131613237.866 4        34.800    25045173.184 3 102555768.10345
        17.400    25045172.30545
  24904712.445 6 130875158.398 6        39.900    24904715.676 5 101980657.81048
        30.000    24904715.63748
  24941154.797 5 131066635.075 5        36.300    24941163.078 5 102129896.25147
        29.400    24941162.07447
  21225717.742 9 111541929.165 9        49.700    21225724.543 9  86915807.37149
        53.600    21225723.76249  21225719.629 6  83294302.524 6        40.900
  24631305.336 5 129438397.713 5        36.300    24631310.355 6 100861101.18445
        19.300    24631309.29345  24631310.543 1  96658542.71411        30.600
  20213969.711 9 106225153.323 9        51.900    20213975.848 9  82772877.88649
        55.100    20213975.17649  20213971.578 7  79323999.557 7        43.700
  22129791.781 8 116292848.707 8        46.200                    90617834.84148
        33.200    22129795.30148
  20919754.617 9 109934061.934 9        52.700    20919760.574 9  85662979.44649
        55.000    20919760.58649  20919755.738 7  82093592.500 7        41.400
 21  1  2  0 33  0.0000000  0 13G32G01G21G23G16G07G15G26G08G18G27G20
                                G10
  25051992.656 6 131649097.294 6        38.800    25051999.004 5 102583739.38748
        32.500    25051997.87948
  24533846.391 6 128926236.756 6        38.200    24533854.215 5 100462027.97146
        21.100    24533853.39846  24533849.930 1  96276101.026 1        30.100
  22692669.844 8 119250791.357 8        46.400                    92922716.83048
        33.100    22692672.39848
  22097407.375 8 116122671.335 8        45.200    22097411.367 8  90485217.04549
        36.200    22097411.18449  22097412.055 5  86714993.305 5        37.700
  22642253.789 8 118985907.172 8        45.300                    92716263.09249
        34.000    22642257.43049
  25053837.602 5 131658792.980 5        37.300    25053842.414 3 102591265.52045
        19.000    25053842.15245
  24914215.742 5 130925102.055 5        37.900    24914219.461 5 102019575.01247
        29.400    24914220.48447
  24962472.016 5 131178658.833 5        36.900    24962480.465 6 102217187.53448
        32.100    24962479.81348
  21214309.758 9 111481981.414 9        49.300    21214316.902 9  86869094.84349
        53.600    21214315.82849  21214312.059 6  83249536.351 6        40.900
  24649816.570 5 129535670.924 5        36.200    24649820.156 5 100936898.51145
        18.600    24649819.89145  24649821.746 1  96731181.777 1        30.300
  20216440.016 9 106238134.782 9        50.700    20216446.238 9  82782993.29649
        54.900    20216445.49249  20216441.848 7  79333693.488 7        43.600
  22143662.000 8 116365733.027 8        46.300                    90674627.82748
        33.800    22143664.43448
  20920591.711 9 109938461.730 9        53.300    20920597.949 9  85666407.87149
        55.200    20920597.75449  20920593.133 7  82096878.090 7        41.100
 21  1  2  0 33 30.0000000  0 13G32G01G21G23G16G07G15G26G08G18G27G20
                                G10
  25034462.258 6 131556969.857 6        39.800    25034468.059 5 102511951.78948
        33.000    25034465.40648
  24514424.008 5 128824178.560 5        35.800    24514433.023 6 100382502.14446
        20.600    24514432.46946  24514428.875 1  96199888.720 1        30.800
  22680380.508 8 119186212.339 8        47.000                    92872395.54248
        33.000    22680384.01648
  22110458.563 8 116191258.127 8        45.300    22110463.496 8  90538661.29249
        36.000    22110462.75449  22110463.238 5  86766210.708 5        37.900
  22661302.164 8 119086005.784 8        46.200                    92794262.00649
        34.900    22661305.36749
  25062578.414 3 131704723.763 3        33.100    25062582.789 4 102627055.65545
        16.300    25062582.83645
  24923819.406 6 130975567.322 6        38.100    24923823.090 5 102058898.61547
        29.800    24923823.19147
  24983784.523 4 131290660.258 4        34.300    24983793.715 6 102304461.32447
        29.400    24983793.40247
  21202961.461 9 111422346.781 9        50.000    21202968.805 9  86822626.30549
        53.600    21202967.49249  21202963.492 6  83205004.004 6        40.300
  24668327.969 5 129632955.851 5        36.700    24668332.891 5 101012704.96045
        19.900    24668332.67645  24668333.988 1  96803829.57211        29.800
  20218995.164 9 106251563.129 9        51.500    20219001.574 9  82793456.94349
        55.000    20219001.01649  20218997.355 7  79343721.150 7        44.100
  22157604.281 8 116439002.520 8        45.800                    90731720.94149
        34.000    22157607.35949
  20921537.742 9 109943432.169 9        53.800    20921543.563 9  85670280.95049
        55.000    20921543.66849  20921539.055 7  82100589.785 7        41.500
 21  1  2  0 34  0.0000000  0 13G32G01G21G23G16G07G15G26G08G18G27G20
                                G10
  25016931.664 5 131464856.285 5        37.000    25016938.602 5 102440174.96348
        31.700    25016937.40248
  24495022.125 5 128722216.512 5        37.300    24495030.418 5 100303051.24046
        21.800    24495029.86746  24495025.852 1  96123748.267 1        30.500
  22668131.203 8 119121842.951 8        47.200                    92822237.61548
        32.700    22668134.32048
  22123594.172 8 116260284.746 8        46.000    22123598.570 8  90592448.26349
        36.300    22123597.84449  22123598.660 5  86817756.587 5        37.600
  22680402.422 8 119186377.310 8        45.700                    92872473.57349
        34.400    22680405.07049
  25071389.727 3 131751027.615 3        33.400    25071394.563 4 102663136.52745
        15.600    25071393.99245
  24933521.094 5 131026552.711 5        37.000    24933525.063 5 102098627.52547
        28.000    24933525.36747
  25005094.305 6 131402636.942 6        38.100    25005101.488 6 102391715.85148
        32.100    25005100.96948
  21191673.719 9 111363027.214 9        49.800    21191680.574 9  86776403.28249
        53.500    21191679.30149  21191675.816 6  83160706.951 6        40.700
  24686844.063 5 129730251.736 5        35.700    24686848.055 6 101088519.91045
        19.900    24686847.57445  24686848.938 1  96876485.55911        29.400
  20221635.719 9 106265438.900 9        51.000    20221641.875 9  82804269.24449
        55.000    20221641.35549  20221637.996 7  79354082.926 7        43.300
  22171619.797 8 116512654.834 8        45.200                    90789112.34548
        32.800    22171622.89848
  20922591.875 9 109948972.833 9        52.800    20922598.039 9  85674598.36449
        55.200    20922598.07449  20922593.234 7  82104727.301 7        41.600
 21  1  2  0 34 30.0000000  0 13G32G01G21G23G16G07G15G26G08G18G27G20
                                G10
  24999406.875 5 131372759.294 5        37.500    24999412.605 5 102368411.08748
        31.500    24999411.41848
  24475637.672 6 128620351.422 6        38.100    24475646.395 6 100223675.83546
        22.000    24475645.44946  24475642.180 2  96047680.160 2        31.300
  22655922.055 8 119057683.225 8        47.400                    92772243.05048
        32.800    22655924.75848
  22136812.969 8 116329748.669 8        47.000    22136817.340 8  90646576.00349
        35.900    22136816.39849  22136817.359 5  86869628.976 5        37.500
  22699554.172 8 119287019.930 8        45.800                    92950896.40049
        34.600    22699556.96149
  25080271.531 5 131797702.000 5        36.400    25080276.164 5 102699506.16445
        18.300    25080275.37945
  24943322.234 4 131078056.469 4        34.500    24943325.824 5 102138760.35047
        26.200    24943326.19147
  25026397.000 5 131514586.425 5        36.500    25026404.934 5 102478949.24148
        30.300    25026404.65248
  21180445.906 9 111304024.966 9        49.900    21180452.918 9  86730427.50949
        53.600    21180451.53549  21180448.152 7  83116646.828 7        41.000
  24705359.977 5 129827557.641 5        36.200    24705365.543 6 101164342.63345
        19.300    24705363.73845  24705364.688 1  96949149.02311        29.400
  20224361.375 9 106279762.270 9        52.100    20224367.609 9  82815430.30149
        55.000    20224366.94949  20224363.480 7  79364778.939 7        43.700
  22185707.797 8 116586687.631 8        45.200                    90846800.23948
        33.200    22185710.85548
  20923754.898 9 109955083.038 9        53.900    20923760.629 9  85679359.57449
        55.000    20923760.58649  20923756.238 7  82109290.147 7        41.700
 21  1  2  0 35  0.0000000  0 13G32G01G21G23G16G07G15G26G08G18G27G20
                                G10
  24981884.766 6 131280681.992 6        39.200    24981891.922 5 102296662.53348
        32.300    24981890.67248
  24456272.180 5 128518584.248 5        37.900    24456279.727 6 100144376.72746
        20.100    24456280.15246  24456276.449 1  95971685.223 1        30.400
  22643753.102 8 118993733.606 8        47.000                    92722412.18148
        32.400    22643755.19948
  22150113.805 8 116399647.672 8        45.800    22150118.574 8  90701042.76149
        36.600    22150118.10249  22150119.008 5  86921826.285 5        37.700
  22718756.523 8 119387930.725 8        45.300                    93029528.17949
        34.200    22718759.85949
  25089222.898 3 131844745.154 3        33.900    25089228.055 5 102736163.16045
        17.400    25089227.53545
  24953220.383 5 131130077.003 5        35.000    24953225.152 3 102179295.83847
        26.100    24953225.19547
  25047694.594 5 131626506.631 5        36.300    25047702.699 6 102566159.73648
        30.800    25047702.45348
  21169278.453 9 111245341.325 9        49.900    21169285.652 9  86684699.99349
        53.600    21169284.46149  21169280.824 7  83072824.632 7        41.100
  24723878.742 5 129924871.70815        37.000    24723883.539 5 101240171.58355
        19.900    24723882.17245  24723883.844 1  97021819.41911        30.100
  20227172.359 9 106294533.699 9        52.700    20227178.496 9  82826940.49749
        54.900    20227177.81349  20227174.367 7  79375809.565 7        43.700
  22199867.883 8 116661098.780 8        45.000                    90904782.95648
        32.700    22199870.89848
  20925025.828 9 109961762.414 9        53.000    20925031.715 9  85684564.29849
        55.000    20925031.63749  20925027.172 7  82114277.981 7        41.500
 21  1  2  0 35 30.0000000  0 13G32G01G21G23G16G07G15G26G08G18G27G20
                                G10
  24964366.742 6 131188626.978 6        38.700    24964374.328 6 102224931.35548
        32.700    24964373.91848
  24436925.039 5 128416915.692 5        35.500    24436933.035 5 100065154.49045
        19.600    24436932.53945  24436929.336 1  95895763.918 1        30.200
  22631623.258 8 118929993.805 8        45.500                    92672744.83348
        32.100    22631626.75448
  22163497.180 8 116469979.137 8        45.400    22163502.203 8  90755846.50249
        35.700    22163501.61349  22163502.102 5  86974346.528 5        37.400
  22738009.586 7 119489106.803 7        44.700                    93108366.66948
        33.800    22738012.93048
  25098245.883 3 131892154.452 3        33.700    25098249.453 3 102773105.46043
        13.900    25098249.39143
  24963218.734 5 131182612.341 5        35.900    24963221.203 3 102220232.50946
        24.800    24963221.21546
  25068986.836 6 131738394.832 6        38.700    25068994.375 6 102653345.35048
        31.900    25068994.16048
  21158172.578 9 111186977.551 9        50.200    21158179.414 9  86639221.73449
        53.700    21158178.14849  21158174.578 6  83029241.327 6        40.900
  24742397.797 5 130022194.859 5        35.100    24742403.313 5 101316007.84545
        19.600    24742402.34445  24742403.555 1  97094495.77911        30.300
  20230068.695 9 106309753.264 9        52.100    20230074.898 9  82838799.89749
        55.000    20230074.03549  20230070.656 7  79387174.808 7        43.500
  22214099.398 8 116735885.657 8        45.700                    90963058.44148
        33.600    22214102.59848
  20926404.922 9 109969010.134 9        53.700    20926411.234 9  85690211.88249
        55.000    20926410.60249  20926406.195 7  82119690.286 7        41.600
 21  1  2  0 36  0.0000000  0 13G32G01G21G23G16G07G15G26G08G18G27G20
                                G10
  24946854.758 6 131096597.451 6        38.300    24946861.625 5 102153220.03148
        31.900    24946860.35548
  24417597.258 5 128315346.754 5        35.900    24417605.578 6  99986009.96945
        19.600    24417605.00045  24417600.941 2  95819917.00912        31.000
  22619533.648 8 118866464.163 8        46.600                    92623241.25148
        32.200    22619537.54348
  22176963.086 8 116540741.041 8        46.000    22176967.523 8  90810985.64349
        35.900    22176966.97749  22176967.402 5  87027188.221 5        36.300
  22757312.492 8 119590545.702 8        45.000                    93187409.96349
        34.000    22757316.29749
  25107336.164 2                        31.900    25107340.199 3 102810342.59313
        13.900    25107339.80943
  24973313.195 5 131235661.388 5        37.000    24973317.008 5 102261569.41747
        28.700    24973316.70747
  25090271.516 5 131850249.138 5        37.500    25090279.098 6 102740504.54248
        30.000    25090279.38348
  21147127.492 9 111128936.154 9        50.200    21147134.594 9  86593994.67349
        53.700    21147133.23449  21147129.668 7  82985898.702 7        41.100
  24760920.336 5 130119525.521 5        35.000    24760924.391 5 101391849.88145
        16.900    24760923.91045  24760925.734 1  97167177.774 1        29.900
  20233050.195 9 106325421.637 9        52.100    20233056.254 9  82851009.01549
        54.900    20233055.66849  20233052.094 7  79398875.196 7        43.700
  22228401.961 8 116811046.299 8        46.000                    91021625.18348
        32.600    22228404.85548
  20927891.977 9 109976825.951 9        53.800    20927898.391 9  85696302.12849
        54.900    20927898.00849  20927893.531 7  82125526.741 7        41.500
 21  1  2  0 36 30.0000000  0 13G32G01G21G23G16G07G15G26G08G18G27G20
                                G10
  24929347.828 6 131004596.218 6        38.600    24929354.496 5 102081530.77648
        31.600    24929352.64148
  24398289.070 6 128213878.401 6        39.100    24398296.734 6  99906943.68046
        22.800    24398296.59846  24398291.672 1  95744145.20111        29.800
  22607484.445 8 118803144.830 8        45.500                    92573901.55548
        32.300    22607487.68048
  22190510.211 8 116611930.781 8        46.900    22190514.691 8  90866458.17549
        37.000    22190514.08249  22190514.504 5  87080349.408 5        36.700
  22776665.734 8 119692244.585 8        45.200                    93266655.83349
        34.000    22776668.88749
  25116495.867 3 131988063.33713        32.000    25116500.102 3 102847839.60253
        13.900    25116500.08243
  24983505.141 5 131289221.946 5        35.900    24983509.316 5 102303304.95248
        30.000    24983509.23048
  25111549.367 5 131962067.157 5        36.000    25111557.863 5 102827635.44247
        28.200    25111557.37947
  21136144.031 9 111071218.160 9        50.200    21136151.211 9  86549019.61749
        53.800    21136149.87549  21136145.754 6  82942797.624 6        40.600
  24779440.797 3 130216862.87513        32.800    24779447.230 5 101467697.18455
        16.900    24779446.93045  24779447.797 1  97239864.72311        29.700
  20236116.977 9 106341538.966 9        51.500    20236123.352 9  82863567.96949
        55.000    20236122.54749  20236119.070 7  79410910.881 7        43.100
  22242775.180 7 116886578.115 7        44.600                    91080481.14948
        33.700    22242778.11748
  20929487.266 9 109985209.101 9        52.500    20929493.480 9  85702834.47349
        54.900    20929493.27049  20929488.672 7  82131786.909 7        41.700
 21  1  2  0 37  0.0000000  0 13G32G01G21G23G16G07G15G26G08G18G27G20
                                G10
  24911846.148 6 130912625.876 6        39.400    24911852.582 5 102009865.57548
        32.500    24911851.51648
  24378998.648 5 128112511.185 5        35.100    24379007.695 6  99827956.31346
        21.500    24379006.57046  24379002.539 1  95668449.03211        29.400
  22595475.547 8 118740035.944 8        46.300                    92524725.80248
        32.600    22595478.27348
  22204137.875 8 116683545.750 8        46.400    22204142.313 8  90922262.05849
        36.000    22204141.68049  22204142.379 5  87133828.122 5        36.700
  22796067.039 7 119794200.623 7        44.900                    93346102.09148
        32.600    22796070.19948
  25125724.211 5 132036557.579 5        35.400    25125729.410 3 102885627.25145
        16.300    25125728.19145
  24993793.727 5 131343292.219 5        36.500    24993798.676 5 102345437.70047
        29.700    24993799.07447
  25132821.188 6 132073846.100 6        38.300    25132828.164 5 102914735.95748
        31.400    25132828.03948
  21125222.703 9 111013825.503 9        50.000    21125229.574 9  86504298.07149
        53.700    21125228.39549  21125224.699 7  82899939.474 7        41.000
  24797967.063 5 130314205.60915        35.000    24797971.250 5 101543548.65155
        16.900    24797970.31345  24797970.828 1  97312555.77811        28.300
  20239269.703 9 106358105.329 9        51.700    20239275.855 9  82876476.81749
        55.000    20239275.17649  20239271.602 7  79423281.845 7        43.200
  22257218.344 8 116962479.258 8        45.200                    91139624.89248
        32.700    22257221.63748
  20931190.609 9 109994158.712 9        52.900    20931196.773 9  85709808.20249
        54.900    20931196.30149  20931191.684 7  82138470.086 7        41.400
 21  1  2  0 37 30.0000000  0 13G32G01G21G23G16G07G15G26G08G18G27G20
                                G10
  24894351.125 6 130820689.345 6        39.800    24894357.914 5 101938226.71148
        33.100    24894355.84448
  24359729.313 6 128011245.955 6        38.900    24359736.766 6  99749048.38946
        23.200    24359736.40646  24359732.648 1  95592828.86311        30.600
  22583506.297 8 118677137.182 8        45.600                    92475713.77948
        33.100    22583509.35248
  22217846.250 8 116755583.485 8        45.600    22217850.648 8  90978395.35749
        35.600    22217850.23049  22217851.188 5  87187622.523 5        37.100
  22815516.938 7 119896410.847 7        44.300                    93425746.42448
        32.800    22815520.25048
  25135019.789 3 132085408.542 3        33.700    25135023.434 2 102923692.97343
        13.900    25135023.69543
  25004181.820 5 131397870.098 5        37.700    25004183.930 3 102387965.94747
        27.700    25004183.15647
  25154083.258 4 132185583.686 4        34.100    25154091.332 6 103001804.22147
        29.100    25154091.22747
  21114362.844 9 110956759.688 9        49.600    21114370.711 9  86459831.20349
        53.700    21114369.00049  21114365.535 7  82857325.384 7        41.500
  24816491.742 5 130411552.964 5        37.700    24816495.711 6 101619403.76945
        19.600    24816495.42645
  20242507.516 9 106375120.835 9        52.400    20242513.785 9  82889735.64849
        54.900    20242513.19949  20242509.461 7  79435988.236 7        44.000
  22271731.648 8 117038746.801 8        45.800                    91199054.14848
        32.500    22271734.79748
  20933001.188 9 110003674.060 9        52.900    20933007.176 9  85717222.77749
        54.900    20933006.98849  20933002.648 7  82145575.712 7        41.700
 21  1  2  0 38  0.0000000  0 11G32G01G21G23G16G26G08G18G27G20G10
  24876864.328 6 130728789.936 6        39.800    24876870.449 5 101866616.78448
        33.300    24876868.85248
  24340477.375 5 127910083.715 5        35.100    24340485.746 5  99670220.74045
        19.000    24340485.58245  24340481.922 2  95517285.776 2        31.000
  22571577.172 8 118614449.204 8        46.100                    92426866.04748
        33.200    22571580.35548
  22231634.969 8 116828041.920 8        46.000    22231639.105 8  91034856.46249
        35.800    22231638.57049  22231639.422 5  87241731.094 5        37.300
  22835014.750 7 119998873.687 7        44.600                    93505587.58148
        32.600    22835018.37548
  25175338.852 5 132297278.170 5        35.400    25175346.660 5 103088838.79147
        29.600    25175345.94147
  21103567.016 9 110900022.863 9        50.300    21103573.828 9  86415620.70149
        54.100    21103572.52349  21103569.484 7  82814956.984 7        41.300
  24835015.070 5 130508904.409 5        36.200    24835021.512 6 101695262.03746
        20.100    24835020.55146
  20245830.953 9 106392586.230 9        51.900    20245837.344 9  82903345.03749
        55.000    20245836.87149  20245833.027 7  79449030.570 7        43.300
  22286314.555 7 117115378.831 7        44.400                    91258767.41548
        32.800    22286317.67248
  20934919.484 9 110013754.840 9        52.300    20934925.492 9  85725077.94749
        55.000    20934925.27049  20934920.746 7  82153103.575 7        41.600
 21  1  2  0 38 30.0000000  0 11G32G01G21G23G16G26G08G18G27G20G10
  24859383.289 6 130636930.229 6        40.300    24859390.305 6 101795037.82748
        33.400    24859389.25448
  24321247.508 6 127809025.405 6        38.500    24321256.055 6  99591474.03246
        21.800    24321254.76646  24321250.543 1  95441820.22211        29.500
  22559688.297 8 118551972.082 8        46.900                    92378182.60349
        34.100    22559691.40249
  22245502.344 8 116900918.408 8        45.200    22245506.863 8  91091643.33549
        34.900    22245506.25849  22245506.953 5  87296151.827 5        36.500
  22854560.852 7 120101585.298 7        44.600                    93585622.60448
        33.100    22854563.68448
  25196585.781 6 132408926.670 6        39.400    25196591.484 4 103175837.72648
        30.700    25196591.55548
  21092832.820 9 110843616.288 9        50.300    21092839.816 9  86371667.53949
        54.100    21092838.82449  21092835.637 7  82772835.218 7        41.300
  24853541.609 5 130606258.911 5        37.500    24853547.152 5 101771122.66845
        17.800    24853545.70745
  20249240.289 9 106410501.493 9        51.800    20249246.598 9  82917304.97949
        55.100    20249245.96149  20249242.266 7  79462408.842 7        43.600
  22300966.445 8 117192373.056 8        45.100                    91318762.91148
        32.600    22300968.94948
  20936945.563 9 110024400.140 9        53.800    20936951.414 9  85733372.99049
        54.900    20936951.15649  20936946.367 7  82161053.014 7        41.400
 21  1  2  0 39  0.0000000  0 11G32G01G21G23G16G26G08G18G27G20G10
  24841910.688 6 130545113.220 6        38.200    24841918.086 5 101723492.11048
        33.200    24841916.77748
  24302036.766 5 127708071.633 5        37.800    24302044.684 6  99512808.84646
        22.000    24302044.09046  24302039.930 1  95366432.68811        30.500
  22547839.836 8 118489705.856 8        46.600                    92329663.47648
        33.600    22547842.17648
  22259449.438 8 116974210.573 8        46.000    22259454.074 8  91148754.11749
        36.000    22259453.38749  22259453.973 5  87350882.997 5        36.600
  22874152.828 7 120204543.751 7        44.500                    93665849.95648
        32.300    22874155.98048
  25217821.844 4 132520527.173 4        34.200    25217829.059 5 103262799.13647
        28.700    25217828.63347
  21082162.469 9 110787542.334 9        50.400    21082169.594 9  86327973.55749
        54.100    21082168.16049  21082164.762 7  82730961.823 7        41.400
  24872068.742 5 130703615.622 5        36.100    24872072.395 5 101846985.02645
        17.800    24872072.24245
  20252735.023 9 106428866.897 9        51.100    20252741.340 9  82931615.67349
        55.000    20252740.64149  20252737.156 7  79476123.253 7        43.500
  22315685.547 7 117269726.804 7        44.300                    91379038.54948
        31.400    22315688.71948
  20939078.219 9 110035609.244 9        53.400    20939084.414 9  85742107.37149
        55.000    20939084.26649  20939079.145 6  82169423.459 6        40.800
 21  1  2  0 39 30.0000000  0 11G32G01G21G23G16G26G08G18G27G20G10
  24824446.625 6 130453341.779 6        39.200    24824454.344 6 101651981.88148
        33.300    24824452.84448
  24282846.125 6 127607223.321 6        39.100    24282853.852 6  99434225.81146
        23.900    24282853.69546  24282848.984 1  95291124.00511        30.300
  22536030.820 8 118427650.452 8        47.800                    92281308.60549
        34.800    22536033.64849
  22273475.344 8 117047915.830 8        45.500    22273479.773 8  91206186.78349
        35.700    22273479.28549  22273480.309 5  87405922.669 5        36.400
  22893791.484 7 120307745.670 7        44.800                    93746267.03248
        33.600    22893794.80548
  25239049.102 5 132632077.322 5        36.300    25239056.512 5 103349721.20647
        29.400    25239055.98447
  21071555.477 9 110731802.095 9        50.300    21071562.324 9  86284539.60949
        54.100    21071561.21949  21071557.496 7  82689337.633 7        41.000
  24890594.984 5 130800973.663 5        35.900    24890599.645 5 101922848.45545
        16.300    24890598.50045
  20256315.539 9 106447682.592 9        51.500    20256321.859 9  82946277.24949
        55.000    20256321.24249  20256317.648 7  79490173.935 7        43.200
  22330473.555 7 117347437.868 7        43.800                    91439592.61848
        32.400    22330476.99648
  20941318.305 9 110047381.355 9        52.800    20941324.492 9  85751280.45549
        54.900    20941324.27349  20941319.516 7  82178214.332 7        41.400
 21  1  2  0 40  0.0000000  0 11G32G01G21G23G16G26G08G18G27G20G10
  24806991.969 6 130361618.826 6        38.600    24806999.738 6 101580509.41848
        33.900    24806999.53148
  24263675.188 6 127506481.346 6        38.000    24263683.969 6  99355725.62446
        22.600    24263683.23046  24263678.547 1  95215894.64611        30.400
  22524261.961 8 118365805.881 8        46.600                    92233118.04649
        34.400    22524265.06649
  22287578.922 8 117122031.768 8        45.400    22287583.934 8  91263939.45749
        35.100    22287583.16049  22287584.383 5  87461268.955 5        37.300
  22913476.203 8 120411188.751 8        45.200                    93826872.03448
        33.200    22913479.19148
  25260266.297 5 132743574.401 5        36.000    25260272.652 4 103436602.22347
        28.100    25260272.01647
  21061011.859 9 110676396.971 9        50.300    21061019.168 9  86241366.79249
        54.100    21061017.96149  21061014.379 6  82647963.675 6        40.600
  24909121.688 5 130898332.114 5        35.300    24909126.984 5 101998712.20645
        17.800    24909126.43845
  20259981.961 9 106466948.744 9        51.900    20259987.988 9  82961289.83049
        54.900    20259987.45749  20259983.832 7  79504560.993 7        43.400
  22345329.445 7 117425503.907 7        44.500                    91500423.28448
        32.400    22345332.10948
  20943665.313 9 110059715.665 9        52.400    20943671.652 9  85760891.61149
        55.000    20943671.55549  20943666.809 7  82187425.018 7        41.300
 21  1  2  0 40 30.0000000  0 11G32G01G21G23G16G26G08G18G27G20G10
  24789549.383 6 130269947.357 6        40.300    24789554.926 6 101509077.15548
        33.400    24789554.85248
  24244524.289 5 127405846.571 5        36.300    24244532.609 6  99277309.01046
        20.100    24244532.89846  24244528.008 1  95140745.343 1        30.500
  22512533.461 8 118304172.603 8        46.300                    92185092.13148
        33.900    22512536.51248
  22301760.438 8 117196556.116 8        45.200    22301765.145 8  91322010.37249
        34.900    22301764.34049  22301765.457 5  87516920.263 5        36.700
  22933206.156 7 120514870.534 7        44.300                    93907663.02348
        32.400    22933209.15248
  25281472.945 5 132855016.877 5        35.300    25281479.926 5 103523440.44747
        28.300    25281479.38747
  21050533.039 9 110621329.525 9        51.000    21050539.996 9  86198457.09749
        54.300    21050539.00849  21050535.141 7  82606841.897 7        41.000
  24927648.359 5 130995690.511 5        35.100    24927653.730 6 102074575.86245
        18.300    24927652.63745
  20263734.117 9 106486665.840 9        52.500    20263740.387 9  82976653.79349
        54.900    20263739.59849  20263735.941 7  79519284.804 7        43.200
  22360252.203 8 117503922.830 8        45.200                    91561528.93948
        32.000    22360254.70748
  20946119.203 9 110072611.604 9        52.700    20946125.574 9  85770940.40549
        55.100    20946125.50449  20946120.617 7  82197055.122 7        41.400
 21  1  2  0 41  0.0000000  0 11G32G01G21G23G16G26G08G18G27G20G10
  24772115.969 6 130178330.138 6        40.300    24772120.594 6 101437687.15149
        34.000    24772119.94549
  24225394.523 5 127305319.694 5        37.600    24225402.727 6  99198976.40046
        21.700    24225402.45346  24225398.422 1  95065676.696 1        30.600
  22500844.969 8 118242750.423 8        45.700                    92137230.74648
        33.400    22500848.24248
  22316019.352 8 117271486.154 8        45.500    22316023.883 8  91380397.42149
        34.400    22316023.16849  22316024.113 5  87572874.494 5        36.600
  22952980.531 8 120618787.757 8        45.000                    93988637.47148
        31.900    22952984.22348
  25302667.633 3 132966401.79413        33.900    25302675.691 5 103610233.89457
        27.400    25302674.86747
  21040118.523 9 110566600.984 9        50.000    21040125.879 9  86155811.48249
        54.400    21040124.59849  21040120.750 7  82565973.185 7        41.100
  24946175.008 5 131093047.763 5        36.400    24946179.672 5 102150438.60845
        18.300    24946179.66845
  20267571.938 9 106506833.732 9        52.000    20267577.887 9  82992369.03049
        55.000    20267577.58249  20267573.652 7  79534345.220 7        43.100
  22375241.016 7 117582691.945 7        44.100                    91622907.45248
        32.000    22375244.23448
  20948680.008 9 110086068.132 9        51.800    20948686.133 9  85781426.02049
        54.900    20948686.17249  20948681.406 7  82207103.832 7        41.300
 21  1  2  0 41 30.0000000  0 11G32G01G21G23G16G26G08G18G27G20G10
  24754692.578 6 130086770.175 6        40.200    24754698.227 6 101366341.72949
        34.000    24754697.70349
  24206285.852 5 127204901.582 5        35.200    24206293.738 6  99120728.58546
        20.400    24206293.73846  24206289.477 1  94990689.30211        30.800
  22489197.102 8 118181539.694 8        46.400                    92089534.08349
        34.000    22489200.12149
  22330354.867 8 117346819.480 8        45.600    22330359.227 8  91439098.71249
        35.100    22330358.69949  22330359.250 5  87629129.893 5        36.900
  22972799.992 8 120722937.849 8        45.700                    94069793.37248
        32.900    22972803.23048
  25323853.063 5 133077727.096 5        35.600    25323859.367 4 103696980.86347
        26.700    25323859.40247
  21029768.828 9 110512213.025 9        50.000    21029775.984 9  86113431.25749
        54.600    21029775.09049  21029771.078 6  82525358.792 6        40.900
  24964701.367 5 131190403.018 5        36.500    24964706.051 6 102226299.87346
        20.100    24964705.74646
  20271495.422 9 106527452.658 9        51.900    20271501.520 9  83008435.71149
        55.000    20271501.06649  20271497.570 7  79549742.442 7        43.900
  22390296.484 7 117661809.156 7        44.300                    91684557.22748
        31.600    22390299.72348
  20951347.000 9 110100084.407 9        52.400    20951353.578 9  85792347.79349
        54.900    20951353.12949  20951348.289 7  82217570.545 7        41.200
 21  1  2  0 42  0.0000000  0 11G32G01G21G23G16G26G08G18G27G20G10
  24737279.734 6 129995270.765 6        40.400    24737285.895 6 101295043.47749
        34.700    24737285.97749
  24187198.266 5 127104593.497 5        37.600    24187206.215 6  99042566.52346
        21.300    24187205.79746  24187201.453 1  94915783.93911        30.300
  22477588.930 8 118120540.493 8        46.100                    92042002.27248
        33.500    22477592.57048
  22344766.617 8 117422554.000 8        45.000    22344771.145 8  91498112.61849
        34.700    22344770.60249  22344771.070 5  87685684.893 5        36.700
  22992662.961 7 120827318.299 7        44.500                    94151128.79648
        32.800    22992666.30948
  25345025.977 5 133188990.78715        36.400    25345033.082 5 103783679.86257
        26.400    25345032.91847
  21019484.813 9 110458167.690 9        49.800    21019491.590 9  86071318.01649
        54.600    21019490.47349  21019486.617 7  82485000.304 7        41.000
  24983226.992 5 131287755.914 5        35.700    24983231.883 5 102302159.30745
        19.000    24983230.97745
  20275505.039 9 106548523.227 9        52.400    20275511.453 9  83024854.32649
        55.000    20275510.60549  20275506.883 7  79565476.952 7        43.000
  22405417.914 7 117741271.916 7        43.600                    91746476.25848
        32.100    22405421.26648
  20954120.875 9 110114660.050 9        53.400    20954127.176 9  85803705.44549
        54.900    20954126.86749  20954122.176 7  82228454.975 7        41.200
 21  1  2  0 42 30.0000000  0 10G32G01G21G23G16G08G18G27G20G10
  24719879.117 6 129903834.241 6        39.000    24719886.270 6 101223794.23248
        32.900    24719885.35548
  24168131.344 6 127004395.716 6        38.700    24168139.719 6  98964490.34946
        24.900    24168139.46946  24168134.273 1  94840960.91611        29.200
  22466021.688 8 118059752.860 8        46.300                    91994635.29349
        34.000    22466024.75049
  22359254.016 7 117498686.635 7        44.900    22359258.641 8  91557436.74749
        34.200    22359257.77049  22359258.668 5  87742537.194 5        36.600
  23012569.023 8 120931925.950 8        45.300                    94232641.24448
        32.600    23012572.59048
  21009265.414 9 110404466.639 9        49.700    21009272.742 9  86029473.05649
        54.500    21009271.41449  21009267.641 7  82444898.861 7        41.000
  25001751.992 5 131385105.107 5        36.600    25001757.238 6 102378015.84345
        19.000    25001756.70345
  20279600.688 9 106570044.965 9        52.500    20279606.727 9  83041624.49749
        54.900    20279606.08649  20279602.363 7  79581548.376 7        43.300
  22420604.938 7 117821078.174 7        44.100                    91808662.95848
        31.600    22420607.39548
  20957000.648 9 110129793.557 9        52.900    20957007.098 9  85815497.80249
        55.000    20957006.64549  20957001.910 7  82239755.964 7        41.600
 21  1  2  0 43  0.0000000  0 10G32G01G21G23G16G08G18G27G20G10
  24702491.406 5 129812463.750 5        37.100    24702499.480 6 101152596.46748
        33.000    24702498.72348
  24149085.180 5 126904309.131 5        36.700    24149092.684 6  98886500.84846
        21.700    24149092.48846  24149088.695 1  94766220.97511        30.700
  22454494.609 8 117999176.903 8        47.000                    91947433.27348
        33.400    22454497.43048
  22373816.398 7 117575215.065 7        44.800    22373821.539 8  91617069.28949
        34.500    22373820.99649  22373821.582 5  87799685.012 5        36.800
  23032517.414 7 121036757.779 7        44.100                    94314328.36948
        32.000    23032521.53948
  20999112.297 9 110351110.935 9        51.200    20999119.262 9  85987897.18649
        54.700    20999118.27049  20999114.160 7  82405055.315 7        41.500
  25020276.039 4 131482449.827 4        34.400    25020280.578 5 102453868.91245
        17.400    25020279.62545
  20283781.813 9 106592018.198 9        51.300    20283788.078 9  83058746.49049
        54.900    20283787.39849  20283783.648 7  79597956.946 7        43.200
  22435856.203 7 117901225.147 7        43.800                    91871115.14748
        31.500    22435859.10248
  20959986.703 9 110145484.206 9        53.600    20959992.895 9  85827724.28849
        55.000    20959992.36349  20959987.738 6  82251473.020 6        40.800
 21  1  2  0 43 30.0000000  0 10G32G01G21G23G16G08G18G27G20G10
  24685118.227 6 129721162.451 6        38.700    24685125.074 5 101081452.60249
        34.200    24685123.93449
  24130060.484 5 126804334.802 5        36.600    24130069.117 6  98808598.81646
        21.700    24130068.43846  24130063.645 2  94691564.94512        31.800
  22443007.820 8 117938812.801 8        46.100                    91900396.33349
        34.000    22443010.28949
  22388454.664 8 117652137.071 8        45.300    22388459.566 8  91677008.50449
        34.400    22388458.70349  22388459.285 5  87857126.775 5        36.000
  23052508.922 7 121141812.528 7        43.600                    94396189.20248
        31.600    23052512.52348
  20989025.094 9 110298102.772 9        50.700    20989031.895 9  85946592.12449
        54.600    20989031.08249  20989027.512 7  82365471.314 7        41.400
  25038798.492 5 131579789.736 5        36.300    25038803.891 6 102529718.14946
        20.400    25038803.92246
  20288049.063 9 106614443.331 9        52.300    20288055.398 9  83076220.62049
        55.000    20288054.77049  20288051.215 7  79614702.997 7        43.100
  22451171.984 7 117981710.697 7        43.200                    91933831.16148
        31.600    22451175.03948
  20963078.602 9 110161731.340 9        53.500    20963084.512 9  85840384.41149
        55.100    20963084.18849  20963079.664 7  82263605.628 7        41.100
 21  1  2  0 44  0.0000000  0 10G32G01G21G23G16G08G18G27G20G10
  24667759.469 6 129629933.132 6        40.400    24667764.656 6 101010364.84349
        34.400    24667763.80149
  24111057.813 5 126704473.553 5        37.700    24111065.797 6  98730784.85846
        21.300    24111065.45346  24111061.684 3  94616993.25713        32.300
  22431561.070 8 117878660.413 8        47.300                    91853524.35649
        34.600    22431563.83249
  22403167.000 8 117729449.968 8        45.200    22403171.488 8  91737252.31448
        33.400    22403170.68448  22403171.172 5  87914860.433 5        36.700
  23072542.188 7 121247086.664 7        44.000                    94478220.99748
        31.900    23072545.47748
  20979004.430 9 110245444.161 9        50.100    20979011.254 9  85905559.44049
        54.600    20979010.44949  20979006.707 7  82326148.326 7        41.100
  25057320.289 5 131677123.781 5        37.000    25057325.547 6 102605562.83445
        19.900    25057325.89545
  20292402.703 9 106637320.283 9        51.700    20292408.664 9  83094046.80449
        54.900    20292408.12149  20292404.672 7  79631786.415 7        43.900
  22466551.781 7 118062532.729 7        43.500                    91996809.34948
        31.900    22466554.82448
  20966275.852 9 110178533.871 9        53.600    20966281.941 9  85853477.31049
        54.900    20966281.64849  20966276.766 7  82276152.999 7        41.200
 21  1  2  0 44 30.0000000  0 10G32G01G21G23G16G08G18G27G20G10
  24650412.766 6 129538778.775 6        40.400    24650418.895 6 100939335.45049
        34.000    24650417.57449
  24092077.109 5 126604726.147 5        37.700    24092084.875 6  98653059.65846
        23.400    24092084.28546  24092079.551 1  94542506.579 1        30.500
  22420154.625 8 117818719.988 8        47.100                    91806817.55149
        34.400    22420157.98849
  22417953.008 7 117807151.222 7        44.800    22417957.422 8  91797798.74348
        33.300    22417956.64148  22417957.668 5  87972884.114 5        36.100
  23092616.664 7 121352576.945 7        43.900                    94560421.19948
        32.100    23092619.67648
  20969050.719 9 110193136.113 9        51.100    20969057.832 9  85864799.93049
        54.600    20969056.55549  20969052.801 7  82287087.122 7        41.000
  25075842.789 6 131774451.232 6        38.300    25075846.559 6 102681402.38745
        19.600    25075846.43445
  20296841.742 9 106660649.170 9        51.300    20296848.266 9  83112225.15449
        54.900    20296847.53149  20296843.957 7  79649207.328 7        43.200
  22481995.125 7 118143688.671 7        43.700                    92060047.73948
        31.100    22481998.51648
  20969578.898 9 110195890.833 9        52.300    20969584.746 9  85867002.22149
        54.900    20969584.35949  20969579.801 7  82289114.384 7        41.300
 21  1  2  0 45  0.0000000  0 10G32G01G21G23G16G08G18G27G20G10
  24633080.141 6 129447702.079 6        39.800    24633087.449 6 100868366.60148
        33.900    24633086.71948
  24073115.602 5 126505093.198 5        36.300    24073124.934 6  98575423.67546
        22.200    24073124.80946  24073119.730 1  94468105.320 1        29.700
  22408788.563 8 117758991.224 8        46.600                    91760275.67849
        34.200    22408791.85549
  22432812.359 8 117885238.182 8        45.200    22432817.047 8  91858645.73049
        34.400    22432816.41849  22432816.992 5  88031195.766 5        36.500
  23112731.297 7 121458281.168 7        43.900                    94642788.12048
        32.100    23112734.59448
  20959163.750 9 110141180.321 9        50.700    20959170.770 9  85824314.90249
        54.700    20959169.54749  20959165.711 7  82248288.959 7        41.400
  25094360.898 5 131871771.102 5        35.400    25094365.770 5 102757236.06945
        17.800    25094365.58645
  20301367.234 9 106684429.880 9        52.100    20301373.398 9  83130755.56749
        55.000    20301372.81349  20301369.191 7  79666965.645 7        43.900
  22497501.445 7 118225176.080 7        43.000                    92123544.40747
        29.900    22497504.98047
  20972987.000 9 110213801.062 9        52.800    20972992.910 9  85880958.25549
        54.900    20972992.63749  20972987.906 7  82302488.916 7        41.400
 21  1  2  0 45 30.0000000  0 10G32G01G21G23G16G08G18G27G20G10
  24615763.961 6 129356706.501 6        39.100    24615771.395 6 100797460.98249
        34.100    24615770.69549
  24054178.906 5 126405575.979 5        37.100    24054187.043 6  98497877.80346
        21.500    24054186.52046  24054182.953 3  94393790.661 3        32.400
  22397463.477 8 117699474.966 8        47.800                    91713899.38449
        35.000    22397466.03149
  22447744.938 8 117963708.774 8        45.000    22447749.195 8  91919791.64949
        34.400    22447748.66049  22447749.500 5  88089793.934 5        35.900
  23132886.430 7 121564196.698 7        43.400                    94725319.68648
        31.600    23132889.32848
  20949344.305 9 110089579.082 9        51.600    20949351.332 9  85784106.14049
        54.700    20949349.83649  20949346.488 7  82209755.593 7        41.700
  25112880.609 5 131969083.030 5        37.600    25112883.465 4 102833063.58445
        17.800    25112882.51245
  20305978.656 9 106708663.002 9        51.200    20305984.906 9  83149638.51849
        55.100    20305984.37149  20305980.699 7  79685061.804 7        43.200
  22513070.727 7 118306992.836 7        43.600                    92187297.73448
        30.900    22513074.02748
  20976500.273 9 110232264.095 9        52.500    20976506.078 9  85895345.04249
        55.000    20976506.20749  20976501.238 7  82316276.243 7        41.300
 21  1  2  0 46  0.0000000  0  9G32G01G21G23G16G08G27G20G10
  24598464.617 6 129265795.062 6        39.600    24598471.316 6 100726620.91949
        34.300    24598470.72349
  24035264.078 5 126306175.521 5        37.900    24035271.711 6  98420422.91047
        25.300    24035271.60547  24035267.813 2  94319563.046 2        31.400
  22386178.227 8 117640171.390 8        46.700                    91667688.79949
        35.000    22386180.98449
  22462749.383 7 118042560.599 7        43.900    22462754.699 8  91981234.62148
        33.800    22462753.64548  22462754.176 5  88148676.795 5        35.600
  23153080.836 7 121670321.038 7        43.800                    94808013.97748
        31.500    23153084.00848
  20939593.031 9 110038334.136 9        51.400    20939599.680 9  85744175.00949
        54.700    20939598.34049  20939594.742 7  82171488.250 7        41.100
  20310676.219 9 106733348.675 9        51.400    20310682.445 9  83168874.09649
        54.900    20310681.90249  20310677.988 7  79703495.906 7        43.400
  22528702.422 7 118389136.528 7        43.300                    92251305.80748
        31.700    22528705.92248
  20980118.477 9 110251278.953 9        52.500    20980124.855 9  85910161.81649
        54.900    20980124.57849  20980119.730 6  82330475.645 6        40.900
 21  1  2  0 46 30.0000000  0  9G32G01G21G23G16G08G27G20G10
  24581181.109 6 129174970.121 6        38.800    24581188.117 6 100655848.23149
        34.800    24581187.39849
  24016370.680 5 126206891.861 5        36.800    24016379.023 6  98343059.11646
        22.300    24016378.37146  24016373.098 1  94245422.720 1        29.400
  22374932.805 8 117581079.617 8        47.100                    91621643.29649
        34.700    22374936.66449
  22477826.758 8 118121790.479 8        45.000    22477831.891 8  92042972.17549
        34.000    22477831.07849  22477831.305 5  88207841.950 5        36.100
  23173315.008 7 121776650.075 7        44.000                    94890867.75848
        31.900    23173317.92248
  20929908.805 9 109987445.886 9        51.300    20929915.852 9  85704521.83149
        55.000    20929914.66049  20929910.871 7  82133487.274 7        41.400
  20315459.500 9 106758486.308 9        51.200    20315465.938 9  83188461.85749
        55.000    20315465.38349  20315461.680 7  79722267.506 7        43.500
  22544395.531 7 118471604.568 7        42.600                    92315566.58848
        30.700    22544398.78148
  20983841.680 9 110270843.977 9        51.900    20983847.590 9  85925407.29849
        55.000    20983847.85949  20983843.059 7  82345085.919 7        41.500
 21  1  2  0 47  0.0000000  0  9G32G01G21G23G16G08G27G20G10
  24563915.125 6 129084234.872 6        38.500    24563921.633 6 100585145.45348
        33.600    24563920.25048
  23997500.367 5 126107726.07215        37.700    23997507.699 6  98265787.17056
        21.100    23997508.12146  23997503.129 1  94171370.46311        30.400
  22363728.469 8 117522200.485 8        46.500                    91575763.48549
        34.600    22363732.06649
  22492975.672 7 118201396.146 7        44.500    22492979.992 8  92105002.55748
        33.900    22492979.39548  22492980.422 5  88267287.776 5        36.700
  23193586.953 7 121883182.561 7        43.400                    94973880.07448
        30.300    23193590.55948
  20920293.711 9 109936917.135 9        50.900    20920301.004 9  85665148.77749
        55.200    20920299.74249  20920295.793 7  82095754.788 7        41.400
  20320329.531 9 106784076.177 9        51.200    20320335.746 9  83208402.01249
        54.900    20320334.87949  20320331.277 7  79741376.827 7        43.500
  22560150.203 7 118554394.684 7        43.800                    92380078.36448
        30.400    22560153.30148
  20987669.242 9 110290958.375 9        52.300    20987675.555 9  85941080.86349
        54.900    20987675.46549  20987670.762 7  82360106.408 7        41.200
 21  1  2  0 47 30.0000000  0  9G32G01G21G23G16G08G27G20G10
  24546665.781 6 128993592.233 6        38.300    24546673.445 6 100514514.83548
        33.900    24546671.56648
  23978652.984 6 126008679.07316        39.700    23978659.789 6  98188607.66756
        24.600    23978659.32846  23978654.430 1  94097406.79411        30.400
  22352564.617 8 117463533.674 8        46.700                    91530049.10949
        34.700    22352567.81649
  22508194.773 7 118281375.019 7        44.500    22508199.168 7  92167323.76348
        33.200    22508198.80948  22508199.652 5  88327012.246 5        36.600
  23213897.578 7 121989915.514 7        44.200                    95057048.60648
        30.000    23213901.06348
  20910746.984 9 109886749.382 9        51.600    20910754.262 9  85626057.02249
        55.000    20910753.11349  20910749.262 7  82058291.827 7        41.000
  20325284.836 9 106810118.388 9        52.200    20325291.172 9  83228694.62149
        55.100    20325290.65249  20325287.047 7  79760823.898 7        43.700
  22575965.633 7 118637504.457 7        43.200                    92444839.22648
        30.500    22575968.33248
  20991601.023 9 110311621.043 9        53.000    20991607.355 9  85957181.64949
        54.900    20991607.18849  20991602.586 7  82375536.337 7        42.000
 21  1  2  0 48  0.0000000  0  9G32G01G21G23G16G08G27G20G10
  24529436.148 6 128903045.101 6        38.700    24529442.648 6 100443958.64549
        35.400    24529441.76249
  23959825.961 6 125909751.495 6        38.300    23959834.523 6  98111521.26346
        21.500    23959834.23846  23959830.305 2  94023532.320 2        31.300
  22341441.078 8 117405079.129 8        45.600                    91484500.14149
        34.800    22341444.41049
  22523484.992 7 118361724.491 7        44.300    22523489.352 8  92229933.74148
        33.600    22523488.88348  22523489.402 5  88387013.449 5        35.800
  23234246.023 8 122096845.543 8        45.500                    95140370.70348
        31.500    23234249.41448
  20901269.680 9 109836943.933 9        51.600    20901276.410 9  85587247.57849
        55.000    20901275.23049  20901271.547 7  82021099.459 7        42.100
  20330326.711 9 106836612.747 9        51.600    20330332.973 9  83249339.56649
        55.000    20330332.41449  20330328.680 7  79780608.651 7        42.900
  22591840.734 7 118720931.385 7        42.500                    92509847.21247
        29.700    22591843.84447
  20995637.578 9 110332830.774 9        52.600    20995643.387 9  85973708.72749
        54.900    20995643.44949  20995638.398 6  82391374.803 6        40.800
 21  1  2  0 48 30.0000000  0  9G32G01G21G23G16G08G27G20G10
  24512224.227 6 128812596.697 6        39.800    24512230.594 6 100373479.36449
        35.100    24512230.69949
  23941023.172 4 125810944.265 4        34.400    23941032.641 6  98034528.73446
        21.500    23941032.36746  23941027.465 1  93949747.875 1        30.600
  22330357.945 8 117346837.119 8        46.700                    91439116.78849
        35.000    22330361.40249
  22538844.430 7 118442442.269 7        43.700    22538849.410 8  92292830.70948
        33.300    22538848.83648  22538849.871 5  88447289.742 5        36.100
  23254630.992 7 122203970.142 7        44.500                    95223844.40448
        30.400    23254634.60248
  20891861.352 9 109787502.941 9        51.300    20891868.281 9  85548722.13549
        55.200    20891866.99249  20891863.238 6  81984179.266 6        40.900
  20335454.367 9 106863559.591 9        51.900    20335460.820 9  83270337.08649
        55.000    20335460.23849  20335456.523 7  79800731.250 7        43.300
  22607775.742 7 118804673.498 7        41.800                    92575100.78848
        30.200    22607779.69548
  20999777.500 9 110354586.799 9        52.700    20999783.570 9  85990661.47749
        54.900    20999783.26649  20999778.688 6  82407621.166 6        40.600
 21  1  2  0 49  0.0000000  0  9G32G01G21G23G16G08G27G20G10
  24495031.102 6 128722250.454 6        38.400    24495038.543 6 100303079.71049
        34.300    24495037.41849
  23922245.219 6 125712258.93116        38.400    23922253.480 6  97957631.09356
        24.700    23922252.28946  23922248.227 2  93876054.278 2        31.000
  22319315.914 8 117288808.302 8        46.400                    91393899.57149
        35.500    22319318.93049
  22554274.641 7 118523526.310 7        43.800    22554279.332 8  92356013.06848
        33.600    22554278.93848  22554279.219 5  88507839.498 5        35.900
  23275052.875 7 122311287.078 7        44.000                    95307467.96948
        30.600    23275056.07848
  20882522.664 9 109738428.307 9        51.500    20882529.469 9  85510482.15049
        55.500    20882528.45349  20882524.590 7  81947532.602 7        42.000
  20340668.430 9 106890959.399 9        51.100    20340674.887 9  83291687.57549
        55.000    20340674.13349  20340670.797 7  79821192.146 7        43.300
  22623771.609 7 118888728.345 7        43.100                    92640598.07048
        30.000    22623774.86348
  21004021.273 9 110376888.399 9        53.200    21004027.332 9  86008039.35549
        54.900    21004027.20749  21004022.453 7  82424274.981 7        41.400
 21  1  2  0 49 30.0000000  0  9G32G01G21G23G16G08G27G20G10
  24477859.320 6 128632008.473 6        39.500    24477865.758 6 100232761.29749
        34.200    24477864.35249
  23903489.117 5 125613695.355 5        37.900    23903497.301 6  97880828.33646
        22.500    23903497.02746  23903492.598 3  93802451.636 3        32.100
  22308313.445 8 117230991.645 8        47.200                    91348847.65749
        35.200    22308316.79349
  22569773.172 7 118604973.118 7        43.300    22569778.398 8  92419478.11448
        32.700    22569777.38348  22569778.230 5  88568660.157 5        36.100
  23295510.898 7 122418792.943 7        44.900                    95391238.75948
        30.200    23295513.62548
  20873254.141 9 109689720.780 9        51.400    20873260.801 9  85472528.24149
        55.000    20873259.76649  20873255.805 7  81911160.107 7        41.400
  20345968.656 9 106918811.236 9        51.300    20345974.871 9  83313390.29549
        55.000    20345974.31349  20345970.664 7  79841990.584 7        43.100
  22639825.492 7 118973093.212 7        42.200                    92706336.91647
        29.900    22639829.00447
  21008368.781 9 110399733.564 9        52.500    21008374.758 9  86025840.79449
        54.900    21008374.33649  21008369.738 7  82441334.698 7        41.300
 21  1  2  0 50  0.0000000  0  9G32G01G21G23G16G08G27G20G10
  24460707.648 6 128541873.934 6        39.400    24460714.066 6 100162526.59549
        35.400    24460713.05549
  23884756.313 5 125515254.466 5        37.900    23884764.035 6  97804121.21546
        21.700    23884763.46546  23884760.066 2  93728940.633 2        31.600
  22297352.133 8 117173387.415 8        47.200                    91303961.25949
        35.900    22297354.63749
  22585340.586 7 118686780.476 7        43.600    22585345.387 7  92483224.10048
        32.300    22585344.85248  22585345.691 5  88629750.057 5        35.600
  23316003.297 7 122526485.128 7        44.600                    95475154.75147
        29.800    23316006.84447
  20864055.602 9 109641382.602 9        51.400    20864062.324 9  85434862.13049
        55.000    20864061.32049  20864057.387 7  81875063.425 7        42.100
  20351354.820 9 106947115.374 9        51.700    20351360.684 9  83335445.45049
        55.100    20351360.45749  20351356.703 7  79863126.765 7        43.400
  22655938.828 7 119057766.165 7        42.600                    92772315.84248
        30.200    22655941.42648
  21012819.133 9 110423121.386 9        52.800    21012825.203 9  86044065.08749
        54.900    21012825.09049  21012820.523 6  82458799.628 6        40.900
 21  1  2  0 50 30.0000000  0  9G32G01G21G23G16G08G27G20G10
  24443576.250 6 128451849.994 6        39.800    24443582.402 6 100092378.07949
        35.400    24443582.18849
  23866047.617 5 125416937.231 5        37.500    23866055.055 6  97727510.36846
        21.800    23866054.54746  23866050.918 3  93655521.94613        32.600
  22286431.078 8 117115996.154 8        47.000                    91259240.81249
        35.800    22286433.36349
  22600976.398 7 118768945.871 7        43.400    22600981.125 8  92547249.07548
        32.700    22600980.50848  22600981.227 5  88691107.310 5        35.500
  23336532.086 7 122634361.313 7        44.900                    95559214.09648
        31.200    23336535.57848
  20854927.766 9 109593415.483 9        51.200    20854934.441 9  85397485.16249
        55.300    20854933.44949  20854929.496 7  81839243.819 7        41.700
  20356826.938 9 106975871.842 9        52.200    20356833.234 9  83357853.07349
        55.000    20356832.45749  20356828.953 7  79884600.736 7        43.100
  22672109.344 7 119142744.648 7        43.100                    92838532.83047
        29.700    22672112.31347
  21017372.836 9 110447050.781 9        52.800    21017378.789 9  86062711.37449
        55.000    21017378.66449  21017373.938 6  82476669.012 6        40.900
 21  1  2  0 51  0.0000000  0  9G32G01G21G23G16G08G27G20G10
  24426466.477 6 128361939.637 6        38.900    24426473.254 6 100022318.07149
        35.500    24426472.82849
  23847361.453 5 125318744.563 5        37.500    23847369.082 6  97650996.64046
        21.800    23847369.06646  23847365.648 2  93582196.30112        31.800
  22275549.750 8 117058817.892 8        46.900                    91214686.33049
        35.900    22275552.55149
  22616679.695 7 118851466.842 7        43.300    22616684.496 8  92611551.13948
        33.700    22616684.05948  22616684.809 5  88752730.138 5        36.100
  23357094.578 7 122742418.849 7        44.400                    95643414.77448
        30.600    23357098.02348
  20845870.820 9 109545821.136 9        52.100    20845877.566 9  85360398.66849
        55.300    20845876.46149  20845872.793 7  81803702.584 7        41.300
  20362385.016 9 107005080.722 9        50.700    20362391.324 9  83380613.23149
        54.900    20362390.80149  20362387.309 7  79906412.548 7        43.000
  22688337.992 7 119228026.151 7        42.800                    92904985.93447
        29.500    22688341.19547
  21022029.156 9 110471520.682 9        51.400    21022035.230 9  86081778.83349
        55.000    21022034.92249  21022030.336 7  82494941.979 7        41.100
 21  1  2  0 51 30.0000000  0  9G32G01G21G23G16G08G27G20G10
  24409379.367 6 128272145.920 6        39.200    24409386.566 6  99952348.97449
        34.800    24409385.53949
  23828699.781 5 125220677.287 5        36.700    23828708.520 6  97574580.60046
        22.900    23828708.41846  23828703.918 2  93508964.237 2        31.800
  22264710.008 8 117001852.627 8        47.200                    91170297.81149
        35.800    22264712.80149
  22632450.328 7 118934340.950 7        43.400    22632454.781 8  92676128.34548
        33.500    22632454.12548  22632455.059 5  88814616.608 5        35.700
  23377691.203 7 122850654.667 7        44.600                    95727754.36547
        29.500    23377694.69547
  20836885.016 9 109498601.261 9        51.300    20836891.777 9  85323603.96049
        55.000    20836890.77349  20836887.094 7  81768441.016 7        41.500
  20368029.445 9 107034741.945 9        51.300    20368035.828 9  83403725.86749
        54.900    20368035.02049  20368031.523 7  79928562.155 7        43.000
  22704623.820 7 119313608.403 7        42.700                    92971673.40047
        28.100    22704626.57047
  21026788.227 9 110496529.853 9        52.400    21026794.414 9  86101266.50249
        54.900    21026794.05549  21026789.543 7  82513617.687 7        41.300
 21  1  2  0 52  0.0000000  0  9G32G01G21G23G16G08G27G20G10
  24392316.148 6 128182471.665 6        39.300    24392321.945 6  99882472.94049
        36.000    24392320.99649
  23810061.984 5 125122736.009 5        37.600    23810071.023 6  97498262.74046
        22.800    23810070.19946  23810066.289 3  93435826.316 3        32.600
  22253910.055 8 116945100.088 8        46.400                    91126075.07149
        35.700    22253912.91449
  22648287.133 7 119017565.351 7        44.000    22648291.926 7  92740978.53348
        33.000    22648291.07048  22648292.309 5  88876764.727 5        35.400
  23398321.016 7 122959065.702 7        43.800                    95812230.48447
        29.900    23398324.63747
  20827971.133 9 109451757.013 9        52.200    20827977.902 9  85287101.94649
        55.400    20827976.74249  20827972.836 7  81733459.921 7        41.800
  20373759.641 9 107064855.252 9        50.900    20373766.133 9  83427190.77149
        55.000    20373765.55149  20373761.871 7  79951049.372 7        43.500
  22720966.297 7 119399489.252 7        43.100                    93038593.54547
        29.800    22720969.87947
  21031649.586 9 110522076.864 9        51.800    21031655.895 9  86121173.27149
        55.000    21031655.34049  21031650.934 7  82532694.980 7        41.100
 21  1  2  0 52 30.0000000  0  9G32G01G21G23G16G08G27G20G10
  24375274.461 6 128092920.246 6        40.500    24375280.934 6  99812692.60549
        36.500    24375280.09849
  23791448.977 6 125024921.989 6        38.100    23791457.055 6  97422044.00946
        24.600    23791457.36746  23791452.598 3  93362783.357 3        33.100
  22243151.086 8 116888560.957 8        46.400                    91082018.62149
        35.400    22243154.08649
  22664190.453 7 119101137.919 7        43.700    22664195.051 7  92806100.01548
        32.400    22664194.31648  22664195.508 5  88939172.777 5        35.800
  23418983.688 7 123067649.159 7        43.900                    95896840.96347
        29.000    23418986.84047
  20819128.891 9 109405290.883 9        52.100    20819135.754 9  85250894.58949
        55.500    20819134.67649  20819130.949 7  81698761.186 7        41.300
  20379576.172 9 107095420.969 9        51.200    20379582.668 9  83451008.20249
        55.200    20379582.03949  20379578.672 7  79973874.384 7        43.300
  22737365.078 7 119485666.431 7        42.200                    93105744.58947
        29.600    22737368.95747
  21036613.227 9 110548160.899 9        52.200    21036619.316 9  86141498.50349
        54.900    21036619.23849  21036614.508 7  82552173.327 7        41.500
 21  1  2  0 53  0.0000000  0  9G32G01G21G23G16G08G27G20G10
  24358256.680 6 128003494.013 6        39.800    24358263.727 6  99743009.82549
        35.800    24358263.14549
  23772859.578 5 124927235.345 5        37.700    23772867.840 6  97345924.56446
        22.500    23772867.28146  23772862.637 2  93289835.588 2        31.000
  22232432.070 8 116832234.495 8        46.300                    91038127.88849
        36.000    22232435.12149
  22680159.578 7 119185055.541 7        43.700    22680164.359 7  92871490.36448
        32.300    22680163.58248  22680163.996 5  89001838.508 5        35.100
  23439678.945 7 123176403.060 7        43.600                    95981584.25847
        29.600    23439682.59447
  20810358.602 9 109359203.411 9        51.800    20810365.594 9  85214982.26849
        55.100    20810364.45349  20810360.660 7  81664345.226 7        41.800
  20385478.711 9 107126438.395 9        51.300    20385484.949 9  83475177.61249
        54.900    20385484.48449  20385481.094 7  79997036.759 7        43.800
  22753819.617 7 119572137.026 7        41.400                    93173124.25047
        27.900    22753822.79347
  21041679.094 9 110574780.092 9        52.800    21041684.945 9  86162240.73049
        54.900    21041684.89549  21041679.859 6  82572051.287 6        40.800
 21  1  2  0 53 30.0000000  0  9G32G01G21G23G16G08G27G20G10
  24341262.102 6 127914196.430 6        38.800    24341270.738 6  99673427.31649
        36.100    24341270.18449
  23754294.883 5 124829677.425 5        37.700    23754303.199 6  97269905.44146
        22.600    23754303.23046  23754298.391 3  93216983.926 3        32.100
  22221754.305 8 116776121.366 8        46.600                    90994403.38849
        35.900    22221757.29349
  22696193.867 7 119269316.127 7        42.800    22696198.281 8  92937147.94748
        32.200    22696197.92248  22696198.711 5  89064760.411 5        36.000
  23460405.789 7 123285324.638 7        44.100                    96066458.20147
        29.900    23460409.71547
  20801660.859 9 109313496.959 9        51.600    20801667.781 9  85179366.85649
        54.900    20801666.74249  20801662.949 7  81630213.798 7        41.800
  20391467.242 9 107157907.955 9        51.300    20391473.574 9  83499699.33449
        54.900    20391472.81649  20391469.520 7  80020536.722 7        43.100
  22770330.336 7 119658899.185 7        41.800                    93240731.12447
        29.800    22770333.24247
  21046845.875 9 110601933.674 9        52.500    21046851.910 9  86183399.37349
        54.900    21046852.02749  21046846.816 7  82592328.331 7        41.400
 21  1  2  0 54  0.0000000  0 10G32G01G21G23G16G08G22G27G20G10
  24324296.523 6 127825030.433 6        40.200    24324303.148 6  99603947.33049
        36.400    24324302.07049
  23735754.719 6 124732248.952 6        38.000    23735763.895 7  97193987.15546
        22.900    23735763.26246  23735757.805 3  93144228.85813        32.100
  22211116.836 8 116720221.587 8        46.400                    90950845.13149
        36.400    22211119.90249
  22712292.227 7 119353916.955 7        43.500    22712297.406 8  93003070.66148
        32.300    22712296.74248  22712298.242 5  89127936.333 5        35.500
  23481164.414 7 123394410.664 7        43.600                    96151460.28447
        29.400    23481167.71547
  20793036.164 9 109268173.081 9        52.100    20793042.777 9  85144049.55349
        54.900    20793041.69949  20793038.031 7  81596368.048 7        41.300
  25279040.922 5 132842245.65515        37.800

  20397541.805 9 107189829.402 9        51.100    20397547.887 9  83524573.18049
        55.000    20397547.42249  20397543.902 7  80044374.158 7        42.900
  22786895.445 7 119745950.251 7        41.600                    93308563.11547
        29.100    22786898.80147
  21052114.406 9 110629620.234 9        51.600    21052120.723 9  86204973.32149
        54.900    21052120.34049  21052115.719 7  82613003.351 7        41.400
 21  1  2  0 54 30.0000000  0 10G32G01G21G23G16G08G22G27G20G10
  24307354.461 6 127735999.195 6        40.400    24307360.879 6  99534572.33049
        37.100    24307360.36349
  23717239.531 6 124634950.793 6        39.800    23717248.238 6  97118170.42647
        25.200    23717247.91847  23717243.379 3  93071571.211 3        32.700
  22200520.406 8 116664534.860 8        46.700                    90907452.89949
        36.600    22200523.36749
  22728456.281 7 119438855.662 7        43.200    22728460.414 7  93069256.67248
        32.400    22728459.94548  22728461.469 5  89191364.593 5        35.400
  23501953.469 7 123503658.336 7        43.400                    96236588.35547
        29.200    23501957.52747
  20784484.352 9 109223233.901 9        51.900    20784491.145 9  85109032.00949
        55.200    20784490.25449  20784486.258 7  81562809.575 7        41.700
  25257694.227 6 132730067.537 6        38.100                   103426040.08855
        17.800    25257695.62945
  20403702.195 9 107222202.765 9        51.500    20403708.410 9  83549799.16349
        55.000    20403707.93449  20403704.020 7  80068549.066 7        43.200
  22803515.688 7 119833287.986 7        41.400                    93376618.46947
        28.900    22803518.46547
  21057484.563 9 110657838.551 9        52.300    21057490.680 9  86226961.62649
        55.000    21057490.00849  21057485.316 7  82634075.481 7        41.100
 21  1  2  0 55  0.0000000  0 10G32G01G21G23G16G08G22G27G20G10
  24290437.375 6 127647105.139 6        39.200    24290444.934 6  99465304.20849
        35.800    24290444.38349
  23698748.461 6 124537783.288 6        38.000    23698757.855 6  97042455.47646
        24.100    23698757.14546  23698753.148 3  92999011.09013        32.300
  22189963.797 8 116609061.371 8        46.800                    90864226.82249
        36.500    22189967.04749
  22744682.961 7 119524129.163 7        42.400    22744687.730 8  93135703.52948
        30.900    22744686.82048  22744687.660 5  89255042.825 5        35.600
  23522772.617 7 123613065.415 7        42.200                    96321840.60647
        28.900    23522776.72747
  20776006.375 9 109178680.051 9        51.300    20776013.227 9  85074314.73049
        55.500    20776012.02049  20776008.090 7  81529538.857 7        41.400
  25236357.625 6 132617944.123 6        39.000                   103338671.11246
        24.700    25236359.66446
  20409948.266 9 107255027.336 9        51.200    20409954.844 9  83575376.74449
        55.000    20409954.14549  20409950.426 7  80093060.901 7        42.900
  22820188.922 7 119920909.712 7        41.500                    93444895.13647
        27.100    22820192.30147
  21062955.008 9 110686586.805 9        51.500    21062960.863 9  86249362.87049
        54.900    21062960.69949  21062956.297 7  82655543.348 7        41.300
 21  1  2  0 55 30.0000000  0 10G32G01G21G23G16G08G22G27G20G10
  24273549.148 6 127558351.678 6        40.300    24273555.832 6  99396145.70949
        37.600    24273554.87149
  23680284.703 6 124440747.665 6        38.900    23680292.355 6  96966843.32646
        22.900    23680292.20346  23680287.332 2  92926549.420 2        31.200
  22179448.266 8 116553801.704 8        47.000                    90821167.36549
        36.400    22179451.65649
  22760973.734 7 119609735.347 7        43.200    22760978.223 8  93202409.64448
        31.600    22760977.40648  22760977.781 5  89318969.540 5        35.300
  23543623.039 7 123722628.956 7        42.400                    96407214.76847
        28.500    23543626.13747
  20767601.609 9 109134513.773 9        51.200    20767608.402 9  85039899.44649
        55.900    20767607.32449  20767603.738 7  81496557.532 7        41.300
  25215032.641 5 132505877.179 5        35.900                   103251346.42645
        19.000    25215033.68045
  20416280.727 9 107288303.493 9        51.200    20416287.105 9  83601306.21749
        55.000    20416286.37549  20416282.793 7  80117909.978 7        43.100
  22836916.773 7 120008813.634 7        41.400                    93513391.69747
        28.500    22836920.01647
  21068525.992 9 110715864.155 9        52.100    21068532.148 9  86272176.40049
        55.000    21068532.19149  21068527.254 7  82677406.308 7        41.100
 21  1  2  0 56  0.0000000  0 10G32G01G21G23G16G08G22G27G20G10
  24256687.609 6 127469741.845 6        40.600    24256693.523 6  99327099.09349
        37.500    24256693.12549
  23661843.813 6 124343844.663 6        39.500    23661852.207 6  96891334.52046
        24.000    23661852.00046  23661848.023 3  92854186.851 3        32.500
  22168973.266 8 116498755.123 8        47.000                    90778273.94949
        36.900    22168976.44549
  22777326.961 7 119695671.540 7        43.400    22777331.207 8  93269372.91748
        31.800    22777330.38348  22777331.484 5  89383142.654 5        36.000
  23564501.047 7 123832345.758 7        42.900                    96492708.38047
        28.900    23564504.12947
  20759270.945 9 109090736.630 9        51.300    20759277.984 9  85005787.38549
        55.400    20759276.81649  20759273.016 7  81463866.811 7        42.100
  25193718.148 6 132393869.036 6        40.700                   103164067.10246
        22.000    25193718.32846
  20422698.859 9 107322030.997 9        51.200    20422705.055 9  83627587.38449
        54.900    20422704.46949  20422700.984 7  80143096.090 7        43.500
  22853697.594 7 120096997.080 7        42.000                    93582106.05647
        29.400    22853701.22347
  21074197.750 9 110745669.131 9        51.200    21074203.914 9  86295401.05949
        54.900    21074203.67249  21074199.145 7  82699663.294 7        41.300
 21  1  2  0 56 30.0000000  0 10G32G01G21G23G16G08G22G27G20G10
  24239853.273 7 127381278.688 7        41.000    24239859.621 6  99258166.74749
        37.100    24239858.85549
  23643429.656 6 124247075.193 6        38.900    23643437.453 6  96815929.74546
        22.300    23643436.77046  23643433.074 3  92781923.891 3        32.800
  22158539.008 8 116443922.185 8        47.000                    90735547.00049
        37.400    22158541.82449
  22793741.898 7 119781935.272 7        42.800    22793746.707 7  93336591.40548
        32.400    22793745.64548  22793747.172 5  89447560.374 5        35.400
  23585408.344 7 123942213.326 7        43.000                    96578319.46847
        28.200    23585411.40247
  20751014.898 9 109047350.044 9        51.400    20751021.809 9  84971979.66149
        55.300    20751020.76649  20751016.785 7  81431467.735 7        41.900
  25172413.219 3 132281921.360 3        33.200                   103076835.33445
        19.900    25172417.05545
  20429202.688 9 107356209.698 9        50.600    20429208.898 9  83654220.12749
        54.900    20429208.39849  20429204.969 7  80168619.137 7        42.800
  22870531.469 7 120185457.795 7        42.300                    93651036.48147
        28.900    22870534.32447
  21079969.813 9 110776000.397 9        51.400    21079975.891 9  86319035.81549
        54.900    21079975.38349  21079971.023 7  82722313.259 7        41.300
 21  1  2  0 57  0.0000000  0 10G32G01G21G23G16G08G22G27G20G10
  24223047.461 7 127292964.913 7        41.300    24223054.461 6  99189350.83549
        37.000    24223053.18049
  23625040.922 6 124150439.695 6        39.500    23625048.328 6  96740629.36246
        24.700    23625048.01646  23625043.715 3  92709761.03513        32.200
  22148145.648 8 116389302.510 8        47.200                    90692986.23749
        37.000    22148147.91449
  22810218.922 7 119868523.738 7        42.800    22810223.895 7  93404062.93548
        31.500    22810222.97748  22810224.070 5  89512220.642 5        35.300
  23606343.461 7 124052229.577 7        42.700                    96664046.39247
        29.600    23606346.91047
  20742833.242 9 109004355.726 9        51.100    20742840.043 9  84938477.60849
        55.000    20742839.14849  20742835.570 7  81399361.599 7        42.100
  25151124.156 7 132170036.074 7        42.200                   102989651.99147
        25.900    25151125.54347
  20435792.594 9 107390839.146 9        50.500    20435798.914 9  83681204.10649
        55.000    20435798.20349  20435794.848 7  80194478.770 7        43.500
  22887417.164 7 120274193.177 7        41.300                    93720180.92447
        27.600    22887419.87547
  21085841.633 9 110806856.299 9        51.000    21085847.457 9  86343079.37949
        55.000    21085847.22749  21085842.617 7  82745355.025 7        41.100
 21  1  2  0 57 30.0000000  0 10G32G01G21G23G16G08G22G27G20G10
  24206271.219 7 127204803.531 7        41.100    24206277.301 7  99120653.66149
        37.600    24206277.12549
  23606677.039 6 124053939.071 6        39.700    23606685.082 7  96665434.07146
        24.800    23606684.86746  23606680.547 3  92637698.856 3        32.800
  22137791.984 8 116334896.175 8        47.100                    90650591.70649
        37.700    22137794.85249
  22826757.609 7 119955434.356 7        42.500    22826762.531 7  93471785.47748
        31.400    22826761.85948  22826762.547 5  89577121.373 5        35.200
  23627306.133 7 124162391.123 7        42.100                    96749886.55947
        27.400    23627309.44947
  20734726.688 9 108961755.160 9        51.800    20734733.520 9  84905282.35749
        55.100    20734732.40249  20734728.813 7  81367549.477 7        42.000
  25129842.703 3 132058215.029 3        32.900                   102902518.57645
        16.300    25129845.87145
  20442468.094 9 107425919.199 9        51.000    20442474.598 9  83708539.20349
        54.900    20442473.78949  20442470.293 7  80220674.915 7        43.000
  22904354.648 6 120363200.988 6        40.900                    93789537.65847
        27.800    22904357.41047
  21091812.742 9 110838235.480 9        51.100    21091818.621 9  86367530.69549
        54.900    21091818.40649  21091813.914 6  82768787.501 6        40.500
 21  1  2  0 58  0.0000000  0 10G32G01G21G23G16G08G22G27G20G10
  24189524.008 7 127116797.924 7        41.400    24189530.848 6  99052077.87549
        37.800    24189530.16049
  23588339.531 6 123957574.451 6        39.900    23588347.871 7  96590344.77447
        25.200    23588347.68847  23588343.566 3  92565738.334 3        32.800
  22127479.367 8 116280703.540 8        47.200                    90608363.69049
        36.900    22127482.37549
  22843357.203 7 120042664.983 7        43.700    22843361.645 7  93539757.38148
        31.400    22843361.28548  22843362.227 5  89642261.096 5        35.700
  23648296.961 7 124272695.495 7        41.800                    96835838.02547
        29.000    23648300.05947
  20726695.023 9 108919550.445 9        52.000    20726702.223 9  84872395.55449
        55.400    20726701.04349  20726697.492 7  81336032.978 7        41.700
  25108579.039 6 131946460.210 6        40.800                   102815437.04047
        27.200    25108580.80947
  20449229.719 9 107461449.999 9        51.500    20449235.617 9  83736225.53049
        55.000    20449235.03549  20449231.527 7  80247207.653 7        43.200
  22921342.961 6 120452479.185 6        40.900                    93859105.05147
        29.000    22921346.43447
  21097883.492 9 110870136.873 9        51.100    21097889.223 9  86392388.93149
        54.900    21097889.12149  21097884.289 7  82792610.004 7        41.100
 21  1  2  0 58 30.0000000  0 10G32G01G21G23G16G08G22G27G20G10
  24172807.164 7 127028950.827 7        41.200    24172814.031 6  98983625.60249
        37.600    24172813.17649  24172808.949 1  94859302.58611        30.400
  23570027.633 6 123861346.394 6        39.700    23570035.441 6  96515361.87946
        24.200    23570035.27746  23570031.309 3  92493879.724 3        32.300
  22117207.680 8 116226724.407 8        46.900                    90566302.04449
        36.700    22117210.18449
  22860016.914 7 120130212.746 7        43.200    22860021.551 7  93607976.41548
        31.600    22860020.88348  22860022.266 5  89707637.671 5        35.800
  23669313.641 7 124383139.624 7        41.600                    96921898.35447
        27.400    23669316.88747
  20718739.672 9 108877742.712 9        51.600    20718746.500 9  84839818.10649
        55.200    20718745.34449  20718741.691 7  81304812.922 7        42.100
  25087325.648 6 131834773.815 6        38.300                   102728408.64946
        23.000    25087327.38746
  20456076.297 9 107497431.068 9        51.500    20456082.551 9  83764262.71749
        55.100    20456082.07049  20456078.477 7  80274076.612 7        42.900
  22938383.031 7 120542025.209 7        41.600                    93928881.17547
        28.500    22938386.81347
  21104053.148 9 110902558.763 9        51.500    21104058.902 9  86417652.74649
        55.100    21104058.61349  21104053.945 6  82816821.157 6        40.700
 21  1  2  0 59  0.0000000  0 10G32G01G21G23G16G08G22G27G20G10
  24156121.211 7 126941265.430 7        41.400    24156127.875 7  98915299.31549
        38.300    24156127.40249  24156123.250 1  94793823.275 1        29.700
  23551742.148 6 123765255.739 6        39.000    23551750.691 6  96440486.06747
        25.300    23551750.08247  23551745.426 3  92422123.713 3        32.500
  22106976.102 8 116172958.946 8        46.800                    90524406.88649
        37.300    22106978.52349
  22876736.563 7 120218075.223 7        42.500    22876741.430 7  93676440.68348
        31.400    22876740.59848  22876741.770 5  89773249.237 5        35.600
  23690357.172 7 124493721.461 7        42.200                    97008066.01647
        28.600    23690359.82847
  20710859.703 9 108836333.677 9        51.900    20710866.754 9  84807551.32249
        55.800    20710865.55149  20710861.789 7  81273890.600 7        42.100
  25066085.547 5 131723157.320 5        37.700                   102641434.82646
        20.400    25066086.46546
  20463009.063 9 107533862.289 9        52.200    20463015.324 9  83792650.66849
        55.300    20463014.77349  20463010.930 7  80301281.733 7        42.600
  22955473.414 7 120631836.736 7        41.400                    93998864.14647
        26.900    22955477.22747
  21110321.750 9 110935499.827 9        51.800    21110327.516 9  86443321.11849
        55.000    21110327.18849  21110322.563 7  82841420.009 7        41.300
 21  1  2  0 59 30.0000000  0 10G32G01G21G23G16G08G22G27G20G10
  24139466.680 6 126853744.640 6        40.900    24139473.078 7  98847101.30549
        38.200    24139472.48449  24139468.707 1  94728466.76511        30.700
  23533483.234 6 123669303.301 6        39.900    23533490.617 6  96365717.91246
        23.300    23533489.89146  23533487.289 3  92350470.916 3        33.700
  22096785.859 8 116119406.999 8        46.900                    90482678.09549
        37.100    22096788.42249
  22893515.664 7 120306249.749 7        43.400    22893520.000 8  93745148.09448
        31.700    22893519.84048  22893520.926 5  89839093.891 5        35.100
  23711425.242 7 124604437.841 7        42.600                    97094338.50347
        28.200    23711428.69147
  20703056.047 9 108795325.176 9        51.400    20703062.949 9  84775596.64749
        55.600    20703061.90249  20703058.078 7  81243267.367 7        41.900
  25044859.242 5 131611613.028 5        37.600                   102554517.16846
        24.300    25044861.17246
  20470027.281 9 107570743.393 9        50.700    20470033.445 9  83821389.17949
        55.000    20470033.07049  20470029.465 7  80328822.804 7        42.900
  22972615.008 7 120721911.272 7        41.700                    94069052.09847
        27.300    22972618.06647
  21116687.992 9 110968958.538 9        50.800    21116694.258 9  86469392.83649
        55.000    21116694.08249  21116689.613 6  82866405.413 6        40.600
 21  1  2  1  0  0.0000000  0 10G32G01G21G23G16G08G22G27G20G10
  24122843.688 7 126766391.410 7        41.200    24122850.730 7  98779033.85149
        38.200    24122850.01649  24122845.715 1  94663235.527 1        30.600
  23515250.602 6 123573489.808 6        39.400    23515258.887 7  96291058.08147
        25.400    23515258.60947  23515254.352 3  92278921.925 3        33.200
  22086635.633 8 116066068.874 8        47.500                    90441115.92949
        37.700    22086638.77349
  22910353.930 7 120394733.763 7        42.200    22910358.238 8  93814096.68148
        32.100    22910357.76648  22910358.414 5  89905169.584 5        35.600
  23732519.172 7 124715285.856 7        42.000                    97180713.57247
        26.500    23732522.36747
  20695328.664 9 108754718.323 9        51.400    20695335.656 9  84743954.94749
        55.300    20695334.55549  20695330.895 7  81212944.054 7        41.700
  25023646.906 5 131500142.705 5        36.300                   102467657.16846
        22.200    25023649.28546
  20477131.359 9 107608074.053 9        50.900    20477137.430 9  83850477.99149
        55.000    20477136.78149  20477133.074 7  80356699.578 7        43.000
  22989804.734 7 120812246.493 7        41.200                    94139443.18447
        27.700    22989808.09447
  21123153.688 9 111002933.354 9        50.700    21123159.723 9  86495866.72849
        54.900    21123159.28549  21123154.633 6  82891776.232 6        40.900
 21  1  2  1  0 30.0000000  0 10G32G01G21G23G16G08G22G27G20G10
  24106254.063 7 126679208.898 7        41.500    24106260.445 6  98711099.45849
        38.400    24106259.80549  24106255.832 1  94598131.67411        30.600
  23497044.531 6 123477816.150 6        39.900    23497052.438 7  96216507.20447
        26.300    23497052.27047  23497048.227 3  92207477.382 3        33.400
  22076526.445 8 116012944.598 8        47.300                    90399720.39249
        37.900    22076529.50849
  22927250.094 7 120483524.840 7        42.300    22927254.770 8  93883284.51948
        31.600    22927254.49648  22927255.078 5  89971474.598 5        35.500
  23753637.250 7 124826262.519 7        42.000                    97267188.88247
        28.300    23753640.69547
  20687678.320 9 108714514.852 9        51.200    20687685.277 9  84712627.56649
        55.500    20687684.07449  20687680.395 7  81182921.996 7        42.000
  25002450.008 5 131388748.372 5        37.600                   102380856.51646
        21.800    25002451.48446
  20484320.320 9 107645854.130 9        51.100    20484326.816 9  83879917.00549
        55.000    20484326.00449  20484322.383 7  80384911.968 7        43.200
  23007044.031 6 120902840.208 6        40.600                    94210035.67747
        27.200    23007047.78947
  21129716.625 9 111037422.915 9        51.100    21129722.875 9  86522741.70949
        54.900    21129722.72749  21129717.844 7  82917531.417 7        41.300
 21  1  2  1  1  0.0000000  0 10G32G01G21G23G16G08G22G27G20G10
  24089696.094 7 126592199.925 7        41.500    24089703.258 7  98643300.26149
        38.900    24089702.48849  24089698.832 1  94533157.50911        30.900
  23478865.344 6 123382283.034 6        40.400    23478872.422 6  96142065.81946
        24.300    23478872.30546  23478868.359 3  92136137.691 3        32.600
  22066457.938 8 115960033.935 8        47.500                    90358491.32349
        37.700    22066460.93049
  22944204.250 7 120572620.105 7        42.600    22944208.629 7  93952709.39847
        29.600    22944208.20347  22944209.223 5  90038006.774 5        35.500
  23774779.305 7 124937365.872 7        42.500                    97353762.91747
        27.000    23774782.34847
  20680105.000 9 108674716.366 9        51.900    20680111.867 9  84681615.76049
        55.500    20680110.81649  20680106.926 7  81153202.355 7        42.100
  24981265.813 5 131277431.813 5        36.100                   102294116.21146
        22.200    24981268.21546
  20491594.766 9 107684083.166 9        51.100    20491601.441 9  83909705.85149
        54.900    20491600.64149  20491597.203 7  80413459.609 7        42.700
  23024332.539 7 120993689.828 7        41.200                    94280827.55847
        28.100    23024336.16847
  21136377.422 9 111072425.494 9        50.700    21136383.375 9  86550016.44849
        54.900    21136383.23049  21136378.531 7  82943669.702 7        41.000
 21  1  2  1  1 30.0000000  0 10G32G01G21G23G16G08G22G27G20G10
  24073173.000 7 126505367.574 7        41.300    24073179.605 7  98575638.69149
        38.800    24073178.39149  24073174.586 2  94468315.146 2        31.000
  23460712.375 6 123286891.273 6        38.600    23460720.313 6  96067734.61746
        24.800    23460720.20746  23460716.375 3  92064903.594 3        32.600
  22056429.969 8 115907336.932 8        47.200                    90317428.71649
        37.800    22056432.93049
  22961215.977 7 120662017.284 7        43.100    22961220.473 7  94022369.52348
        30.800    22961220.46548  22961220.570 5  90104764.413 5        35.300
  23795945.148 7 125048593.181 7        42.700                    97440433.53447
        27.200    23795948.66447
  20672608.930 9 108635324.584 9        51.700    20672615.855 9  84650920.86449
        55.700    20672614.70349  20672610.922 7  81123786.400 7        41.800
  24960099.828 6 131166194.916 6        39.000                   102207438.21146
        24.300    24960101.06646
  20498955.320 9 107722760.949 9        50.700    20498961.484 9  83939844.36749
        54.900    20498961.05549  20498957.430 7  80442342.354 7        42.700
  23041668.977 7 121084792.981 7        41.500                    94351817.01547
        27.600    23041672.19947
  21143135.500 9 111107939.665 9        50.700    21143141.582 9  86577689.82949
        54.900    21143141.67649  21143136.770 6  82970190.020 6        40.900
 21  1  2  1  2  0.0000000  0 10G32G01G21G23G16G08G22G27G20G10
  24056682.938 7 126418714.538 7        41.800    24056689.574 7  98508116.84449
        38.800    24056688.73049  24056685.191 2  94403606.72512        31.700
  23442586.531 6 123191641.305 6        39.500    23442595.008 7  95993513.86646
        24.500    23442595.09846  23442590.504 3  91993775.418 3        33.300
  22046442.664 8 115854853.295 8        47.400                    90276532.40049
        38.200    22046445.54749
  22978285.086 7 120751713.408 7        43.900    22978289.539 7  94092262.60048
        31.400    22978288.70748  22978289.184 4  90171745.282 4        34.900
  23817134.258 7 125159940.814 7        43.300                    97527197.92147
        26.700    23817137.10247
  20665190.555 9 108596341.099 9        51.700    20665197.625 9  84620544.12049
        55.600    20665196.57049  20665192.801 7  81094675.366 7        42.300
  24938947.219 6 131055039.259 6        38.300                   102120823.42046
        22.200    24938948.95746
  20506400.898 9 107761886.828 9        50.900    20506407.016 9  83970332.05649
        55.200    20506406.60549  20506402.926 7  80471559.719 7        42.300
  23059053.250 6 121176147.428 6        40.900                    94423002.29647
        26.000    23059056.56647
  21149990.805 9 111143963.547 9        51.300    21149996.941 9  86605760.39349
        54.900    21149996.76649  21149991.660 6  82997090.982 6        40.300
 21  1  2  1  2 30.0000000  0 10G32G01G21G23G16G08G22G27G20G10
  24040227.758 6 126332244.909 6        40.800    24040234.871 7  98440737.92749
        38.400    24040234.43049  24040230.742 1  94339035.276 1        30.300
  23424488.898 6 123096535.050 6        40.200    23424497.164 7  95919405.11847
        25.800    23424496.78547  23424491.512 3  91922754.515 3        32.700
  22036496.461 8 115802584.390 8        47.600                    90235803.39449
        38.800    22036499.50849
  22995410.242 7 120841707.038 7        43.700    22995414.465 7  94162387.51048
        31.000    22995413.95748  22995414.855 4  90238948.303 4        34.900
  23838345.477 7 125271407.287 7        42.500                    97614054.90647
        26.700    23838348.51647
  20657850.430 9 108557767.932 9        51.300    20657857.555 9  84590487.10049
        55.700    20657856.13349  20657852.539 7  81065870.707 7        41.600
  24917809.008 4 130943968.083 4        34.400                   102034274.49546
        20.100    24917812.25046
  20513931.563 9 107801461.672 9        51.600    20513938.023 9  84001169.57949
        54.900    20513937.40649  20513933.750 7  80501112.336 7        42.600
  23076484.883 7 121267751.768 7        41.100                    94494382.29147
        26.500    23076487.92247
  21156942.734 9 111180496.748 9        51.400    21156948.840 9  86634227.82649
        54.900    21156948.64849  21156944.223 6  83024372.277 6        40.900
 21  1  2  1  3  0.0000000  0 10G32G01G21G23G16G08G22G27G20G10
  24023809.578 7 126245960.433 7        42.200    24023815.914 7  98373503.27449
        39.600    24023815.28549  24023811.164 1  94274602.039 1        30.400
  23406418.570 6 123001571.965 6        40.800    23406426.094 7  95845407.94147
        25.900    23406425.48447  23406421.570 3  91851840.557 3        33.300
  22026590.695 8 115750528.903 8        47.200                    90195240.68749
        38.000    22026593.66449
  23012590.852 7 120931994.221 7        42.300    23012595.508 7  94232741.14947
        29.800    23012595.07047  23012596.172 4  90306370.520 4        34.800
  23859578.469 7 125382988.866 7        41.500                    97701001.58347
        26.700    23859581.87947
  20650588.289 9 108519605.404 9        51.600    20650595.164 9  84560750.05949
        55.400    20650594.06349  20650590.418 7  81037372.718 7        42.300
  24896690.859 5 130832981.853 5        37.800                   101947791.65846
        24.500    24896692.55946
  20521547.438 9 107841483.735 9        50.900    20521553.859 9  84032355.58549
        55.200    20521553.27749  20521549.656 7  80530998.915 7        42.900
  23093963.727 6 121359601.993 6        40.900                    94565953.88847
        26.300    23093966.77347
  21163991.180 9 111217536.290 9        50.700    21163997.449 9  86663089.80849
        55.200    21163996.87949  21163992.168 6  83052031.674 6        40.800
 21  1  2  1  3 30.0000000  0 10G32G01G21G23G16G08G22G27G20G10
  24007425.930 7 126159865.606 7        42.300    24007432.516 7  98306416.41049
        39.000    24007431.81349  24007427.961 1  94210310.448 1        30.600
  23388375.164 6 122906754.405 6        40.200    23388382.879 7  95771524.13747
        26.200    23388382.42247  23388378.297 3  91781035.270 3        32.200
  22016725.883 8 115698688.224 8        47.800                    90154845.37649
        38.400    22016728.43849
  23029827.648 7 121022574.010 7        43.000    23029832.465 7  94303322.78747
        29.700    23029831.78947  23029832.328 4  90374011.279 4        34.600
  23880833.656 7 125494683.990 7        42.000                    97788036.74147
        25.800    23880836.58247
  20643405.047 9 108481856.811 9        51.100    20643412.020 9  84531335.56949
        55.200    20643410.66049  20643406.844 7  81009183.838 7        42.400
  24875588.875 6 130722083.86316        39.000                   101861377.73956
        23.200    24875589.39846
  20529248.805 9 107881954.299 9        51.200    20529255.203 9  84063891.06949
        55.400    20529254.39849  20529250.973 7  80561220.433 7        43.000
  23111488.703 7 121451697.669 7        41.100                    94637716.73047
        26.800    23111491.63747
  21171135.766 9 111255082.193 9        50.500    21171142.012 9  86692346.35949
        54.900    21171141.57049  21171136.871 7  83080069.204 7        41.100
 21  1  2  1  4  0.0000000  0 10G32G01G21G23G16G08G22G27G20G10
  23991078.742 7 126073961.768 7        42.400    23991085.145 7  98239478.35149
        38.800    23991084.59049  23991080.672 1  94146161.507 1        30.500
  23370359.375 6 122812081.401 6        40.100    23370367.195 7  95697752.98347
        27.200    23370367.15247  23370362.609 3  91710337.901 3        32.900
  22006901.000 8 115647060.516 8        47.800                    90114615.99449
        38.200    22006903.84049
  23047119.305 7 121113442.116 7        42.200    23047123.727 7  94374129.10048
        30.500    23047123.15248  23047124.512 4  90441867.299 4        34.500
  23902109.273 7 125606488.684 7        41.700                    97875157.25947
        26.400    23902112.41047
  20636300.328 9 108444521.706 9        50.600    20636307.332 9  84502243.27549
        55.100    20636306.08249  20636302.332 7  80981303.700 7        41.800
  24854500.711 6 130611274.675 6        38.200                   101775032.93546
        22.900    24854503.50846
  20537035.094 9 107922871.278 9        51.600    20537041.391 9  84095774.41549
        55.200    20537040.66449  20537037.348 7  80591775.280 7        43.000
  23129059.766 6 121544034.703 6        40.900                    94709667.64347
        26.000    23129063.10247
  21178376.469 9 111293131.072 9        51.200    21178382.191 9  86721994.84549
        54.900    21178382.24649  21178377.633 6  83108482.324 6        40.800
 21  1  2  1  4 30.0000000  0 10G32G01G21G23G16G08G22G27G20G10
  23974769.023 7 125988252.526 7        42.300    23974775.590 7  98172691.94949
        38.600    23974774.64149  23974770.902 2  94082157.899 2        31.000
  23352370.508 6 122717554.479 6        39.100    23352379.766 7  95624095.64747
        25.300    23352378.98447  23352374.953 3  91639749.628 3        33.300
  21997117.117 8 115595646.485 8        47.600                    90074553.11149
        38.100    21997120.07449
  23064465.250 7 121204596.647 7        42.600    23064469.613 7  94445158.59847
        29.400    23064469.00847  23064470.566 5  90509937.228 5        35.000
  23923405.023 6 125718400.782 6        40.900                    97962361.48847
        26.000    23923408.62547
  20629275.078 9 108407602.906 9        51.000    20629282.016 9  84473475.38049
        55.100    20629280.64149  20629276.844 7  80953734.504 7        42.000
  24833432.219 5 130500556.959 5        37.000                   101688759.34146
        21.500    24833433.09846
  20544906.273 9 107964234.969 9        51.900    20544912.688 9  84128005.85349
        54.900    20544912.00049  20544908.574 7  80622663.748 7        42.800
  23146677.148 6 121636611.403 6        40.400                    94781805.33647
        25.600    23146680.12947
  21185712.313 9 111331682.046 9        51.100    21185718.484 9  86752034.56449
        55.000    21185718.27049  21185713.438 6  83137270.383 6        40.600
 21  1  2  1  5  0.0000000  0 10G32G01G21G23G16G08G22G27G20G10
  23958496.945 7 125902741.136 7        42.700    23958503.633 7  98106059.70149
        39.600    23958503.11349  23958499.180 1  94018301.98211        30.600
  23334410.656 6 122623174.574 6        39.800    23334419.293 7  95550552.89347
        26.700    23334419.37547  23334415.031 3  91569271.127 3        33.200
  21987374.055 8 115544446.917 8        47.600                    90034657.35649
        38.900    21987377.54749
  23081865.633 7 121296035.189 7        42.100    23081870.262 7  94516409.41547
        29.300    23081869.26247  23081870.797 5  90578219.270 5        35.000
  23944721.125 6 125830417.037 6        40.800                    98049646.87147
        26.200    23944725.36347
  20622329.109 9 108371101.607 9        50.800    20622335.922 9  84445032.80149
        56.100    20622334.60549  20622330.996 7  80926477.025 7        41.800
  24812380.750 6 130389932.383 6        39.600                   101602558.41346
        24.000    24812383.14846
  20552862.531 9 108006045.194 9        52.000    20552868.840 9  84160585.24049
        55.000    20552868.20749  20552864.625 7  80653885.664 7        42.600
  23164338.453 6 121729425.521 6        40.500                    94854128.00847
        25.700    23164341.87947
  21193143.719 9 111370733.637 9        51.700    21193149.711 9  86782464.38049
        54.900    21193149.50849  21193144.613 6  83166432.290 6        40.200
 21  1  2  1  5 30.0000000  0 10G32G01G21G23G16G08G22G27G20G10
  23942262.813 7 125817430.390 7        43.000    23942269.340 7  98039583.79449
        39.900    23942268.80549  23942264.957 2  93954595.872 2        31.200
  23316479.625 7 122528942.257 7        41.400    23316487.277 6  95477125.15947
        27.500    23316487.07847  23316482.621 3  91498902.964 3        33.500
  21977672.063 8 115493461.177 8        47.800                    89994928.22749
        38.400    21977675.29349
  23099319.242 7 121387755.071 7        42.300    23099323.926 7  94587879.43348
        30.400    23099323.34448  23099324.184 4  90646711.381 4        34.900
  23966056.664 6 125942535.332 6        40.800                    98137011.77147
        26.000    23966060.75047
  20615463.086 9 108335019.216 9        51.300    20615469.574 9  84416916.65249
        55.900    20615468.48049  20615464.715 7  80899532.366 7        41.700
  24791349.156 6 130279402.902 6        40.900                   101516431.54147
        25.300    24791349.61347
  20560903.617 9 108048301.329 9        52.000    20560909.953 9  84193512.09149
        54.900    20560909.43449  20560905.891 7  80685440.561 7        42.300
  23182045.258 6 121822474.783 6        40.500                    94926633.91846
        24.800    23182048.28146
  21200669.836 9 111410283.984 9        50.800    21200675.668 9  86813282.83149
        55.000    21200675.55949  21200671.207 6  83195966.639 6        40.900
 21  1  2  1  6  0.0000000  0 10G32G01G21G23G16G08G22G27G20G10
  23926066.922 7 125732323.010 7        42.400    23926074.266 7  97973266.37549
        39.600    23926072.99249  23926069.559 2  93891041.660 2        31.400
  23298576.016 6 122434858.119 6        40.100    23298583.871 6  95403812.86547
        27.800    23298583.54747  23298579.352 3  91428645.292 3        33.200
  21968010.445 9 115442689.252 9        48.600                    89955365.69249
        38.300    21968013.33649
  23116826.383 7 121479753.472 7        42.800    23116830.672 7  94659566.49247
        28.900    23116830.04747  23116830.457 4  90715411.492 4        34.400
  23987410.766 6 126054752.987 6        40.900                    98224454.08147
        26.500    23987414.36347
  20608676.609 9 108299357.306 9        52.000    20608683.414 9  84389128.15249
        55.600    20608682.19949  20608678.363 7  80872901.730 7        42.500
  24770333.969 6 130168970.063 6        39.900                   101430380.02746
        22.500    24770334.54746
  20569029.375 9 108091002.767 9        52.500    20569035.723 9  84226785.93049
        54.900    20569035.19149  20569031.891 7  80717327.982 7        42.600
  23199797.102 6 121915756.329 6        40.600                    94999320.82647
        26.600    23199799.14847
  21208290.602 9 111450331.242 9        51.400    21208296.598 9  86844488.49249
        54.900    21208296.24649  21208291.680 6  83225872.063 6        40.500
 21  1  2  1  6 30.0000000  0 10G32G01G21G23G16G08G22G27G20G10
  23909911.313 7 125647423.220 7        41.400    23909917.750 7  97907110.71249
        39.200    23909916.73449  23909913.055 2  93827642.539 2        31.000
  23280700.445 6 122340924.095 6        39.800    23280708.797 7  95330617.53747
        25.800    23280708.48447  23280704.688 4  91358499.774 4        34.200
  21958389.680 8 115392132.135 8        47.800                    89915970.54849
        38.700    21958392.57049
  23134385.492 7 121572029.052 7        42.500    23134389.871 7  94731469.53147
        29.600    23134389.59847  23134389.609 4  90784318.590 4        34.100
  24008783.109 6 126167068.130 6        39.900                    98311972.35747
        25.300    24008787.02347
  20601970.602 9 108264117.880 9        51.000    20601977.492 9  84361668.85149
        55.300    20601976.37549  20601973.043 7  80846586.560 7        41.900
  24749338.281 6 130058636.948 6        38.800                   101344406.16746
        22.500    24749338.77346
  20577239.906 9 108134150.308 9        52.500    20577246.566 9  84260407.37949
        54.900    20577245.99249  20577242.594 7  80749548.548 7        43.000
  23217590.984 6 122009268.924 6        40.100                    95072187.74747
        26.200    23217594.07047
  21216005.680 9 111490874.925 9        51.800    21216012.063 9  86876080.97049
        54.900    21216011.85249  21216006.746 6  83256148.208 6        40.700
 21  1  2  1  7  0.0000000  0 11G32G01G21G23G16G14G08G22G27G20G10
  23893795.266 7 125562732.848 7        43.000    23893801.883 7  97841118.18749
        39.300    23893800.84849  23893797.844 1  93764399.669 1        30.700
  23262854.719 6 122247139.717 6        40.000    23262861.648 7  95257538.80147
        27.200    23262861.27347  23262857.613 4  91288465.979 4        34.600
  21948809.664 9 115341788.734 9        48.200                    89876741.92749
        38.200    21948812.37549
  23151997.336 7 121664578.016 7        42.100    23152001.707 7  94803585.59448
        30.000    23152001.09048  23152001.625 4  90853429.772 4        34.500
  24030174.383 6 126279476.592 6        39.800                    98399563.38446
        24.700    24030177.60246
  25213041.750 5                        36.200    25213047.164 6 103243218.68616
        38.400
  20595345.352 9 108229301.818 9        51.500    20595352.391 9  84334539.45149
        55.400    20595351.17649  20595347.453 7  80820587.561 7        42.300
  24728361.039 6 129948404.495 6        39.300                   101258510.71946
        22.000    24728362.27346
  20585535.289 9 108177742.261 9        52.100    20585541.824 9  84294375.13549
        54.900    20585541.22349  20585537.625 7  80782100.968 7        42.300
  23235429.063 6 122103009.645 6        40.400                    95145232.44947
        26.600    23235432.48447
  21223814.781 9 111531912.067 9        51.900    21223820.750 9  86908057.96149
        54.900    21223820.75849  21223816.125 6  83286792.805 6        40.600
 21  1  2  1  7 30.0000000  0 11G32G01G21G23G16G14G08G22G27G20G10
  23877719.703 7 125478255.230 7        42.700    23877726.352 7  97775291.48349
        39.200    23877725.51249  23877722.219 2  93701315.76812        31.500
  23245037.133 7 122153506.182 7        42.800    23245044.863 7  95184577.62947
        28.400    23245044.57047  23245039.160 3  91218544.878 3        33.600
  21939270.273 9 115291659.316 9        48.200                    89837680.04949
        38.300    21939273.08649
  23169660.734 7 121757398.240 7        42.500    23169665.121 7  94875913.03448
        30.500    23169664.24648  23169664.887 4  90922743.557 4        34.400
  24051582.336 6 126391975.997 6        39.400                    98487225.25247
        25.200    24051585.74647
  25195429.938 6 132402862.459 6        38.400    25195433.664 5 103171086.83055
        19.300    25195433.44945
  20588801.500 9 108194911.201 9        51.500    20588808.051 9  84307741.56849
        55.500    20588806.80949  20588803.281 7  80794906.253 7        42.600
  24707404.305 6 129838274.799 6        39.200                   101172695.39846
        22.500    24707405.39546
  20593915.109 9 108221778.611 9        50.800    20593921.664 9  84328689.15849
        55.400    20593921.05549  20593917.762 7  80814985.249 7        42.600
  23253310.438 6 122196976.594 6        40.200                    95218453.43747
        27.000    23253313.81347
  21231717.648 9 111573441.411 9        50.300    21231723.578 9  86940418.49149
        55.000    21231723.66849  21231718.746 6  83317804.983 6        40.300
 21  1  2  1  8  0.0000000  0 11G32G01G21G23G16G14G08G22G27G20G10
  23861684.453 7 125393993.592 7        42.400    23861691.586 7  97709633.06949
        39.400    23861691.19149  23861687.715 2  93638393.139 2        31.100
  23227247.531 6 122060024.592 6        40.900    23227255.785 7  95111734.84147
        28.400    23227255.36747  23227250.340 3  91148737.219 3        33.500
  21929771.961 8 115241744.259 8        47.800                    89798785.20749
        39.000    21929774.86349
  23187374.563 7 121850487.388 7        42.500    23187379.324 7  94948450.00148
        30.300    23187378.56348  23187379.258 4  90992258.153 4        34.600
  24073006.578 6 126504564.064 6        39.400                    98574956.20546
        24.400    24073010.81346
  25177869.813 4 132310593.204 4        34.300    25177875.734 5 103099188.60045
        18.300    25177874.72745
  20582337.734 9 108160947.058 9        51.600    20582344.902 9  84281275.99949
        55.400    20582343.78149  20582340.066 7  80769543.409 7        42.400
  24686466.766 6 129728249.958 6        38.500                   101086961.78046
        24.500    24686468.76246
  20602379.609 9 108266259.145 9        50.500    20602386.090 9  84363349.30949
        55.000    20602385.27349  20602382.016 7  80848201.204 7        42.900
  23271234.758 6 122291167.258 6        40.200                    95291848.74547
        25.000    23271238.55547
  21239713.789 9 111615461.521 9        50.200    21239719.676 9  86973161.43149
        55.000    21239719.66449  21239714.961 6  83349183.637 6        40.500
 21  1  2  1  8 30.0000000  0 11G32G01G21G23G16G14G08G22G27G20G10
  23845692.484 7 125309950.525 7        43.200    23845698.590 7  97644144.98649
        40.000    23845698.17249  23845694.746 2  93575633.716 2        31.400
  23209487.898 7 121966695.271 7        42.000    23209495.328 7  95039010.72947
        27.700    23209494.77347  23209490.219 3  91079043.284 3        33.400
  21920314.297 9 115192043.148 9        48.200                    89760057.07649
        38.700    21920316.98449
  23205139.289 7 121943842.535 7        42.100    23205143.957 7  95021194.26947
        28.900    23205143.19947  23205144.359 4  91061971.416 4        34.500
  24094448.391 6 126617237.735 6        40.100                    98662753.85546
        24.000    24094451.45346
  25160368.961 6 132218613.118 6        38.200    25160371.430 5 103027515.82346
        20.100    25160372.03546
  20575956.148 9 108127410.880 9        51.100    20575963.270 9  84255143.90749
        55.400    20575962.12149  20575958.332 7  80744500.149 7        42.100
  24665550.344 6 129618331.401 6        39.600                   101001310.96046
        24.500    24665552.10546
  20610928.320 9 108311182.955 9        51.300    20610934.910 9  84398354.86549
        55.100    20610933.97349  20610930.453 7  80881748.214 7        42.500
  23289200.453 6 122385578.906 6        39.700                    95365416.22446
        24.900    23289203.83246
  21247802.891 9 111657970.205 9        49.900    21247809.031 9  87006285.08649
        55.000    21247808.71149  21247804.129 6  83380927.142 6        40.600
 21  1  2  1  9  0.0000000  0 11G32G01G21G23G16G14G08G22G27G20G10
  23829741.648 7 125226129.149 7        42.200    23829747.961 7  97578829.61249
        39.800    23829747.60249  23829744.543 3  93513039.803 3        32.200
  23191756.836 7 121873519.073 7        42.300    23191764.406 7  94966405.92947
        28.500    23191764.61347  23191759.672 3  91009463.668 3        33.700
  21910897.156 8 115142556.072 8        47.500                    89721495.73749
        38.800    21910899.86749
  23222954.219 7 122037461.173 7        42.200    23222958.871 7  95094143.85447
        29.400    23222957.87147  23222959.473 4  91131881.469 4        34.300
  24115905.859 6 126729994.734 6        40.500                    98750616.44147
        25.100    24115909.38747
  25142921.305 6 132126924.803 6        38.300    25142924.555 6 102956070.36646
        21.100    25142924.15246
  20569656.430 9 108094304.120 9        51.500    20569663.211 9  84229346.43649
        55.500    20569662.01649  20569658.410 7  80719777.586 7        41.800
  24644654.273 6 129508521.094 6        40.100                   100915744.49847
        25.100    24644655.84447
  20619561.414 9 108356549.674 9        50.500    20619567.781 9  84433705.54749
        55.300    20619567.02349  20619563.547 7  80915625.937 7        42.700
  23307208.047 6 122480209.328 6        39.900                    95439154.20446
        24.300    23307210.86346
  21255984.680 9 111700965.818 9        50.100    21255990.727 9  87039788.16249
        55.000    21255990.58649  21255985.816 6  83413034.246 6        40.600
 21  1  2  1  9 30.0000000  0 11G32G01G21G23G16G14G08G22G27G20G10
  23813833.664 7 125142532.472 7        41.800    23813840.027 7  97513689.35349
        39.200    23813839.19549  23813836.277 3  93450613.731 3        32.000
  23174055.047 6 121780496.835 6        40.800    23174063.078 7  94893921.10347
        28.400    23174062.71147  23174057.750 3  90939999.079 3        33.400
  21901520.844 9 115093283.237 9        48.600                    89683101.32849
        38.900    21901523.38749
  23240818.859 7 122131340.947 7        42.200    23240823.949 7  95167296.91747
        28.900    23240823.05147  23240823.996 3  91201986.416 3        33.800
  24137378.047 6 126842831.939 6        40.400                    98838541.51447
        25.200    24137380.80147
  25125528.734 5 132035531.271 5        35.800    25125531.973 5 102884854.60245
        17.800    25125532.73445
  20563438.258 9 108061628.601 9        51.800    20563445.320 9  84203884.98349
        55.600    20563444.06349  20563440.344 7  80695377.033 7        41.800
  24623779.063 6 129398821.465 6        39.200                   100830264.29846
        23.400    24623780.28946
  20628278.664 9 108402358.914 9        51.100    20628284.906 9  84469401.05349
        55.100    20628284.30549  20628280.688 7  80949834.146 7        42.300
  23325257.039 6 122575056.575 6        40.100                    95513061.17247
        25.800    23325260.21947
  21264258.523 9 111744446.738 9        51.000    21264264.891 9  87073669.40049
        54.900    21264264.50449  21264259.965 6  83445503.777 6        40.300
 21  1  2  1 10  0.0000000  0 11G32G01G21G23G16G14G08G22G27G20G10
  23797969.094 7 125059163.430 7        42.700    23797975.742 7  97448726.48449
        39.400    23797975.14549  23797971.367 2  93388357.640 2        31.500
  23156382.406 7 121687629.261 7        41.400    23156390.730 7  94821556.79347
        27.800    23156390.59447  23156386.184 4  90870649.946 4        34.700
  21892185.766 9 115044224.449 9        49.100                    89644873.69149
        39.500    21892188.00849
  23258733.563 7 122225479.136 7        41.900    23258737.648 7  95240651.33247
        28.800    23258737.32447  23258737.270 3  91272284.448 3        33.700
  24158864.336 6 126955746.309 6        40.200                    98926526.75146
        23.800    24158867.94146
  25108193.859 5 131944434.968 5        37.300    25108197.883 6 102813870.36545
        19.300    25108198.03145
  20557302.578 9 108029385.376 9        51.300    20557309.324 9  84178760.38849
        55.000    20557308.32449  20557304.730 7  80671299.293 7        42.300
  24602924.859 6 129289234.005 6        38.900                   100744871.49846
        24.600    24602926.62146
  20637079.906 9 108448610.058 9        52.000    20637086.145 9  84505440.89649
        54.900    20637085.72749  20637082.105 7  80984372.322 7        42.500
  23343346.242 6 122670118.198 6        40.400                    95587135.13047
        25.300    23343350.01647
  21272624.781 9 111788411.050 9        50.900    21272631.191 9  87107927.30649
        55.000    21272630.68849  21272626.160 6  83478334.277 6        40.300
 21  1  2  1 10 30.0000000  0 11G32G01G21G23G16G14G08G22G27G20G10
  23782148.688 7 124976025.083 7        42.600    23782154.840 7  97383943.34649
        39.900    23782154.32849  23782150.344 2  93326273.836 2        31.400
  23138740.422 7 121594917.165 7        41.500    23138748.375 7  94749313.63747
        27.900    23138747.65647  23138743.629 4  90801416.914 4        34.600
  21882890.406 9 114995379.678 9        48.800                    89606812.83149
        39.100    21882893.40649
  23276696.039 7 122319873.341 7        41.800    23276700.109 7  95314205.25247
        27.800    23276699.66047  23276700.777 4  91342773.609 4        34.000
  24180366.180 6 127068736.388 6        40.500                    99014570.94846
        24.100    24180368.89846
  25090916.266 5 131853638.495 5        36.800    25090919.871 6 102743119.84345
        18.300    25090919.71545
  20551249.414 9 107997576.138 9        51.300    20551256.434 9  84153973.97149
        55.900    20551255.26649  20551251.734 7  80647545.653 7        42.300
  24582091.922 6 129179760.742 6        38.100                   100659567.65347
        25.300    24582094.29347
  20645965.188 9 108495302.699 9        51.100    20645971.621 9  84541824.76649
        55.100    20645971.17649  20645967.559 7  81019240.192 7        42.700
  23361476.844 7 122765391.966 7        41.000                    95661374.40447
        25.300    23361480.32047
  21281082.961 9 111832857.107 9        50.400    21281089.035 9  87142560.59349
        54.900    21281088.90249  21281084.023 6  83511524.504 6        40.200
 21  1  2  1 11  0.0000000  0 11G32G01G21G23G16G14G08G22G27G20G10
  23766371.922 7 124893120.426 7        42.300    23766379.207 7  97319342.32449
        39.700    23766377.77049  23766374.926 2  93264364.474 2        31.800
  23121128.172 7 121502361.435 7        41.700    23121135.152 7  94677192.32147
        28.600    23121134.96947  23121129.926 3  90732300.691 3        33.600
  21873636.070 9 114946749.044 9        48.300                    89568918.83749
        38.900    21873639.07849
  23294706.320 7 122414521.029 7        42.000    23294711.102 7  95387956.67747
        27.900    23294710.74647  23294711.594 4  91413452.086 4        34.200
  24201879.836 6 127181798.337 6        39.400                    99102671.16846
        23.300    24201884.05546
  25073696.398 5 131763144.581 5        36.800    25073700.340 6 102672605.08045
        19.900    25073699.98445
  20545279.211 9 107966201.950 9        51.500    20545285.910 9  84129526.54749
        55.700    20545285.01649  20545281.453 7  80624116.846 7        42.500
  24561283.172 6 129070403.435 6        39.800                   100574354.19046
        24.800    24561283.99246
  20654934.500 9 108542436.283 9        50.500    20654940.820 9  84578552.22349
        55.000    20654940.27049  20654936.645 7  81054437.342 7        42.600
  23379646.813 7 122860875.689 7        41.100                    95735777.29147
        25.300    23379649.76247
  21289631.867 9 111877783.108 9        50.100    21289637.938 9  87177567.87149
        54.900    21289638.09849  21289633.090 6  83545073.136 6        40.000
 21  1  2  1 11 30.0000000  0 11G32G01G21G23G16G14G08G22G27G20G10
  23750640.641 7 124810452.367 7        42.000    23750647.738 7  97254925.66149
        40.000    23750647.12949  23750643.066 3  93202631.829 3        32.100
  23103544.500 6 121409962.727 6        40.500    23103552.219 7  94605193.34947
        28.400    23103552.06647  23103547.289 3  90663301.705 3        33.400
  21864422.813 9 114898332.709 9        48.200                    89531191.83149
        38.900    21864425.68449
  23312765.609 7 122509419.672 7        41.400    23312769.703 7  95461903.65247
        27.200    23312769.22747  23312770.109 4  91484317.848 4        34.300
  24223409.539 6 127294930.296 6        40.100                    99190825.92546
        23.000    24223412.72746
  25056532.203 5 131672955.871 5        35.200    25056536.738 5 102602328.15645
        16.300    25056537.25445
  20539392.023 9 107935264.451 9        51.100    20539399.016 9  84105419.39349
        55.800    20539397.75849  20539394.230 7  80601014.176 7        42.400
  24540495.977 6 128961164.292 6        40.100                   100489232.80546
        24.400    24540496.67246
  20663987.563 9 108590010.288 9        52.700    20663993.891 9  84615622.85849
        55.200    20663993.39549  20663989.633 7  81089963.371 7        42.500
  23397856.250 7 122956566.710 7        41.400                    95810341.71347
        26.100    23397858.78147
  21298272.195 9 111923187.241 9        51.200    21298278.355 9  87212947.71849
        54.900    21298278.21949  21298273.508 6  83578978.840 6        40.400
 21  1  2  1 12  0.0000000  0 11G32G01G21G23G16G14G08G22G27G20G10
  23734955.000 7 124728024.126 7        42.000    23734961.926 7  97190695.86449
        38.800    23734961.33249  23734957.621 3  93141078.333 3        32.600
  23085992.125 7 121317722.029 7        41.100    23085999.586 7  94533317.51547
        27.900    23085999.10247  23085994.984 3  90594420.659 3        33.600
  21855250.500 9 114850130.632 9        48.600                    89493631.76649
        39.000    21855253.25049
  23330870.852 7 122604566.825 7        42.400    23330875.301 7  95536044.29847
        28.700    23330874.96947  23330876.219 5  91555369.331 5        35.000
  24244950.172 6 127408129.060 6        40.100                    99279032.76446
        22.800    24244953.27746
  25039429.938 6 131583075.128 6        38.400    25039433.984 6 102532291.14746
        21.300    25039433.25046
  20533588.305 9 107904765.222 9        51.100    20533594.973 9  84081653.76349
        55.200    20533593.80149  20533590.215 7  80578238.778 7        42.300
  24519731.391 6 128852045.061 6        40.800                   100404204.87047
        26.500    24519732.28147
  20673124.484 9 108638024.320 9        53.200    20673130.652 9  84653036.38749
        54.900    20673130.09049  20673126.770 7  81125817.975 7        42.200
  23416104.594 6 123052463.143 6        40.700                    95885066.21646
        23.900    23416107.75046
  21307002.805 9 111969067.876 9        51.600    21307008.996 9  87248698.86249
        54.900    21307008.69949  21307003.957 6  83613240.344 6        40.600
 21  1  2  1 12 30.0000000  0 11G32G01G21G23G16G14G08G22G27G20G10
  23719315.656 7 124645838.485 7        42.600    23719322.680 7  97126655.12249
        39.000    23719321.91849  23719317.730 2  93079705.88012        31.800
  23068468.805 6 121225639.970 6        39.700    23068477.215 7  94461565.30347
        26.000    23068476.47747  23068472.887 4  90525658.152 4        34.100
  21846118.469 9 114802142.610 9        49.100                    89456238.49749
        39.000    21846121.23849
  23349023.992 7 122699959.884 7        42.300    23349028.367 7  95610376.56747
        28.500    23349027.60247  23349029.344 5  91626604.372 5        35.100
  24266503.711 6 127521392.156 6        40.700                    99367289.68846
        23.000    24266506.54746
  25022386.094 6 131493504.67116        40.000    25022388.508 5 102462495.94356
        21.300    25022387.89546
  20527868.023 9 107874706.193 9        51.600    20527874.984 9  84058231.14349
        55.300    20527873.95349  20527870.254 7  80555792.092 7        42.100
  24498988.898 6 128743047.314 6        39.900                   100319271.58447
        27.300    24498990.28147
  20682344.578 9 108686477.627 9        51.200    20682350.945 9  84690792.19449
        55.000    20682350.38749  20682346.980 7  81162000.650 7        42.500
  23434391.836 7 123148562.857 7        41.000                    95959949.10746
        24.500    23434394.56646
  21315824.188 9 112015422.977 9        51.400    21315829.867 9  87284819.72649
        54.900    21315829.51249  21315825.340 6  83647856.180 6        40.400
 21  1  2  1 13  0.0000000  0 11G32G01G21G23G16G14G08G22G27G20G10
  23703723.172 7 124563898.351 7        42.500    23703730.039 7  97062805.66649
        39.800    23703729.03549  23703725.184 2  93018516.866 2        31.200
  23050976.414 6 121133717.219 6        40.400    23050984.305 7  94389937.22147
        27.400    23050984.10947  23050980.754 4  90457014.585 4        34.000
  21837027.383 9 114754368.866 9        49.000                    89419012.20349
        39.000    21837030.10249
  23367222.750 7 122795596.266 7        42.200    23367227.113 7  95684898.39447
        28.400    23367226.51247  23367228.191 3  91698021.172 3        33.900
  24288067.539 6 127634716.935 6        39.600                    99455594.73546
        23.800    24288071.75046
  25005400.195 5 131404247.213 5        35.600    25005404.465 5 102392944.74545
        16.900    25005402.79745
  20522232.102 9 107845087.740 9        50.900    20522238.945 9  84035151.81849
        55.800    20522237.85249  20522233.805 7  80533674.415 7        41.900
  24478270.953 6 128634173.060 6        40.200                   100234434.49146
        24.300    24478271.82846
  20691648.531 9 108735369.610 9        51.000    20691654.828 9  84728889.83549
        55.200    20691654.26649  20691650.750 7  81198510.879 7        42.700
  23452717.086 6 123244863.236 6        39.700                    96034988.36346
        23.900    23452719.94946
  21324734.906 9 112062250.735 9        50.700    21324741.090 9  87321308.88749
        54.700    21324740.62149  21324736.242 6  83682824.956 6        40.200
 21  1  2  1 13 30.0000000  0 11G32G01G21G23G16G14G08G22G27G20G10
  23688177.891 7 124482206.874 7        43.200    23688184.531 7  96999149.97149
        40.200    23688183.42649  23688179.758 3  92957513.477 3        32.400
  23033514.398 6 121041954.751 6        40.800    23033523.016 7  94318434.00447
        28.300    23033522.50847  23033518.492 4  90388490.714 4        34.000
  21827976.820 9 114706809.710 9        48.400                    89381953.12849
        38.900    21827980.25449
  23385467.656 7 122891473.642 7        41.600    23385472.570 7  95759608.02747
        28.900    23385471.68447  23385472.164 3  91769617.925 3        33.200
  24309643.570 6 127748100.854 6        39.200                    99543945.81746
        23.500    24309648.56646
  24988473.977 5 131315305.605 5        36.800    24988478.883 5 102323639.45245
        19.300    24988477.35545
  20516679.750 9 107815911.802 9        51.100    20516687.078 9  84012417.32349
        55.700    20516685.80949  20516682.113 7  80511887.191 7        42.000
  24457576.891 6 128525424.235 6        39.900                   100149695.19447
        25.200    24457578.17647
  20701035.656 9 108784699.868 9        51.400    20701042.059 9  84767328.99149
        54.900    20701041.44949  20701038.125 7  81235348.418 7        42.200
  23471080.227 6 123341362.025 6        39.700                    96110182.19246
        24.000    23471083.42646
  21333735.539 9 112109549.447 9        51.600    21333741.559 9  87358165.02949
        54.800    21333741.48849  21333736.559 6  83718145.405 6        40.000
 21  1  2  1 14  0.0000000  0 11G32G01G21G23G16G14G08G22G27G20G10
  23672680.180 7 124400767.152 7        42.500    23672686.926 7  96935690.44249
        39.600    23672685.95349  23672682.246 3  92896698.108 3        32.100
  23016083.984 6 120950353.424 6        40.800    23016091.434 7  94247056.39447
        29.100    23016091.31647  23016086.535 3  90320087.180 3        33.500
  21818967.867 9 114659464.771 9        48.200                    89345060.97549
        39.000    21818970.88749
  23403758.031 7 122987589.643 7        42.000    23403762.816 7  95834503.59047
        28.800    23403762.04747  23403762.359 3  91841392.828 3        33.200
  24331230.969 6 127861540.818 6        38.100                    99632340.58546
        21.700    24331234.31346
  24971610.742 6 131226682.459 6        38.500    24971613.621 5 102254582.46345
        19.300    24971612.53145
  20511212.531 9 107787180.209 9        51.200    20511219.273 9  83990029.07149
        55.600    20511218.33249  20511214.621 7  80490431.776 7        42.400
  24436906.867 6 128416803.051 6        39.600                   100065055.33747
        26.000    24436908.10547
  20710506.297 9 108834467.921 9        50.500    20710512.695 9  84806109.27749
        55.000    20710512.04749  20710508.484 7  81272512.832 7        42.100
  23489480.734 6 123438057.347 6        39.700                    96185529.19346
        24.100    23489483.83646
  21342825.359 9 112157317.382 9        49.600    21342831.719 9  87395386.79349
        54.900    21342831.78149  21342826.168 6  83753816.260 6        40.200
 21  1  2  1 14 30.0000000  0 11G32G01G21G23G16G14G08G22G27G20G10
  23657231.133 7 124319581.865 7        43.500    23657237.922 7  96872429.18849
        39.800    23657237.18449  23657233.359 2  92836072.72412        31.500
  22998683.555 6 120858913.908 6        40.200    22998691.074 7  94175804.85547
        28.100    22998690.68047  22998686.773 4  90251804.422 4        34.400
  21809999.469 9 114612334.132 9        48.700                    89308335.80049
        40.100    21810002.10949
  23422093.852 7 123083941.465 7        41.400    23422098.098 7  95909582.91747
        28.100    23422097.27347  23422097.977 3  91913343.853 3        33.700
  24352827.539 5 127975034.655 5        37.600                    99720777.32846
        20.400    24352831.71946
  24954808.484 6 131138380.128 6        38.600    24954811.859 6 102185775.47146
        22.200    24954811.05546
  20505829.844 9 107758893.816 9        51.400    20505836.566 9  83967987.71649
        55.600    20505835.70349  20505831.879 7  80469308.800 7        42.100
  24416261.094 6 128308311.066 6        40.400                    99980516.12947
        25.600    24416262.40247
  20720059.914 9 108884672.940 9        52.300    20720066.461 9  84845230.05449
        55.400    20720065.77049  20720062.266 7  81310003.576 7        42.600
  23507918.391 6 123534946.836 6        39.400                    96261027.47846
        22.300    23507921.24246
  21352004.406 9 112205552.442 9        51.300    21352010.301 9  87432972.55249
        54.600    21352010.30549  21352005.031 6  83789835.959 6        40.200
 21  1  2  1 15  0.0000000  0 11G32G01G21G23G16G14G08G22G27G20G10
  23641831.242 7 124238653.924 7        42.700    23641838.375 7  96809368.47049
        39.600    23641837.18849  23641833.559 3  92775639.578 3        32.200
  22981313.836 6 120767636.713 6        40.700    22981321.957 7  94104679.82247
        28.300    22981321.27747  22981317.480 4  90183642.932 4        34.300
  21801071.063 9 114565417.801 9        49.200                    89271777.62249
        39.400    21801074.06349
  23440472.320 7 123180526.543 7        41.600    23440477.469 7  95984843.99847
        27.300    23440476.79747  23440477.590 4  91985469.029 4        34.600
  24374435.188 6 128088579.568 6        38.800                    99809253.85446
        21.700    24374438.71546
  24938065.703 5                        36.200    24938068.684 5 102117230.38015
        17.400    24938067.62145
  20500532.047 9 107731053.727 9        51.600    20500539.109 9  83946294.13049
        55.600    20500537.94549  20500534.148 7  80448519.120 7        42.400
  24395641.328 6 128199949.979 6        40.000                    99896078.95247
        25.000    24395642.32047
  20729696.602 9 108935314.145 9        52.500    20729702.992 9  84884690.72349
        54.900    20729702.55549  20729699.168 7  81347820.038 7        41.800
  23526391.539 6 123632027.931 6        39.200                    96336675.05446
        22.500    23526394.99246
  21361271.578 9 112254252.640 9        52.300    21361277.715 9  87470920.75749
        54.800    21361277.62949  21361272.656 6  83826202.989 6        40.100
 21  1  2  1 15 30.0000000  0 11G32G01G21G23G16G14G08G22G27G20G10
  23626481.227 7 124157986.545 7        43.800    23626487.688 7  96746510.76549
        40.100    23626486.60549  23626482.703 3  92715400.904 3        32.200
  22963974.750 6 120676522.996 6        40.200    22963983.574 7  94033682.14647
        29.800    22963982.71947  22963978.305 3  90115603.522 3        33.700
  21792183.992 9 114518715.825 9        49.100                    89235386.48049
        39.700    21792187.03949
  23458896.164 6 123277342.633 6        40.900    23458900.793 7  96060285.09747
        27.200    23458899.93447  23458901.094 4  92057766.775 4        34.400
  24396051.258 5 128202172.801 5        37.100                    99897768.09146
        20.100    24396054.26646
  24921384.305 4 130962748.557 4        34.400    24921390.332 5 102048919.66755
        16.900    24921389.28145
  20495319.391 9 107703661.858 9        51.200    20495326.484 9  83924949.81349
        55.300    20495325.52349  20495321.523 7  80428064.170 7        42.500
  24375046.078 6 128091722.109 6        40.200                    99811745.54947
        26.000    24375047.16447
  20739416.195 9 108986391.222 9        50.100    20739422.840 9  84924491.02649
        55.200    20739422.32049  20739418.457 7  81385962.020 7        41.800
  23544902.695 6 123729298.664 6        40.200                    96412470.43646
        22.500    23544905.02046
  21370627.148 9 112303416.369 9        49.600    21370633.066 9  87509230.15349
        54.500    21370633.07449  21370628.656 6  83862916.150 6        40.200
 21  1  2  1 16  0.0000000  0 11G32G01G21G23G16G14G08G22G27G20G10
  23611180.414 7 124077582.669 7        43.700    23611187.145 7  96683858.40449
        40.200    23611186.31349  23611182.359 3  92655359.086 3        32.100
  22946668.102 7 120585573.480 7        41.200    22946676.051 7  93962812.44447
        28.700    22946676.06347  22946671.004 3  90047686.691 3        33.500
  21783337.984 9 114472228.375 9        49.100                    89199162.49349
        39.200    21783340.68049
  23477363.273 7 123374387.255 7        41.500    23477368.023 7  96135904.28447
        28.100    23477366.71547  23477368.039 3  92130235.094 3        33.200
  24417675.711 6 128315811.878 6        38.600                    99986317.99646
        21.300    24417679.28546
  24904767.711 5 130875424.729 5        36.900    24904773.133 6 101980875.02046
        20.600    24904771.92246
  20490192.328 9 107676719.480 9        52.000    20490199.480 9  83903955.74549
        55.900    20490198.49249  20490194.664 7  80407944.854 7        42.500
  24354476.133 6 127983629.106 6        39.900                    99727517.24947
        26.500    24354477.69547
  20749219.031 9 109037903.516 9        51.400    20749225.078 9  84964630.47749
        55.200    20749224.73849  20749220.980 7  81424428.975 7        41.800
  23563447.266 6 123826756.790 6        38.200                    96488411.80246
        22.000    23563450.61346
  21380070.813 9 112353041.748 9        51.200    21380076.660 9  87547899.27349
        54.700    21380076.40649  21380072.113 6  83899974.091 6        40.600
 21  1  2  1 16 30.0000000  0 11G32G01G21G23G16G14G08G22G27G20G10
  23595930.508 7 123997445.079 7        42.900    23595937.324 7  96621413.52149
        39.800    23595936.60249  23595933.137 2  92595516.082 2        31.900
  22929392.523 7 120494788.761 7        41.100    22929400.359 7  93892071.12747
        28.900    22929400.17647  22929395.246 3  89979892.958 3        33.400
  21774532.328 9 114425955.270 9        48.300                    89163105.53149
        39.800    21774535.34049
  23495872.711 6 123471657.765 6        40.500    23495878.117 7  96211699.46247
        28.100    23495877.02747  23495878.035 3  92202872.143 3        32.900
  24439309.227 6 128429493.600 6        38.600                   100074901.17846
        22.200    24439312.64846
  24888215.086 6 130788432.183 6        39.800    24888218.117 5 101913088.64246
        20.900    24888217.65246
  20485151.586 9 107650227.681 9        51.300    20485158.363 9  83883312.78149
        56.200    20485157.31649  20485153.344 7  80388162.008 7        42.900
  24333933.836 7 127875673.004 7        41.100                    99643395.66047
        26.300    24333934.34447
  20759103.820 9 109089850.211 9        50.000    20759110.359 9  85005108.41649
        55.100    20759109.79349  20759106.246 7  81463220.328 7        41.900
  23582028.344 6 123924400.010 6        38.100                    96564497.44746
        20.100    23582030.98846
  21389601.516 9 112403126.705 9        49.800    21389607.500 9  87586926.51549
        54.700    21389607.16449  21389602.867 6  83937375.166 6        39.700
 21  1  2  1 17  0.0000000  0 11G32G01G21G23G16G14G08G22G27G20G10
  23580732.180 7 123917576.729 7        41.800    23580738.910 7  96559178.45649
        39.900    23580738.25449  23580734.176 3  92535874.095 3        32.600
  22912148.203 7 120404169.612 7        41.700    22912156.230 7  93821458.82547
        28.900    22912156.24647  22912150.957 3  89912222.868 3        33.600
  21765767.570 9 114379896.603 9        48.900                    89127215.66749
        39.700    21765770.63349
  23514425.063 6 123569151.695 6        40.400    23514430.406 7  96287668.72547
        28.000    23514429.89547  23514430.727 3  92275675.995 3        32.900
  24460949.609 6 128543216.193 6        38.400                   100163516.15946
        21.800    24460953.61346
  24871724.922 6 130701773.491 6        38.800    24871727.918 6 101845562.43446
        22.500    24871727.16846
  20480196.203 9 107624188.142 9        51.300    20480203.051 9  83863022.23449
        55.500    20480202.07449  20480198.281 7  80368716.899 7        42.600
  24313415.352 6 127767855.341 6        39.900                    99559381.92547
        25.900    24313417.03547
  20769071.625 9 109142230.638 9        52.300    20769077.922 9  85045924.31249
        55.300    20769077.27349  20769073.902 7  81502335.566 7        41.900
  23600643.953 6 124022226.130 6        38.700                    96640725.62345
        19.900    23600646.40645
  21399219.148 9 112453669.345 9        51.800    21399225.766 9  87626310.38349
        54.700    21399225.37149  21399220.500 6  83975118.043 6        39.700
 21  1  2  1 17 30.0000000  0 11G32G01G21G23G16G14G08G22G27G20G10
  23565585.633 7 123837980.506 7        43.100    23565592.578 7  96497155.42649
        40.600    23565591.20349  23565586.855 2  92476435.423 2        31.600
  22894935.555 7 120313716.618 7        41.700    22894943.406 7  93750976.01647
        29.300    22894943.69547  22894938.480 4  89844676.845 4        34.100
  21757044.008 9 114334052.086 9        49.500                    89091492.67049
        39.700    21757046.59849
  23533020.391 6 123666866.441 6        40.900    23533024.871 7  96363810.06847
        28.000    23533023.94547  23533024.848 3  92348644.862 3        32.600
  24482598.398 6 128656976.677 6        38.200                   100252160.68046
        21.300    24482601.02746
  24855297.766 5 130615451.17015        37.000    24855301.449 6 101778298.24856
        20.100    24855300.18446
  20475327.164 9 107598601.977 9        51.200    20475334.281 9  83843084.95949
        55.500    20475333.02749  20475329.234 7  80349610.353 7        42.400
  24292925.625 6 127660178.081 6        40.000                    99475477.60147
        25.700    24292927.06347
  20779121.617 9 109195043.985 9        50.200    20779128.105 9  85087077.55849
        54.900    20779127.26649  20779123.824 7  81541774.095 7        42.100
  23619294.023 5 124120232.714 5        37.300                    96717094.36046
        21.800    23619297.68046
  21408924.188 9 112504667.610 9        49.700    21408930.387 9  87666049.28949
        54.600    21408930.14849  21408925.109 6  84013201.167 6        39.900
 21  1  2  1 18  0.0000000  0 11G32G01G21G23G16G14G08G22G27G20G10
  23550491.969 7 123758659.745 7        43.900    23550498.242 7  96435347.04949
        41.100    23550497.28149  23550493.617 3  92417202.365 3        32.600
  22877754.547 7 120223431.304 7        42.000    22877762.582 7  93680623.85747
        29.100    22877762.00847  22877758.352 4  89777256.041 4        34.200
  21748360.742 9 114288422.475 9        49.100                    89055937.14249
        39.500    21748363.61349
  23551655.992 6 123764799.961 6        40.000    23551660.547 7  96440121.90647
        26.500    23551660.19547  23551660.750 3  92421776.998 3        32.900
  24504253.008 6 128770772.008 6        38.800                   100340832.37246
        22.200    24504256.81646
  24838934.352 5 130529468.331 5        35.400    24838938.887 5 101711298.62445
        18.600    24838938.10945
  20470544.797 9 107573470.598 9        51.600    20470551.922 9  83823502.06849
        56.000    20470550.68849  20470546.938 7  80330843.394 7        42.400
  24272462.859 6 127552643.351 6        40.300                    99391684.32247
        25.900    24272463.73447
  20789254.320 9 109248290.071 9        51.900    20789260.691 9  85128568.00549
        55.000    20789259.59449  20789256.336 7  81581535.757 7        41.400
  23637977.586 5 124218417.975 5        37.100                    96793602.30646
        21.700    23637981.60246
  21418715.000 9 112556120.063 9        50.700    21418720.969 9  87706142.10949
        54.300    21418720.96149  21418716.215 6  84051623.437 6        39.800
 21  1  2  1 18 30.0000000  0 11G32G01G21G23G16G14G08G22G27G20G10
  23535450.195 7 123679617.134 7        43.800    23535456.777 7  96373755.40349
        40.800    23535456.10249  23535452.324 3  92358177.042 3        32.000
  22860605.977 7 120133313.989 7        42.000    22860613.789 7  93610402.62347
        29.300    22860612.96947  22860608.547 3  89709960.684 3        33.700
  21739718.352 9 114243007.309 9        48.600                    89020548.69949
        39.800    21739721.61749
  23570333.523 6 123862949.589 6        39.600    23570338.289 7  96516602.10747
        25.100    23570337.69147  23570338.699 3  92495070.546 3        33.600
  24525913.813 6 128884599.614 6        39.400                   100429529.16346
        21.300    24525916.79746
  24822637.406 5 130443827.243 5        37.400    24822642.738 6 101644565.30946
        21.500    24822642.09046
  20465849.352 9 107548795.515 9        52.600    20465856.461 9  83804274.72949
        55.900    20465855.05149  20465851.164 7  80312417.217 7        42.800
  24252026.750 6 127445252.682 6        40.200                    99308003.30847
        25.800    24252027.60547
  20799468.758 9 109301967.933 9        51.700    20799475.047 9  85170394.90049
        55.200    20799474.38349  20799470.855 7  81621619.867 7        41.600
  23656696.492 6 124316779.566 6        38.400                    96870247.66746
        21.700    23656698.75446
  21428592.289 9 112608024.468 9        51.600    21428598.043 9  87746587.09749
        54.500    21428597.99649  21428593.102 6  84090383.234 6        39.500
 21  1  2  1 19  0.0000000  0 11G32G01G21G23G16G14G08G22G27G20G10
  23520462.219 7 123600855.563 7        42.800    23520468.594 7  96312382.76649
        40.000    23520467.95349  23520464.059 3  92299361.588 3        32.200
  22843489.156 7 120043365.412 7        42.300    22843497.094 7  93540312.84847
        29.700    22843496.93047  22843492.543 4  89642791.335 4        34.300
  21731117.023 9 114197806.601 9        48.400                    88985327.37549
        39.800    21731120.02749
  23589051.586 6 123961312.809 6        40.100    23589056.047 7  96593248.76047
        26.300    23589055.41447  23589056.730 3  92568523.562 3        33.300
  24547579.875 6 128998457.272 6        39.000                   100518249.42846
        22.200    24547583.19146
  24806406.719 5 130358530.376 5        37.100    24806411.039 6 101578100.12046
        20.900    24806410.38346
  20461241.156 9 107524577.869 9        51.900    20461247.973 9  83785403.83949
        55.900    20461246.66849  20461242.938 7  80294332.615 7        42.800
  24231619.289 7 127338008.066 7        41.400                    99224436.07547
        27.100    24231620.02747
  20809765.109 9 109356076.780 9        52.100    20809771.602 9  85212557.62849
        55.000    20809771.02049  20809767.508 7  81662025.807 7        42.200
  23675446.773 5 124415315.198 5        37.200                    96947028.72346
        21.100    23675448.82446
  21438554.977 9 112660378.830 9        51.800    21438560.820 9  87787382.71049
        54.400    21438560.75449  21438556.109 6  84129479.010 6        40.000
 21  1  2  1 19 30.0000000  0 11G32G01G21G23G16G14G08G22G27G20G10
  23505528.727 7 123522377.757 7        43.200    23505534.914 7  96251231.23049
        40.500    23505533.92649  23505530.164 3  92240758.012 3        32.200
  22826404.531 7 119953586.184 7        42.300    22826412.449 7  93470355.01648
        30.000    22826412.21148  22826408.172 4  89575748.435 4        34.500
  21722556.539 9 114152820.272 9        48.800                    88950273.10049
        39.900    21722559.32449
  23607809.422 6 124059886.890 6        40.800    23607814.234 7  96670059.72847
        26.900    23607813.17647  23607815.027 3  92642134.106 3        32.600
  24569251.492 5 129112342.676 5        37.700                   100606991.25946
        21.300    24569255.18846
  24790241.539 6 130273580.183 6        38.500    24790244.656 5 101511905.19846
        21.700    24790244.58246
  20456719.516 9 107500818.469 9        51.400    20456726.574 9  83766890.00849
        55.800    20456725.49649  20456721.797 7  80276590.198 7        42.300
  24211238.055 7 127230911.166 7        41.300                    99140983.96547
        27.700    24211240.25847
  20820143.406 9 109410615.741 9        51.600    20820150.234 9  85255055.50149
        55.200    20820149.48049  20820145.930 7  81702752.949 7        41.800
  23694230.391 5 124514022.456 5        36.700                    97023943.43446
        21.300    23694232.93446
  21448603.016 9 112713181.052 9        51.000    21448608.914 9  87828527.30149
        54.400    21448608.67649  21448604.281 6  84168909.252 6        40.100
 21  1  2  1 20  0.0000000  0 11G32G01G21G23G16G14G08G22G27G20G10
  23490649.664 7 123444186.901 7        43.400    23490655.543 7  96190303.29649
        40.900    23490654.77049  23490651.180 3  92182368.799 3        32.500
  22809352.727 7 119863977.326 7        42.200    22809360.406 7  93400529.98847
        29.900    22809360.41447  22809356.332 5  89508832.749 5        35.100
  21714036.734 9 114108048.474 9        49.100                    88915385.98549
        40.300    21714039.74249
  23626607.484 6 124158669.724 6        40.800    23626611.801 7  96747033.35847
        26.500    23626611.06647  23626612.328 3  92715900.474 3        32.400
  24590926.773 5 129226252.758 5        37.300                   100695752.40645
        18.600    24590930.84445
  24774143.234 6 130188979.401 6        39.200    24774146.668 6 101445982.54746
        22.900    24774146.01646
  20452286.094 9 107477519.155 9        51.500    20452292.715 9  83748734.69749
        55.500    20452291.78949  20452288.129 7  80259191.337 7        42.800
  24190887.047 6 127123963.917 6        40.100                    99057648.45347
        25.900    24190888.51247
  20830603.586 9 109465584.284 9        52.100    20830610.195 9  85297888.12049
        54.900    20830609.62949  20830606.105 7  81743800.856 7        41.600
  23713046.039 5 124612899.487 5        37.400                    97100990.45646
        21.700    23713049.20746
  21458735.750 9 112766429.407 9        50.400    21458741.602 9  87870019.51549
        54.400    21458741.65649  21458736.824 6  84208672.616 6        40.100
 21  1  2  1 20 30.0000000  0 11G32G01G21G23G16G14G08G22G27G20G10
  23475825.055 7 123366285.925 7        43.600    23475831.684 7  96129601.22149
        41.000    23475831.07049  23475827.180 3  92124195.934 3        32.500
  22792333.195 7 119774539.594 7        42.600    22792340.996 7  93330838.27247
        29.400    22792340.71947  22792335.887 4  89442044.867 4        34.100
  21705557.633 9 114063491.216 9        48.300                    88880666.06849
        39.900    21705560.85949
  23645444.305 7 124257658.843 7        41.300    23645449.305 7  96824167.73747
        26.500    23645448.01647  23645449.211 3  92789820.930 3        32.400
  24612607.961 5 129340184.789 5        37.700                   100784530.56646
        20.400    24612611.18446
  24758110.906 6 130104730.716 6        38.900    24758114.516 6 101380334.19246
        22.000    24758114.10946
  20447940.328 9 107454681.322 9        51.700    20447947.059 9  83730938.97649
        55.900    20447945.96949  20447941.984 7  80242137.117 7        42.900
  24170564.648 6 127017168.040 6        40.400                    98974430.93047
        26.200    24170566.16447
  20841145.484 9 109520981.717 9        51.500    20841152.242 9  85341054.94349
        55.100    20841151.46549  20841147.910 7  81785169.070 7        42.000
  23731894.016 5 124711943.939 5        36.900                    97178167.91945
        19.600    23731896.60545
  21468952.914 9 112820121.896 9        51.400    21468959.160 9  87911857.80949
        54.100    21468959.02749  21468954.172 6  84248767.639 6        39.600
 21  1  2  1 21  0.0000000  0 11G32G01G21G23G16G14G08G22G27G20G10
  23461056.672 7 123288677.747 7        44.200    23461063.852 7  96069127.31349
        41.300    23461062.57849  23461059.145 3  92066241.779 3        32.400
  22775346.930 7 119685273.783 7        42.200    22775354.348 7  93261280.51747
        29.600    22775353.59847  22775348.855 4  89375385.411 4        34.700
  21697119.344 9 114019148.252 9        49.000                    88846113.10949
        39.900    21697122.40249
  23664319.898 6 124356851.785 6        40.900    23664324.508 7  96901460.92947
        26.100    23664323.85247  23664325.492 3  92863893.552 3        33.100
  24634292.109 5 129454135.985 5        37.700                   100873323.71646
        20.100    24634295.23846
  24742146.234 5 130020836.615 5        37.600    24742149.406 5 101314962.16545
        19.900    24742149.40245
  20443681.891 9 107432305.912 9        51.500    20443689.125 9  83713503.58349
        55.500    20443688.21549  20443684.188 7  80225428.204 7        42.800
  24150271.438 7 126910525.673 7        41.100                    98891333.00947
        28.500    24150273.18847
  20851768.813 9 109576807.271 9        51.300    20851775.195 9  85384555.35649
        54.900    20851774.73049  20851771.059 7  81826856.953 7        41.700
  23750772.336 5 124811153.718 5        35.700                    97255474.21945
        17.800    23750774.71145
  21479254.719 9 112874256.545 9        51.400    21479260.613 9  87954040.65049
        54.500    21479260.55949  21479255.684 6  84289192.878 6        40.000
 21  1  2  1 21 30.0000000  0 11G32G01G21G23G16G14G08G22G27G20G10
  23446344.641 7 123211364.881 7        42.600    23446351.176 7  96008883.51449
        41.300    23446350.33249  23446346.918 3  92008508.162 3        33.100
  22758392.719 7 119596180.376 7        43.100    22758400.441 7  93191857.11348
        30.200    22758399.61348  22758395.781 5  89308854.633 5        35.000
  21688722.219 9 113975019.870 9        49.200                    88811727.36849
        40.400    21688725.00849
  23683233.750 6 124456245.769 6        40.200    23683239.199 7  96978910.76947
        25.000    23683237.67247  23683239.188 3  92938116.297 3        32.400
  24655979.961 6 129568104.126 6        38.100                   100962130.05846
        20.400    24655982.15646
  24726248.984 5 129937299.302 5        37.400    24726253.602 6 101249868.18146
        20.100    24726252.94146
  20439512.414 9 107410393.536 9        51.900    20439519.297 9  83696428.99849
        56.300    20439518.37549  20439514.453 7  80209065.067 7        42.600
  24130008.078 7 126804038.439 7        41.400                    98808355.95947
        27.900    24130009.07447
  20862473.211 9 109633059.828 9        51.400    20862479.805 9  85428388.51549
        55.100    20862479.16849  20862475.531 7  81868863.738 7        42.100
  23769683.172 5 124910526.477 5        37.000                    97332907.54346
        20.400    23769685.24246
  21489639.789 9 112928831.044 9        51.700    21489645.676 9  87996566.23749
        54.400    21489645.67249  21489640.625 6  84329946.565 6        39.200
 21  1  2  1 22  0.0000000  0 11G32G01G21G23G16G14G08G22G27G20G10
  23431689.266 7 123134350.646 7        42.800    23431695.855 7  95948872.43249
        41.100    23431695.21949  23431691.859 3  91950997.516 3        32.300
  22741472.148 7 119507260.536 7        42.400    22741479.383 7  93122568.98548
        30.400    22741479.00448  22741474.707 4  89242453.521 4        34.700
  21680365.766 9 113931106.156 9        48.700                    88777508.89049
        40.100    21680368.51649
  23702186.422 6 124555838.764 6        40.300    23702190.867 7  97056515.70847
        27.000    23702190.10947  23702191.172 2  93012487.708 2        31.800
  24677669.750 6 129682086.093 6        38.100                   101050947.17146
        21.100    24677673.21946
  24710421.438 6 129854121.811 6        38.700    24710425.621 6 101185054.49546
        20.900    24710424.66846
  20435431.273 9 107388946.587 9        51.900    20435438.152 9  83679717.08849
        56.000    20435437.11349  20435433.445 7  80193049.479 7        42.700
  24109773.188 7 126697708.618 7        41.400                    98725501.53247
        27.600    24109775.11747
  20873258.891 9 109689739.022 9        50.300    20873265.313 9  85472554.11649
        55.000    20873264.90249  20873261.395 7  81911189.103 7        41.800
  23788622.469 5 125010060.335 5        37.400                    97410466.37745
        19.900    23788626.49245
  21500108.188 9 112983843.826 9        50.800    21500114.121 9  88039433.33549
        53.900    21500114.00049  21500109.363 6  84371027.523 6        39.600
 21  1  2  1 22 30.0000000  0 11G32G01G21G23G16G14G08G22G27G20G10
  23417091.414 7 123057637.638 7        43.300    23417098.117 7  95889096.05749
        41.100    23417097.09049  23417093.148 3  91893711.838 3        32.300
  22724583.633 7 119418514.578 7        42.500    22724591.461 7  93053416.32948
        30.100    22724591.33648  22724586.871 3  89176182.209 3        33.800
  21672049.781 9 113887406.383 9        48.700                    88743457.12449
        40.300    21672052.48449
  23721175.492 6 124655628.037 6        40.600    23721180.070 7  97134273.56147
        26.400    23721179.57047  23721180.238 2  93087005.652 2        31.000
  24699362.453 5 129796080.042 5        37.800                   101139773.59546
        20.100    24699365.59846
  24694660.969 5 129771306.205 5        35.600    24694666.074 6 101120522.80645
        19.000    24694665.44945
  20431438.766 9 107367965.303 9        51.500    20431445.629 9  83663368.03049
        55.600    20431444.50449  20431440.727 7  80177381.627 7        42.500
  24089569.555 6 126591537.221 6        40.500                    98642770.61547
        26.100    24089571.50847
  20884125.977 9 109746843.655 9        50.700    20884132.117 9  85517051.22949
        55.000    20884131.65649  20884127.895 7  81953832.155 7        41.700
  23807594.180 5 125109752.887 5        37.900                    97488148.84446
        21.100    23807597.51646
  21510659.594 9 113039292.404 9        50.300    21510665.961 9  88082640.02049
        54.000    21510665.62549  21510660.961 6  84412433.935 6        39.800
 21  1  2  1 23  0.0000000  0 11G32G01G21G23G16G14G08G22G27G20G10
  23402551.258 7 122981229.001 7        43.300    23402557.926 7  95829556.85749
        41.600    23402557.29349  23402553.246 3  91836653.447 3        32.200
  22707729.164 7 119329943.681 7        41.600    22707737.000 7  92984400.06748
        31.500    22707737.10948  22707732.355 4  89110041.648 4        34.700
  21663775.141 9 113843921.369 9        49.500                    88709572.70549
        39.900    21663777.47749
  23740201.563 6 124755611.345 6        40.800    23740205.719 7  97212182.60447
        25.500    23740205.43047  23740206.887 2  93161668.48912        31.400
  24721056.734 6 129910083.183 6        38.300                   101228607.22745
        19.900    24721058.53545
  24678971.789 5 129688855.339 5        37.900    24678975.223 5 101056275.41845
        19.300    24678974.71945
  20427535.063 9 107347451.867 9        51.700    20427542.063 9  83647383.53249
        56.400    20427540.92649  20427537.156 7  80162063.158 7        42.300
  24069397.672 7 126485526.623 7        41.600                    98560164.95847
        26.500    24069398.03547
  20895073.359 9 109804373.220 9        51.300    20895079.746 9  85561879.45849
        55.300    20895079.19549  20895075.586 7  81996792.559 7        41.600
  23826595.039 6 125209602.038 6        39.000                    97565953.37746
        20.600    23826597.86746
  21521293.672 9 113095175.128 9        50.700    21521300.047 9  88126184.99749
        54.100    21521299.95349  21521295.379 6  84454164.533 6        40.200
 21  1  2  1 23 30.0000000  0 12G32G01G21G23G16G28G14G08G22G27G20G10
  23388069.383 7 122905127.478 7        43.100    23388076.320 7  95770256.96549
        42.000    23388075.61349  23388071.484 3  91779824.372 3        32.600
  22690908.758 7 119241548.427 7        41.700    22690916.184 7  92915520.66948
        30.500    22690916.14848  22690911.910 4  89044032.250 4        34.900
  21655540.891 9 113800651.247 9        48.800                    88675855.72449
        40.500    21655543.50849
  23759263.789 6 124855786.214 6        40.200    23759268.441 7  97290240.94146
        24.900    23759268.40246  23759269.832 2  93236474.412 2        31.900
  24742751.016 5 130024092.650 5        37.300                   101317445.75146
        20.600    24742754.29746
  25499549.711 6 134001041.19016        38.400

  24663351.227 5 129606771.625 5        36.900    24663356.176 6 100992314.04446
        20.600    24663355.46546
  20423720.453 9 107327406.726 9        51.400    20423727.445 9  83631763.93749
        55.900    20423726.41849  20423722.840 7  80147094.369 7        42.500
  24049254.539 7 126379678.400 7        41.200                    98477685.81547
        28.000    24049256.03147
  20906101.438 9 109862326.779 9        51.200    20906107.754 9  85607038.06949
        55.100    20906107.53549  20906103.871 7  82040069.555 7        41.500
  23845624.742 6 125309605.588 6        39.500                    97643878.21746
        21.500    23845627.53946
  21532010.383 9 113151489.820 9        50.300    21532016.441 9  88170066.57149
        54.100    21532016.04349  21532011.590 6  84496217.717 6        39.600
 21  1  2  1 24  0.0000000  0 12G32G01G21G23G16G28G14G08G22G27G20G10
  23373646.805 7 122829336.035 7        43.700    23373653.641 7  95711198.70249
        42.000    23373652.81349  23373648.957 3  91723226.832 3        33.500
  22674121.258 7 119153329.724 7        42.400    22674128.660 7  92846778.86348
        31.200    22674128.36748  22674123.234 4  88978154.676 4        34.300
  21647347.695 9 113757595.819 9        48.800                    88642306.05249
        40.400    21647350.89549
  23778362.414 6 124956150.328 6        40.700    23778367.102 6  97368446.73847
        25.100    23778366.96947  23778368.410 3  93311421.607 3        32.700
  24764447.820 5 130138106.135 5        37.200                   101406287.42646
        20.400    24764450.55546
  25483425.258 1 133916324.522 1        29.900                   104350385.18255
        15.600    25483429.55945
  24647801.758 5 129525057.712 5        37.500    24647806.289 6 100928640.84546
        20.400    24647805.40646
  20419995.313 9 107307831.699 9        51.300    20420002.461 9  83616510.66149
        55.900    20420001.58249  20419997.613 7  80132476.653 7        42.400
  24029143.734 7 126273994.625 7        41.100                    98395334.83147
        28.300    24029144.80547
  20917210.266 9 109920703.594 9        51.400    20917216.613 9  85652526.48549
        54.900    20917216.27049  20917212.734 7  82083662.621 7        41.800
  23864683.133 6 125409761.575 6        39.000                    97721921.84946
        22.000    23864687.05946
  21542808.609 9 113208234.547 9        51.100    21542814.527 9  88214283.23849
        54.200    21542814.27749  21542809.914 6  84538592.018 6        39.900
 21  1  2  1 24 30.0000000  0 12G32G01G21G23G16G28G14G08G22G27G20G10
  23359283.680 7 122753857.690 7        43.600    23359290.891 7  95652384.40549
        42.100    23359290.00049  23359286.000 3  91666863.107 3        33.400
  22657367.094 7 119065288.464 7        42.300    22657375.410 7  92778175.31748
        31.100    22657374.87148  22657370.766 4  88912409.683 4        34.900
  21639195.227 9 113714754.938 9        48.600                    88608923.55949
        40.600    21639198.50049
  23797496.945 6 125056701.359 6        40.400    23797501.363 6  97446798.18246
        24.200    23797500.94546  23797501.852 3  93386508.375 3        32.800
  24786143.539 5 130252120.511 5        36.000                   101495129.76645
        19.000    24786147.00845
  25467353.344 6 133831852.21416        38.500                   104284562.59555
        18.300    25467356.04745
  24632323.898 6 129443716.269 6        38.400    24632327.102 6 100865257.85046
        20.600    24632326.33646
  20416360.016 9 107288727.763 9        51.200    20416367.281 9  83601624.48049
        55.700    20416366.10949  20416362.543 7  80118210.733 7        42.700
  24009064.195 6 126168477.123 6        40.500                    98313113.40847
        27.800    24009065.35947
  20928399.148 9 109979502.975 9        50.000    20928405.883 9  85698344.18249
        55.000    20928405.26649  20928401.762 7  82127571.228 7        41.600
  23883772.273 6 125510067.811 6        38.900                    97800082.53146
        21.300    23883774.64546
  21553688.234 9 113265407.495 9        49.400    21553694.113 9  88258833.59049
        53.900    21553693.85549  21553689.211 6  84581286.076 6        39.900
 21  1  2  1 25  0.0000000  0 12G32G01G21G23G16G28G14G08G22G27G20G10
  23344980.672 7 122678695.102 7        43.900    23344987.805 7  95593816.15649
        42.200    23344986.82049  23344982.988 3  91610735.258 3        32.900
  22640647.430 7 118977425.197 7        42.000    22640655.063 7  92709710.46248
        30.900    22640654.87148  22640650.223 5  88846797.445 5        35.400
  21631083.922 9 113672129.119 9        49.200                    88575708.64349
        40.400    21631086.89549
  23816666.008 6 125157436.744 6        40.400    23816670.898 7  97525293.28346
        24.900    23816670.27046  23816671.086 3  93461732.896 3        32.500
  24807838.961 5 130366133.891 5        37.300                   101583971.39946
        20.100    24807842.76646
  25451325.938 5 133747626.060 5        37.600                   104218931.77145
        17.800    25451327.60945
  24616915.922 6 129362749.486 6        38.300    24616919.602 5 100802166.85946
        20.100    24616918.51646
  20412814.891 9 107270096.122 9        51.300    20412821.781 9  83587106.30549
        56.200    20412820.43449  20412816.805 7  80104297.466 7        42.500
  23989016.773 6 126063127.577 6        40.900                    98231022.86947
        27.700    23989018.20347
  20939668.453 9 110038723.805 9        49.800    20939675.090 9  85744490.27049
        55.000    20939674.53549  20939670.801 7  82171794.592 7        41.300
  23902886.992 5 125610522.095 5        37.900                    97878358.56946
        20.100    23902889.97746
  21564648.852 9 113323006.240 9        49.300    21564654.766 9  88303715.71749
        53.800    21564654.59849  21564650.242 6  84624298.125 6        39.400
 21  1  2  1 25 30.0000000  0 12G32G01G21G23G16G28G14G08G22G27G20G10
  23330738.461 7 122603851.311 7        43.800    23330745.277 7  95535496.31149
        42.300    23330744.55549  23330740.922 3  91554845.400 3        32.800
  22623961.492 7 118889740.929 7        41.800    22623969.039 7  92641385.08747
        29.600    22623968.20747  22623964.457 5  88781318.994 5        35.100
  21623013.344 9 113629718.172 9        49.000                    88542661.15049
        40.500    21623016.04749
  23835870.445 6 125258354.298 6        39.800    23835875.031 7  97603930.32047
        26.200    23835875.18847  23835875.797 3  93537093.345 3        33.300
  24829533.852 5 130480143.614 5        35.600                   101672810.12045
        17.800    24829537.93845
  25435343.086 3 133663648.373 3        33.200                   104153494.60145
        15.600    25435347.99245
  24601580.609 6 129282160.159 6        39.200    24601584.781 6 100739370.01946
        20.600    24601583.31646
  20409359.438 9 107251938.270 9        51.500    20409366.508 9  83572957.31549
        55.800    20409364.94549  20409361.465 7  80090738.000 7        42.600
  23969002.680 7 125957947.894 7        41.100                    98149064.68847
        27.500    23969002.89547
  20951017.945 9 110098365.487 9        50.500    20951024.680 9  85790964.31049
        55.600    20951023.87949  20951020.055 6  82216332.194 6        40.800
  23922030.750 5 125711122.730 5        36.300                    97956748.68045
        19.600    23922034.00845
  21575690.031 9 113381029.050 9        49.500    21575696.230 9  88348928.29849
        53.800    21575695.93449  21575691.180 6  84667626.827 6        39.500
 21  1  2  1 26  0.0000000  0 12G32G01G21G23G16G28G14G08G22G27G20G10
  23316557.203 7 122529329.018 7        43.900    23316564.129 7  95477426.99749
        42.800    23316563.51249  23316559.566 3  91499195.637 3        33.400
  22607310.031 7 118802236.236 7        42.100    22607317.801 7  92573199.63648
        31.300    22607317.01248  22607313.055 4  88715974.620 4        34.900
  21614983.781 9 113587521.810 9        49.200                    88509780.88249
        41.300    21614986.82049
  23855108.219 6 125359451.357 6        39.900    23855113.684 7  97682707.24747
        26.900    23855112.84047  23855113.563 3  93612587.885 3        33.700
  24851229.289 6 130594146.746 6        38.200                   101761643.69546
        20.600    24851232.14546
  25419412.563 5 133579921.444 5        35.100                   104088252.72245
        16.900    25419415.03545
  24586316.352 6 129201950.585 6        38.100    24586321.434 6 100676869.03446
        21.800    24586320.60546
  20405994.438 9 107234254.624 9        51.000    20406001.250 9  83559177.84549
        56.100    20405999.87549  20405996.539 7  80077532.698 7        42.900
  23949018.844 6 125852939.726 6        40.600                    98067240.16347
        28.300    23949021.25847
  20962447.445 9 110158426.934 9        49.800    20962453.969 9  85837765.43449
        55.000    20962453.47349  20962449.461 7  82261183.266 7        41.700
  23941201.266 4 125811867.063 4        34.500                    98035250.73945
        18.600    23941205.52745
  21586811.813 9 113439473.633 9        49.300    21586817.949 9  88394469.52749
        53.900    21586817.83649  21586812.762 6  84711270.511 6        39.400
 21  1  2  1 26 30.0000000  0 12G32G01G21G23G16G28G14G08G22G27G20G10
  23302438.195 7 122455131.319 7        44.100    23302444.734 7  95419610.61449
        43.000    23302443.89549  23302439.629 3  91443788.265 3        33.000
  22590692.922 7 118714912.196 7        42.200    22590700.070 7  92505154.96048
        31.000    22590699.82848  22590695.707 4  88650765.150 4        34.900
  21606994.930 9 113545540.621 9        48.800                    88477068.28449
        40.900    21606998.05149
  23874381.023 6 125460725.914 6        40.000    23874384.770 7  97761622.46147
        26.000    23874384.24647  23874385.520 3  93688215.022 3        33.400
  24872921.258 5 130708140.845 5        37.200                   101850470.29545
        18.600    24872924.72345
  25403529.086 6 133496447.957 6        39.100                   104023208.49745
        17.800    25403530.89145
  24571125.609 6 129122123.469 6        38.100    24571129.949 6 100614666.09545
        19.300    24571129.69945
  20402719.922 9 107217047.153 9        50.400    20402726.844 9  83545769.41849
        55.300    20402725.41849  20402722.148 7  80064682.949 7        42.800
  23929070.727 7 125748105.152 7        41.200                    97985550.88647
        28.100    23929071.61347
  20973956.742 9 110218907.529 9        49.900    20973963.156 9  85884893.16949
        55.000    20973962.51249  20973958.684 7  82306347.348 7        41.700
  23960399.305 5 125912753.269 5        35.900                    98113863.30845
        19.900    23960403.66845
  21598013.258 9 113498338.247 9        49.400    21598019.438 9  88440338.04849
        53.700    21598019.39849  21598014.441 6  84755227.836 6        39.000
 21  1  2  1 27  0.0000000  0 12G32G01G21G23G16G28G14G08G22G27G20G10
  23288381.242 7 122381260.524 7        44.600    23288387.996 7  95362048.96549
        43.200    23288386.48849  23288383.332 3  91388624.999 3        33.100
  22574109.813 7 118627769.015 7        42.300    22574117.656 7  92437251.21448
        31.000    22574117.31348  22574113.504 5  88585690.734 5        35.000
  21599047.141 9 113503773.772 9        49.400                    88444522.69549
        41.000    21599049.92649
  23893685.117 6 125562174.973 6        39.600    23893690.129 7  97840673.69247
        25.100    23893689.50447  23893690.402 3  93763972.429 3        32.400
  24894612.898 6 130822123.793 6        39.000                   101939288.17245
        18.600    24894615.54345
  25387693.156 6 133413229.510 6        39.600                   103958362.93646
        20.100    25387695.50046
  24556008.523 5 129042680.805 5        37.300    24556012.617 6 100552762.73145
        19.900    24556011.16045
  20399536.117 9 107200315.784 9        50.400    20399543.090 9  83532731.97549
        55.900    20399541.78949  20399538.168 7  80052188.716 7        42.400
  23909154.211 7 125643445.499 7        42.100                    97903997.92347
        28.000    23909155.68447
  20985545.156 9 110279805.863 9        51.100    20985551.527 9  85932346.41949
        55.100    20985551.00049  20985547.414 7  82351823.382 7        41.500
  23979623.820 5 126013778.605 5        36.800                    98192584.33646
        21.300    23979627.41046
  21609294.156 9 113557620.205 9        49.300    21609300.141 9  88486531.77849
        53.500    21609300.31649  21609295.074 6  84799496.844 6        38.800
 21  1  2  1 27 30.0000000  0 12G32G01G21G23G16G28G14G08G22G27G20G10
  23274386.445 7 122307719.696 7        44.500    23274393.629 7  95304744.42949
        42.800    23274392.32449  23274389.223 3  91333708.126 3        33.100
  22557561.430 7 118540807.740 7        42.300    22557568.777 7  92369489.20248
        31.600    22557568.46548  22557564.660 5  88520752.120 5        35.400
  21591139.711 9 113462221.785 9        48.900                    88412144.52749
        40.900    21591142.65249
  23913023.336 6 125663796.493 6        38.800    23913028.332 7  97919859.26447
        26.300    23913027.76647  23913028.492 3  93839858.646 3        32.200
  24916299.484 6 130936092.167 6        38.800                   102028094.69145
        19.600    24916302.71145
  25371904.469 4 133330268.901 4        34.600                   103893718.16245
        15.600    25371907.54745
  24540964.992 5 128963625.271 5        37.100    24540968.910 6 100491160.98946
        20.400    24540969.04746
  20396443.109 9 107184062.577 9        50.500    20396450.195 9  83520067.12649
        55.700    20396448.93049  20396444.926 7  80040051.579 7        42.500
  23889270.961 7 125538962.722 7        41.200                    97822582.76947
        27.100    23889273.08247
  20997212.992 9 110341121.214 9        49.900    20997219.488 9  85980124.60949
        55.200    20997218.84449  20997215.176 7  82397610.809 7        41.500
  23998875.242 4 126114941.494 4        34.500                    98271412.54945
        19.000    23998877.98045
  21620654.328 9 113617317.714 9        49.000    21620660.270 9  88533049.31349
        53.700    21620660.21149  21620655.324 6  84844076.143 6        39.100
 21  1  2  1 28  0.0000000  0 12G32G01G21G23G16G28G14G08G22G27G20G10
  23260456.039 7 122234511.679 7        44.500    23260462.211 7  95247699.23149
        43.200    23260461.73049  23260457.852 3  91279039.826 3        33.100
  22541048.586 7 118454029.221 7        42.400    22541055.844 7  92301869.60048
        31.200    22541055.88348  22541052.059 5  88455950.019 5        35.300
  21583274.047 9 113420884.558 9        49.000                    88379933.70649
        40.600    21583276.32049
  23932394.109 6 125765588.139 6        40.200    23932398.676 7  97999177.41047
        26.400    23932398.48847  23932399.637 3  93915871.83013        33.200
  24937983.266 5 131050044.209 5        37.000                   102116888.41745
        19.300    24937987.65645
  25356167.867 5 133247568.278 5        36.100                   103829276.18845
        17.400    25356171.22745
  24525994.766 5 128884959.403 5        37.700    24525999.270 6 100429862.90046
        21.300    24525999.03146
  20393441.563 9 107168288.540 9        50.700    20393448.559 9  83507775.66449
        55.700    20393447.39549  20393443.512 7  80028272.281 7        42.700
  23869423.367 7 125434658.817 7        41.300                    97741307.00847
        28.200    23869424.21147
  21008960.094 9 110402852.759 9        49.800    21008966.555 9  86028227.10749
        55.100    21008965.93849  21008962.074 7  82443709.061 7        41.200
  24018151.422 5 126216239.852 5        35.700                    98350346.30845
        18.600    24018154.13745
  21632093.094 9 113677428.722 9        49.500    21632099.316 9  88579889.05749
        53.700    21632099.01649  21632094.223 6  84888964.221 6        39.800
 21  1  2  1 28 30.0000000  0 12G32G01G21G23G16G28G14G08G22G27G20G10
  23246588.961 7 122161639.401 7        44.500    23246595.367 7  95190915.62849
        43.300    23246594.48849  23246590.332 3  91224622.219 3        32.800
  22524570.156 7 118367434.229 7        43.200    22524577.602 7  92234393.02948
        31.600    22524577.23048  22524573.172 5  88391284.996 5        35.100
  21575448.313 9 113379762.159 9        49.000                    88347890.28549
        41.600    21575450.94549
  23951796.047 6 125867547.516 6        38.900    23951800.781 7  98078626.26646
        24.700    23951800.43446  23951801.449 2  93992010.296 2        31.800
  24959664.414 6 131163976.811 6        38.400                   102205667.11445
        19.300    24959668.14145
  25340480.297 5 133165129.769 5        37.800                   103765038.35345
        19.600    25340482.88345
  24511100.008 5 128806685.775 5        37.900    24511105.238 6 100368870.45846
        21.500    24511105.46546
  20390530.867 9 107152994.668 9        50.500    20390538.246 9  83495858.35549
        56.000    20390537.05149  20390533.063 7  80016851.503 7        42.600
  23849609.195 6 125330535.465 6        40.900                    97660171.93147
        27.500    23849610.97347
  21020786.414 9 110464999.606 9        51.300    21020792.711 9  86076653.22049
        55.000    21020792.07049  21020788.195 7  82490117.402 7        41.400
  24037453.258 5 126317671.656 5        36.400                    98429384.08945
        19.600    24037456.23445
  21643610.266 9 113737951.230 9        50.700    21643615.949 9  88627049.44349
        53.800    21643615.96549  21643611.629 6  84934159.627 6        39.600
 21  1  2  1 29  0.0000000  0 12G32G01G21G23G16G28G14G08G22G27G20G10
  23232785.289 7 122089105.630 7        44.500    23232792.613 7  95134395.80949
        43.300    23232791.82849  23232787.375 3  91170457.410 3        32.900
  22508125.977 7 118281023.555 7        42.600    22508133.789 7  92167060.05248
        31.800    22508133.92648  22508129.152 5  88326757.534 5        35.500
  21567663.883 9 113338855.269 9        48.700                    88316014.79049
        40.700    21567666.97749
  23971229.531 6 125969672.366 6        38.400    23971234.359 6  98158204.07146
        23.400    23971233.48446  23971234.434 1  94068272.399 1        30.500
  24981340.711 5 131277887.933 5        36.000                   102294428.98745
        18.600    24981344.27045
  25324842.508 6 133082955.772 6        38.300                   103701006.68345
        16.900    25324846.17245
  24496280.953 6 128728806.716 6        39.300    24496285.145 6 100308185.49146
        22.000    24496285.04346
  20387712.586 9 107138182.355 9        50.300    20387719.391 9  83484316.29149
        55.800    20387718.28149  20387714.230 7  80005790.371 7        42.700
  23829830.008 7 125226594.289 7        41.100                    97579178.84347
        28.300    23829831.37147
  21032691.266 9 110527560.821 9        50.400    21032697.805 9  86125402.21549
        55.100    21032697.18849  21032693.375 7  82536835.188 7        41.300
  24056780.813 6 126419234.710 6        38.200                    98508524.07245
        19.300    24056783.54345
  21655205.289 9 113798883.088 9        50.000    21655211.332 9  88674528.80849
        53.200    21655210.82849  21655206.723 6  84979660.649 6        39.600
 21  1  2  1 29 30.0000000  0 12G32G01G21G23G16G28G14G08G22G27G20G10
  23219048.422 7 122016913.190 7        43.800    23219054.832 7  95078141.97049
        43.400    23219053.80949  23219049.680 3  91116547.487 3        33.500
  22491718.313 7 118194798.007 7        43.200    22491725.836 7  92099871.36348
        31.600    22491725.28548  22491720.945 5  88262368.401 5        35.200
  21559920.648 9 113298163.277 9        48.400                    88284306.76349
        41.000    21559923.35249
  23990694.250 5 126071960.264 5        37.800    23990699.188 6  98237908.91746
        21.800    23990698.27746  23990699.066 1  94144656.15911        30.500
  25003013.055 5 131391774.640 5        37.700                   102383171.86645
        18.600    25003016.52745
  25309256.023 5 133001048.679 5        37.500                   103637182.90345
        18.300    25309260.48445
  24481537.180 6 128651324.735 6        39.000    24481540.625 7 100247809.92546
        22.000    24481540.79746
  20384985.414 9 107123852.262 9        50.500    20384992.492 9  83473149.97749
        55.800    20384991.33249  20384987.313 7  79995089.323 7        42.500
  23810084.734 7 125122837.317 7        41.400                    97498329.26847
        27.800    23810087.25847
  21044675.000 9 110590535.419 9        49.600    21044681.488 9  86174473.33049
        54.900    21044680.95749  21044677.109 7  82583861.678 7        41.300
  24076132.234 6 126520926.843 6        38.100                    98587764.68345
        19.000    24076134.51245
  21666877.633 9 113860222.211 9        48.900    21666883.859 9  88722325.51749
        53.500    21666883.37949  21666879.152 6  85025465.844 6        39.200
 21  1  2  1 30  0.0000000  0 12G32G01G21G23G16G28G14G08G22G27G20G10
  23205375.453 7 121945064.579 7        44.500    23205382.090 7  95022156.03749
        43.200    23205381.19949  23205377.781 3  91062894.261 3        33.300
  22475345.797 7 118108758.093 7        43.000    22475352.383 7  92032827.30248
        31.600    22475352.18448  22475348.102 5  88198117.844 5        35.400
  21552217.992 9 113257686.134 9        48.300                    88252766.13949
        40.800    21552220.93849
  24010190.094 6 126174408.619 6        38.000    24010194.973 6  98317738.79146
        22.900    24010194.24646  24010194.559 1  94221159.862 1        30.100
  25024679.930 5 131505634.445 5        37.700                   102471893.78246
        20.600    25024683.27746
  25293720.391 4 132919410.088 4        34.000                   103573568.40944
        14.800    25293723.97744
  24466869.039 6 128574241.923 6        38.600    24466871.824 6 100187745.38246
        20.900    24466871.42246
  20382350.625 9 107110005.363 9        50.400    20382357.379 9  83462360.17949
        56.100    20382356.28149  20382352.488 7  79984749.093 7        42.800
  23790378.141 7 125019266.088 7        42.900                    97417624.42448
        30.200    23790378.16048
  21056736.883 9 110653922.155 9        51.000    21056743.566 9  86223865.59049
        54.900    21056743.15649  21056739.297 6  82631195.924 6        40.700
  24095507.688 6 126622746.060 6        38.200                    98667104.35945
        18.300    24095509.44545
  21678627.016 9 113921966.193 9        49.900    21678633.195 9  88770437.70949
        53.600    21678633.00449  21678628.367 6  85071573.356 6        39.400
 21  1  2  1 30 30.0000000  0 12G32G01G21G23G16G28G14G08G22G27G20G10
  23191769.867 7 121873562.739 7        44.500    23191775.992 7  94966440.32249
        43.600    23191774.98849  23191771.500 3  91009500.046 3        33.900
  22459008.055 7 118022904.732 7        42.800    22459015.328 7  91965928.61648
        32.600    22459014.97748  22459010.516 5  88134006.599 5        35.900
  21544556.281 9 113217423.985 9        48.700                    88221393.03949
        41.200    21544559.32849
  24029714.781 5 126277015.325 5        37.300    24029719.270 6  98397692.03946
        22.200    24029719.48446  24029720.746 1  94297781.693 1        30.700
  25046341.266 5 131619465.227 5        36.800                   102560593.12745
        18.600    25046344.55145
  25278237.633 5 132838042.955 5        35.300                   103510165.39545
        16.300    25278240.38345
  24452275.992 5 128497561.020 5        37.800    24452280.730 6 100127994.01646
        20.100    24452279.46946
  20379807.836 9 107096642.955 9        51.200    20379814.715 9  83451947.91049
        56.200    20379813.41449  20379809.758 7  79974770.675 7        43.000
  23770704.094 7 124915882.435 7        43.400                    97337065.74447
        29.900    23770704.83247
  21068877.641 9 110717720.217 9        51.800    21068884.164 9  86273578.36349
        54.900    21068883.42649  21068879.664 7  82678837.337 7        41.600
  24114906.406 5 126724690.179 5        35.500                    98746541.41445
        15.600    24114908.86745
  21690453.633 9 113984113.081 9        50.700    21690459.219 9  88818863.85049
        53.400    21690459.18449  21690454.477 6  85117981.723 6        39.800
 21  1  2  1 31  0.0000000  0 12G32G01G21G23G16G28G14G08G22G27G20G10
  23178229.172 7 121802410.428 7        44.100    23178236.156 7  94910996.95749
        43.700    23178235.50849  23178231.598 3  90956366.874 3        33.500
  22442705.781 7 117937238.643 7        42.900    22442713.637 7  91899175.85748
        32.400    22442713.59848  22442708.980 5  88070035.225 5        36.300
  21536935.422 9 113177376.623 9        48.600                    88190187.31349
        41.000    21536938.42649
  24049270.063 6 126379777.923 6        38.600    24049274.559 6  98477766.81146
        20.100    24049273.96946  24049275.438 1  94374520.018 1        30.300
  25067995.719 5 131733264.152 5        36.200                   102649267.57345
        19.000    25067999.68445
  25262807.016 6 132756949.278 6        38.800                   103446975.53545
        18.600    25262808.59045
  24437760.930 6 128421284.263 6        38.300    24437765.988 6 100068557.54646
        21.300    24437764.50046
  20377357.344 9 107083765.524 9        50.700    20377364.121 9  83441913.54549
        55.900    20377362.95349  20377359.465 7  79965154.422 7        42.700
  23751066.203 7 124812688.231 7        42.000                    97256654.69847
        28.300    23751067.39547
  21081095.742 9 110781928.629 9        51.300    21081102.289 9  86323610.89049
        55.000    21081101.63749  21081098.297 7  82726785.163 7        41.200
  24134329.367 5 126826757.075 5        36.300                    98826074.00745
        17.400    24134331.90645
  21702355.484 9 114046660.740 9        50.300    21702361.656 9  88867602.28149
        53.400    21702361.75049  21702356.801 6  85164689.409 6        38.900
 21  1  2  1 31 30.0000000  0 12G32G01G21G23G16G28G14G08G22G27G20G10
  23164756.367 7 121731610.746 7        44.800    23164763.672 7  94855828.38249
        43.500    23164762.60249  23164758.578 3  90903496.958 3        32.900
  22426440.109 7 117851760.970 7        43.100    22426447.879 7  91832569.90348
        31.800    22426447.50848  22426443.520 5  88006204.558 5        35.400
  21529355.641 9 113137544.140 9        48.700                    88159149.02849
        40.400    21529358.30949
  24068854.000 5 126482694.497 5        37.800    24068859.949 6  98557961.56846
        21.100    24068858.87546  24068859.426 1  94451373.27211        30.600
  25089645.109 5 131847028.748 5        37.900                   102737915.32846
        21.500    25089648.77346
  25247426.961 5 132676131.531 5        37.700                   103384000.63545
        16.900    25247428.69145
  24423324.242 6 128345414.443 6        38.800    24423328.164 6 100009438.21046
        22.200    24423326.69946
  20374999.555 9 107071375.295 9        50.700    20375006.301 9  83432258.82149
        55.400    20375005.30549  20375001.801 7  79955901.959 7        42.400
  23731465.742 7 124709685.254 7        41.600                    97176392.65447
        28.000    23731466.67247
  21093392.203 9 110846546.653 9        50.700    21093398.535 9  86373962.59649
        54.900    21093398.01649  21093394.797 7  82775038.879 7        41.100
  24153775.070 4 126928945.231 4        34.800                    98905701.12345
        16.300    24153777.73845
  21714333.898 9 114109607.406 9        49.600    21714340.406 9  88916651.62449
        53.200    21714340.24249  21714335.449 6  85211695.004 6        39.200
 21  1  2  1 32  0.0000000  0 12G32G01G21G23G16G28G14G08G22G27G20G10
  23151351.578 7 121661166.656 7        44.200    23151358.160 7  94800936.90149
        43.800    23151357.51649  23151353.684 4  90850892.609 4        34.300
  22410210.016 7 117766472.637 7        42.600    22410217.949 7  91766111.50148
        31.800    22410217.61748  22410213.211 5  87942515.252 5        35.400
  21521816.961 9 113097927.617 9        48.500                    88128279.01749
        40.500    21521819.72349
  24088467.242 5 126585762.845 5        37.500    24088472.918 6  98638274.50846
        20.400    24088472.44946  24088473.008 2  94528339.85512        31.300
  25111285.586 4 131960756.774 4        34.800                   102826534.55745
        17.800    25111289.97745
  25232101.414 5 132595592.417 5        37.900                   103321242.82645
        16.300    25232102.46545
  24408964.570 6 128269954.198 6        39.400    24408968.473 6  99950638.00946
        22.500    24408967.17646
  20372734.641 9 107059472.987 9        50.700    20372741.406 9  83422984.28749
        56.200    20372740.45349  20372736.723 7  79947013.872 7        42.300
  23711902.070 7 124606875.608 7        42.000                    97096281.23947
        29.200    23711902.73447
  21105766.492 9 110911573.494 9        51.000    21105773.094 9  86424632.85349
        55.000    21105772.15649  21105768.977 6  82823597.882 6        40.900
  24173243.773 3 127031252.771 3        33.300                    98985421.24842
        12.600    24173246.66442
  21726388.156 9 114172951.068 9        50.200    21726393.930 9  88966010.30649
        53.300    21726393.72749  21726388.898 6  85258997.084 6        39.500
 21  1  2  1 32 30.0000000  0 12G32G01G21G23G16G28G14G08G22G27G20G10
  23138014.977 7 121591080.763 7        44.700    23138021.410 7  94746324.51649
        43.900    23138020.94149  23138016.930 3  90798555.749 3        33.700
  22394016.813 7 117681374.412 7        43.400    22394024.473 8  91699801.21948
        33.400    22394024.23848  22394019.762 5  87878967.898 5        36.000
  21514319.430 9 113058526.869 9        48.900                    88097577.13749
        41.200    21514322.02749
  24108109.758 6 126688980.597 6        38.800    24108113.711 6  98718703.92146
        20.900    24108113.78146  24108115.422 2  94605418.08412        31.600
  25132921.352 5 132074446.119 5        36.000                   102915123.58945
        17.400    25132924.47345
  25216828.109 5 132515334.098 5        36.300                   103258703.86745
        18.300    25216830.36345
  24394682.977 6 128194905.687 6        38.000    24394687.191 6  99892158.63246
        20.900    24394686.17246
  20370562.688 9 107048059.423 9        50.400    20370569.594 9  83414090.59349
        55.400    20370568.41849  20370564.473 7  79938490.751 7        42.400
  23692374.508 7 124504261.205 7        41.500                    97016321.97647
        28.600    23692375.68447
  21118218.172 9 110977008.052 9        51.200    21118224.922 9  86475620.81349
        55.000    21118224.12949  21118220.496 7  82872461.334 7        41.500
  24192733.875 3 127133677.501 3        32.500                    99065232.68143
        13.900    24192737.22743
  21738517.188 9 114236689.468 9        49.900    21738523.078 9  89015676.60049
        53.400    21738522.85949  21738517.930 6  85306593.931 6        39.500
 21  1  2  1 33  0.0000000  0 12G32G01G21G23G16G28G14G08G22G27G20G10
  23124746.602 8 121521354.898 8        45.300    23124753.215 7  94691992.66849
        43.900    23124752.40649  23124748.820 3  90746487.762 3        33.400
  22377859.500 7 117596466.055 7        43.900    22377867.164 7  91633638.89648
        32.800    22377866.74648  22377862.305 5  87815562.354 5        35.400
  21506862.313 9 113019340.600 9        49.300                    88067042.38549
        40.900    21506865.02749
  24127778.680 5 126792344.462 5        37.500    24127783.309 6  98799247.20746
        20.900    24127782.96946  24127784.473 2  94682605.336 2        31.900
  25154547.531 5 132188092.968 5        37.000                   103003679.58045
        18.600    25154550.71145
  25201608.992 5 132435357.636 5        36.900                   103196384.49645
        16.300    25201611.92645
  24380479.742 6 128120270.438 6        38.300    24380484.113 6  99834001.34146
        20.900    24380483.35546
  20368483.297 9 107037134.586 9        50.800    20368490.793 9  83405577.73049
        56.100    20368489.66449  20368485.590 7  79930332.592 7        42.700
  23672884.375 7 124401842.458 7        42.200                    96936515.15047
        28.700    23672885.98847
  21130747.266 9 111042848.287 9        50.800    21130753.816 9  86526924.89449
        55.000    21130753.34049  21130749.391 7  82921627.753 7        41.000
  24212246.984 2 127236216.55912        31.300                    99145133.28053
        13.900    24212249.58243
  21750720.352 9 114300819.589 9        50.200    21750726.695 9  89065648.11749
        52.800    21750726.29749  21750721.355 6  85354483.310 6        38.800
