     2.11           OBSERVATION DATA    G (GPS)             RINEX VERSION / TYPE
teqc  2016Nov7                          20170409 00:13:09UTCPGM / RUN BY / DATE
ZIMM                                                        MARKER NAME
14001M004                                                   MARKER NUMBER
TRIMBLE NETR9       SWISSTOPO                               OBSERVER / AGENCY
5429R49141          TRIMBLE NETR9       5.10                REC # / TYPE / VERS
99390               TRM29659.00     NONE                    ANT # / TYPE
  4331297.3480   567555.6400  4633133.7280                  APPROX POSITION XYZ
        0.0000        0.0000        0.0000                  ANTENNA: DELTA H/E/N
     1     1                                                WAVELENGTH FACT L1/2
    10    C1    L1    S1    C2    L2    S2    P2    C5    L5# / TYPES OF OBSERV
          S5                                                # / TYPES OF OBSERV
    30.0000                                                 INTERVAL
Linux 2.4.21-27.ELsmp|Opteron|gcc -static|Linux x86_64|=+   COMMENT
     2.11           OBSERVATION DATA    M (MIXED)           COMMENT
NetR9 5.10          Receiver Operator   08-APR-17 00:00:00  COMMENT
L2C CARRIER PHASE MEASUREMENTS: PHASE SHIFTS REMOVED        COMMENT
L2C PHASE MATCHES L2 P PHASE                                COMMENT
GLONASS C/A & P PHASE MATCH: PHASE SHIFTS REMOVED           COMMENT
GIOVE-A if present is mapped to satellite ID 51             COMMENT
GIOVE-B if present is mapped to satellite ID 52             COMMENT
Forced Modulo Decimation to 30 seconds                      COMMENT
teqc edited: all GLONASS satellites excluded                COMMENT
teqc edited: all Galileo satellites excluded                COMMENT
  2017     4     8     0     0    0.0000000     GPS         TIME OF FIRST OBS
                                                            END OF HEADER
 17  4  8  0  0  0.0000000  0 10G01G32G08G28G14G03G11G22G27G10
  21037851.273 9 110554669.009 9        53.800    21037858.285 9  86146528.25249
        44.900    21037858.03949  21037854.199 6  82557075.326 6        40.700
  22165448.664 8 116480236.587 8        47.800    22165455.352 9  90763841.81149
        40.000    22165454.49649  22165450.898 5  86982007.991 5        37.500
  20943397.250 9 110058377.139 9        53.200    20943404.262 9  85759775.47149
        47.700    20943403.31649  20943400.219 7  82186442.112 7        41.400
  23514923.734 7 123571756.779 7        43.500                    96289696.83347
        28.900    23514927.36347
  22296093.563 8 117166758.531 8        47.900                    91298798.39249
        35.500    22296097.03949
  23245310.789 8 122154943.527 8        45.800    23245317.992 7  95185691.46948
        33.100    23245317.23848  23245315.438 3  91219608.549 3        33.800
  20236518.352 9 106343631.766 9        50.100                    82865190.55049
        45.300    20236521.61349
  21386618.398 9 112387588.790 9        50.200                    87574639.44549
        41.800    21386619.68449
  23234274.156 8 122096980.324 8        45.800    23234280.660 8  95140546.14448
        33.700    23234279.71548  23234276.992 4  91176348.336 4        34.700
  23416932.367 7 123056847.711 7        44.700    23416938.684 7  95888493.35648
        31.200    23416938.38348  23416934.340 3  91893125.062 3        32.600
 17  4  8  0  0 30.0000000  0 10G01G32G08G28G14G03G11G22G27G10
  21027473.063 9 110500129.664 9        54.400    21027479.918 9  86104030.06649
        45.100    21027479.78949  21027475.539 6  82516347.904 6        40.900
  22165314.133 8 116479530.521 8        47.500    22165320.891 8  90763291.63849
        39.600    22165320.33249  22165316.848 5  86981480.743 5        37.700
  20954379.031 9 110116086.014 9        53.200    20954386.293 9  85804743.42149
        47.500    20954385.46149  20954382.305 7  82229536.396 7        41.300
  23512063.641 8 123556723.728 8        45.000                    96277982.76847
        28.500    23512066.85247
  22287211.664 8 117120085.735 8        47.200                    91262429.98349
        35.400    22287215.24249
  23226664.344 8 122056956.903 8        45.800    23226671.977 7  95109338.25848
        33.800    23226671.23448  23226669.020 4  91146436.727 4        34.100
  20229931.258 9 106309015.271 9        50.000                    82838216.65849
        44.900    20229934.21949
  21374731.867 9 112325124.549 9        49.500                    87525966.03249
        42.100    21374732.75849
  23254491.016 8 122203219.379 8        45.800    23254497.621 8  95223329.82049
        34.000    23254496.73049  23254492.773 4  91255682.708 4        34.700
  23435164.273 7 123152652.590 7        43.900    23435169.988 7  95963146.52448
        30.000    23435169.57448  23435165.531 3  91964667.659 3        32.600
 17  4  8  0  1  0.0000000  0 10G01G32G08G28G14G03G11G22G27G10
  21017147.320 9 110445868.944 9        54.800    21017154.488 9  86061748.98849
        45.400    21017154.23849  21017150.281 7  82475828.530 7        41.100
  22165294.875 8 116479428.662 8        47.900    22165301.629 9  90763212.28749
        40.100    22165300.88749  22165297.113 5  86981404.689 5        37.200
  20965452.445 9 110174278.436 9        52.800    20965459.715 9  85850088.15349
        47.300    20965458.77049  20965455.734 7  82272991.765 7        41.500
  23509302.109 7 123542214.888 7        43.800                    96266677.15947
        29.300    23509305.81347
  22278423.188 8 117073901.212 8        47.100                    91226442.05449
        35.700    22278426.50849
  23208059.891 8 121959189.236 8        46.400    23208067.469 8  95033155.68249
        35.000    23208066.73449  23208063.703 3  91073428.423 3        33.700
  20223432.398 9 106274864.174 9        50.200                    82811605.41049
        45.500    20223435.61349
  21362913.031 9 112263016.303 9        49.400                    87477569.99749
        42.000    21362914.09849
  23274744.891 8 122309656.802 8        45.600    23274751.703 7  95306268.06749
        34.000    23274751.34849  23274748.387 3  91335165.200 3        33.600
  23453421.313 7 123248599.147 7        44.600    23453427.723 7  96037910.06948
        30.400    23453427.67648  23453423.398 3  92036316.044 3        33.600
 17  4  8  0  1 30.0000000  0 10G01G32G08G28G14G03G11G22G27G10
  21006874.953 9 110391887.530 9        54.300    21006882.262 9  86019685.55449
        45.100    21006882.05149  21006878.152 7  82435517.746 7        41.100
  22165390.523 9 116479930.919 9        48.300    22165397.086 9  90763603.67049
        40.200    22165396.36349  22165392.820 5  86981779.770 5        37.300
  20976617.953 9 110232952.504 9        52.900    20976625.301 9  85895808.20449
        47.300    20976624.05149  20976620.895 7  82316806.812 7        41.600
  23506641.414 8 123528230.369 8        45.300                    96255780.13547
        28.100    23506644.34447
  22269727.539 9 117028206.930 9        48.300                    91190836.12849
        35.400    22269731.17649
  23189497.883 8 121861641.656 8        45.400    23189505.137 8  94957144.60149
        34.300    23189504.18049  23189501.676 4  91000584.456 4        34.200
  20217022.750 9 106241179.569 9        50.000                    82785357.67049
        45.500    20217025.35949
  21351161.828 9 112201264.171 9        49.400                    87429451.47149
        42.400    21351163.22349
  23295036.758 8 122416290.299 8        46.200    23295043.137 7  95389359.09548
        33.600    23295042.34448  23295039.734 4  91414794.096 4        34.900
  23471706.289 7 123344685.144 7        43.600    23471712.766 7  96112782.26048
        30.200    23471712.12948  23471708.090 4  92108068.555 4        34.000
 17  4  8  0  2  0.0000000  0 10G01G32G08G28G14G03G11G22G27G10
  20996656.078 9 110338186.386 9        54.700    20996662.883 9  85977840.51449
        45.400    20996662.67249  20996658.828 6  82395416.249 6        40.900
  22165600.945 9 116481037.513 9        48.200    22165607.715 9  90764465.95949
        39.900    22165606.81649  22165603.688 6  86982606.132 6        38.000
  20987874.719 9 110292107.247 9        53.100    20987881.801 9  85941902.80649
        47.500    20987880.69149  20987877.598 6  82360980.804 6        40.800
  23504080.000 8 123514770.402 8        45.100                    96245291.83047
        28.700    23504083.00847
  22261126.156 8 116983004.595 8        47.900                    91155613.55249
        35.600    22261129.50449
  23170976.281 8 121764315.660 8        45.400    23170983.453 7  94881306.17348
        33.500    23170982.82448  23170980.848 3  90927905.954 3        33.400
  20210701.633 9 106207963.302 9        50.000                    82759474.85749
        45.200    20210704.65649
  21339478.789 9 112139868.406 9        49.600                    87381610.63149
        42.400    21339480.32449
  23315365.359 8 122523117.919 8        45.600    23315372.141 8  95472601.39148
        33.700    23315371.57848  23315369.027 5  91494567.944 5        35.200
  23490016.813 7 123440908.781 7        44.000    23490023.684 7  96187761.69848
        30.300    23490023.31348  23490018.688 3  92179923.865 3        33.500
 17  4  8  0  2 30.0000000  0 10G01G32G08G28G14G03G11G22G27G10
  20986490.672 9 110284766.434 9        54.500    20986497.660 9  85936214.57749
        45.600    20986497.35949  20986493.402 7  82355524.721 7        41.200
  22165926.531 8 116482748.556 8        47.500    22165932.949 9  90765799.24849
        39.600    22165932.19549  22165928.773 6  86983883.867 6        38.000
  20999222.461 9 110351741.136 9        53.000    20999229.566 9  85988370.76049
        47.300    20999228.58249  20999225.602 7  82405512.594 7        41.000
  23501618.305 8 123501835.579 8        45.200                    96235212.75747
        28.700    23501621.13747
  22252618.000 8 116938296.097 8        47.500                    91120775.77249
        35.000    22252621.29349
  23152498.328 8 121667212.608 8        46.100    23152505.832 7  94805641.45548
        33.500    23152504.84848  23152502.930 4  90855393.953 4        34.200
  20204469.961 9 106175216.371 9        49.900                    82733957.76649
        44.900    20204472.94949
  21327863.570 9 112078830.413 9        50.500                    87334048.56549
        42.300    21327865.05949
  23335730.742 8 122630137.602 8        45.800    23335737.594 8  95555993.33249
        34.100    23335737.41449  23335733.047 3  91574485.231 3        33.300
  23508353.188 7 123537268.205 7        44.100    23508359.988 7  96262846.94647
        29.600    23508359.26247  23508355.453 3  92251880.553 3        33.500
 17  4  8  0  3  0.0000000  0 10G01G32G08G28G14G03G11G22G27G10
  20976378.789 9 110231628.568 9        54.000    20976385.707 9  85894808.45449
        45.500    20976385.57449  20976381.496 7  82315843.853 7        41.100
  22166367.273 8 116485064.144 8        47.900    22166374.305 9  90767603.61149
        39.700    22166373.59049  22166369.816 5  86985613.051 5        37.400
  21010661.477 9 110411852.964 9        52.800    21010668.609 9  86035211.13649
        47.200    21010667.49249  21010664.512 7  82450401.282 7        41.300
  23499257.102 8 123489425.826 8        45.600                    96225542.81247
        28.700    23499260.08647
  22244204.969 8 116894083.420 8        47.600                    91086324.34849
        36.000    22244208.18849
  23134063.430 8 121570333.912 8        47.600    23134070.191 7  94730151.58749
        34.900    23134069.61749  23134067.813 5  90783049.501 5        35.000
  20198328.375 9 106142940.322 9        50.200                    82708807.60149
        45.200    20198331.07049
  21316316.664 9 112018150.956 9        49.700                    87286765.88149
        42.200    21316318.14149
  23356131.875 8 122737347.305 8        45.700    23356138.340 7  95639533.36348
        33.900    23356137.79748  23356134.602 3  91654544.453 3        33.700
  23526715.797 7 123633761.398 7        44.300    23526721.492 7  96338036.42548
        30.500    23526721.64848  23526717.020 3  92323937.143 3        33.300
 17  4  8  0  3 30.0000000  0 10G01G32G08G28G14G03G11G22G27G10
  20966320.828 9 110178773.705 9        53.700    20966327.895 9  85853622.84549
        45.500    20966327.46149  20966323.387 7  82276374.322 7        41.400
  22166922.773 8 116487984.320 8        47.900    22166929.504 9  90769879.09149
        40.300    22166928.72349  22166925.066 5  86987793.722 5        37.900
  21022190.977 9 110472441.576 9        52.600    21022198.207 9  86082423.03349
        47.300    21022197.23849  21022194.199 7  82495646.020 7        41.200
  23496995.898 7 123477541.340 7        44.900                    96216282.17547
        29.800    23496998.48047
  22235886.227 9 116850368.124 9        48.500                    91052260.49149
        36.400    22235889.71949
  23115670.742 8 121473680.933 8        47.300    23115678.336 7  94654837.57949
        35.300    23115677.07449  23115675.625 3  90710873.584 3        33.900
  20192276.070 9 106111136.327 9        49.900                    82684025.26949
        45.300    20192279.51649
  21304838.102 9 111957830.305 9        49.500                    87239762.79249
        42.700    21304839.16449
  23376568.891 8 122844744.939 8        45.300    23376575.863 7  95723219.83648
        32.300    23376574.98048  23376572.781 5  91734743.973 5        35.000
  23545102.844 7 123730386.523 7        44.300    23545109.102 7  96413328.74748
        31.000    23545108.65648  23545104.203 3  92396092.280 3        32.800
 17  4  8  0  4  0.0000000  0 10G01G32G08G28G14G03G11G22G27G10
  20956316.852 9 110126202.766 9        53.800    20956323.988 9  85812658.48049
        45.400    20956323.83249  20956319.988 6  82237116.799 6        40.700
  22167593.672 8 116491509.100 8        47.700    22167600.430 8  90772625.67849
        39.400    22167599.70749  22167596.398 5  86990425.874 5        37.600
  21033811.219 9 110533505.381 9        52.800    21033818.777 9  86130005.21549
        47.200    21033817.69949  21033814.660 7  82541245.607 7        41.500
  23494834.117 8 123466182.325 8        45.400                    96207430.99547
        29.100    23494836.94147
  22227662.242 9 116807152.063 9        48.500                    91018585.64649
        36.400    22227666.07049
  23097321.172 8 121377255.053 8        47.100    23097328.734 7  94579700.53949
        34.600    23097327.89149  23097325.910 3  90638867.260 3        33.900
  20186314.023 9 106079805.791 9        49.900                    82659611.86049
        45.100    20186317.21549
  21293428.148 9 111897869.163 9        49.900                    87193039.82449
        42.400    21293429.07049
  23397041.063 8 122952328.505 8        45.400    23397048.031 7  95807051.18948
        32.800    23397047.12548  23397044.750 4  91815082.333 4        34.600
  23563514.914 7 123827141.712 7        42.700    23563521.059 7  96488722.39248
        30.900    23563520.72348  23563516.625 3  92468344.510 3        33.000
 17  4  8  0  4 30.0000000  0 10G01G32G08G28G14G03G11G22G27G10
  20946367.070 9 110073916.531 9        53.700    20946373.988 9  85771915.96849
        45.500    20946373.48049  20946369.699 7  82198071.896 7        41.300
  22168379.313 9 116495638.344 9        48.000    22168385.863 9  90775843.27949
        39.300    22168384.81649  22168382.039 5  86993509.401 5        37.600
  21045521.570 9 110595043.160 9        53.000    21045528.703 9  86177956.72849
        47.200    21045527.58249  21045524.426 7  82587199.143 7        41.400
  23492772.672 7 123455348.972 7        43.600                    96198989.41147
        28.500    23492775.55947
  22219533.945 9 116764436.908 9        48.300                    90985301.12549
        35.700    22219537.43449
  23079015.406 8 121281057.470 8        47.500    23079022.824 7  94504741.40949
        34.700    23079022.15649  23079020.000 3  90567031.427 3        33.700
  20180442.430 9 106048950.020 9        50.500                    82635568.40049
        45.300    20180445.59049
  21282086.070 9 111838268.008 9        49.800                    87146597.37649
        42.500    21282087.38349
  23417548.766 8 123060095.759 8        45.400    23417555.863 8  95891025.65348
        33.500    23417555.69548  23417551.797 3  91895557.875 3        33.700
  23581950.477 7 123924024.989 7        42.700    23581957.117 7  96564215.84848
        30.000    23581956.97348  23581952.230 3  92540692.407 3        32.600
 17  4  8  0  5  0.0000000  0 10G01G32G08G28G14G03G11G22G27G10
  20936471.672 9 110021915.785 9        53.700    20936478.535 9  85731395.90549
        45.800    20936478.20749  20936474.309 7  82159240.169 7        41.700
  22169280.313 9 116500371.973 9        48.200    22169286.836 9  90779531.83749
        40.300    22169285.82049  22169282.398 5  86997044.268 5        37.100
  21057321.508 9 110657053.031 9        52.600    21057328.734 9  86226276.10149
        46.900    21057327.57049  21057324.535 6  82633505.209 6        40.900
  23490810.781 7 123445041.330 7        43.100                    96190957.47247
        29.200    23490813.48447
  22211500.586 9 116722223.899 9        48.600                    90952407.87949
        36.400    22211504.55149
  23060753.477 8 121185089.453 8        47.000    23060760.559 7  94429961.15349
        35.400    23060759.73049  23060757.926 4  90495367.014 4        34.700
  20174661.570 9 106018570.067 9        50.000                    82611895.70749
        45.300    20174664.32049
  21270812.789 9 111779026.854 9        49.800                    87100435.45149
        42.900    21270814.23049
  23438090.695 8 123168044.538 8        45.100    23438097.531 7  95975141.58148
        33.000    23438097.04348  23438093.617 4  91976168.994 4        34.100
  23600411.086 7 124021034.311 7        42.100    23600417.512 7  96639807.52247
        29.400    23600416.92247  23600412.645 2  92613134.430 2        31.600
 17  4  8  0  5 30.0000000  0 10G01G32G08G28G14G03G11G22G27G10
  20926630.891 9 109970201.872 9        54.100    20926637.883 9  85691099.35649
        45.700    20926637.45349  20926633.789 7  82120622.637 7        41.100
  22170296.344 8 116505710.285 8        47.900    22170302.930 8  90783691.57449
        40.000    22170302.02049  22170298.418 5  87001030.689 5        37.600
  21069211.188 9 110719534.347 9        52.400    21069219.066 9  86274962.83049
        46.700    21069217.73049  21069214.809 6  82680163.322 6        40.900
  23488949.727 7 123435259.577 7        44.300                    96183335.34547
        27.900    23488951.77047
  22203564.242 8 116680515.501 8        47.200                    90919907.84049
        36.600    22203567.58649
  23042535.680 9 121089352.760 9        48.900    23042542.824 8  94355361.14449
        35.400    23042542.07849  23042540.453 5  90423875.346 5        35.500
  20168971.164 9 105988667.684 9        49.900                    82588595.14649
        45.200    20168974.10949
  21259608.367 9 111720148.126 9        49.600                    87054555.93149
        42.600    21259610.18049
  23458667.336 8 123276173.222 8        45.800    23458673.605 7  96059397.70448
        32.800    23458672.61748  23458670.301 4  92056914.437 4        34.700
  23618895.242 7 124118168.270 7        42.600    23618901.176 7  96715496.31247
        29.600    23618901.19147  23618897.270 3  92685669.520 3        32.200
 17  4  8  0  6  0.0000000  0 10G01G32G08G28G14G03G11G22G27G10
  20916845.008 9 109918775.463 9        53.100    20916852.152 9  85651026.83249
        45.900    20916851.72749  20916848.063 7  82082219.804 7        41.700
  22171426.883 9 116511653.008 9        48.000    22171433.598 8  90788322.27749
        40.100    22171432.36349  22171428.824 5  87005468.443 5        37.700
  21081190.648 9 110782485.666 9        52.800    21081197.961 9  86324015.79849
        47.000    21081196.86349  21081193.711 6  82727172.413 6        40.400
  23487188.445 7 123426003.844 7        44.600                    96176123.08047
        29.900    23487191.80147
  22195723.602 9 116639313.337 9        48.600                    90887802.26849
        36.500    22195727.33249
  23024361.781 8 120993848.534 8        47.800    23024368.637 8  94280942.27749
        34.800    23024367.98049  23024365.941 4  90352557.274 4        34.900
  20163371.930 9 105959243.947 9        49.700                    82565667.56049
        45.200    20163374.64849
  21248473.211 9 111661631.683 9        49.900                    87008958.71549
        42.500    21248474.82049
  23479276.523 7 123384479.424 7        43.800    23479283.488 7  96143792.16348
        32.300    23479282.74248  23479280.137 4  92137792.441 4        34.600
  23637402.719 7 124215424.718 7        43.100    23637408.738 7  96791280.53948
        30.400    23637408.43448  23637404.215 3  92758296.079 3        33.300
 17  4  8  0  6 30.0000000  0 10G01G32G08G28G14G03G11G22G27G10
  20907113.633 9 109867637.553 9        52.900    20907120.496 9  85611179.10949
        45.900    20907120.14549  20907116.480 7  82044032.418 7        41.300
  22172672.789 9 116518200.094 9        48.100    22172679.492 9  90793423.91249
        40.200    22172678.56649  22172674.969 5  87010357.511 5        37.300
  21093258.953 9 110845905.184 9        52.500    21093266.223 9  86373433.60149
        46.800    21093265.07449  21093261.859 6  82774531.141 6        40.800
  23485527.578 7 123417274.265 7        44.700                    96169320.79847
        28.700    23485530.52747
  22187979.938 9 116598619.140 9        48.700                    90856092.51449
        36.500    22187983.44949
  23006232.109 8 120898578.151 8        47.900    23006239.473 7  94206705.63049
        35.000    23006238.66049  23006236.914 4  90281413.815 4        34.900
  20157864.227 9 105930300.459 9        49.700                    82543114.18349
        45.400    20157867.06349
  21237406.758 9 111603478.053 9        49.800                    86963644.20649
        42.700    21237408.10949
  23499920.133 7 123492961.247 7        44.300    23499927.836 8  96228323.44148
        33.200    23499926.50048  23499923.309 3  92218801.598 3        33.300
  23655932.477 7 124312801.946 7        42.900    23655938.797 7  96867158.88848
        30.200    23655938.84848  23655934.570 3  92831012.827 3        32.400
 17  4  8  0  7  0.0000000  0 10G01G32G08G28G14G03G11G22G27G10
  20897437.289 9 109816788.846 9        54.500    20897444.359 9  85571556.74149
        46.400    20897444.28549  20897440.387 7  82006060.977 7        41.400
  22174033.484 9 116525351.280 9        48.500    22174039.961 8  90798996.27649
        40.000    22174039.55549  22174035.840 5  87015697.696 5        37.600
  21105415.828 9 110909791.192 9        52.400    21105422.863 9  86423214.89149
        46.900    21105422.10249  21105419.121 6  82822238.217 6        40.900
  23483965.867 7 123409070.350 7        43.100                    96162928.13547
        27.200    23483969.10947
  22180332.734 9 116558433.670 9        48.800                    90824779.16649
        36.900    22180336.43449
  22988147.188 8 120803542.747 8        46.900    22988154.910 8  94132652.08349
        35.900    22988154.01249  22988151.738 4  90210445.844 4        34.800
  20152448.070 9 105901837.929 9        49.600                    82520935.59649
        45.300    20152450.83649
  21226409.727 9 111545687.639 9        49.600                    86918612.72649
        42.600    21226411.14149
  23520596.664 7 123601616.378 7        44.900    23520603.379 7  96312989.75948
        32.400    23520602.41448  23520599.805 3  92299940.169 3        33.600
  23674485.602 7 124410297.899 7        42.300    23674491.473 7  96943129.78147
        29.300    23674490.95747  23674487.676 3  92903818.236 3        32.100
 17  4  8  0  7 30.0000000  0 10G01G32G08G28G14G03G11G22G27G10
  20887816.531 9 109766230.473 9        53.100    20887823.375 9  85532160.60649
        46.200    20887823.17649  20887819.219 7  81968306.352 7        41.300
  22175509.289 9 116533106.572 9        48.100    22175515.707 8  90805039.36549
        40.200    22175515.13349  22175512.121 5  87021488.993 5        37.900
  21117661.664 9 110974142.904 9        52.100    21117668.770 9  86473359.07349
        46.600    21117667.69149  21117665.008 7  82870293.053 7        41.300
  23482504.836 7 123401392.565 7        43.000                    96156945.45247
        29.600    23482508.12147
  22172782.570 9 116518759.306 9        48.500                    90793864.08849
        36.400    22172786.59849
  22970108.008 8 120708743.884 8        46.800    22970115.387 8  94058782.84749
        35.800    22970114.57449  22970112.418 4  90139654.497 4        34.800
  20147123.555 9 105873858.061 9        50.100                    82499133.09649
        45.400    20147126.43849
  21215481.648 9 111488261.276 9        49.500                    86873864.91649
        42.700    21215483.36349
  23541305.836 7 123710442.871 7        44.400    23541312.348 7  96397789.63748
        32.300    23541311.44548  23541309.598 5  92381206.687 5        35.100
  23693060.836 7 124507910.911 7        42.100    23693066.824 7  97019191.86147
        29.300    23693066.80547  23693062.766 3  92976711.067 3        32.400
 17  4  8  0  8  0.0000000  0 10G01G32G08G28G14G03G11G22G27G10
  20878250.781 9 109715963.382 9        53.400    20878257.945 9  85492991.44349
        46.100    20878257.66049  20878253.527 7  81930769.237 7        41.800
  22177099.898 8 116541465.825 8        47.700    22177106.379 8  90811553.08349
        40.000    22177105.52349  22177102.277 5  87027731.302 5        37.900
  21129995.758 9 111038958.645 9        52.400    21130002.711 9  86523864.84349
        46.400    21130001.52749  21129998.664 6  82918694.413 6        40.800
  23481144.328 7 123394241.389 7        43.600                    96151373.10447
        29.100    23481147.40247
  22165330.797 9 116479597.732 9        48.400                    90763348.57749
        35.900    22165334.27749
  22952113.297 8 120614182.866 8        47.300    22952121.227 8  93985098.96149
        36.500    22952120.24649  22952118.148 5  90069040.771 5        35.100
  20141891.352 9 105846362.470 9        50.200                    82477707.96049
        45.400    20141894.18049
  21204623.445 9 111431199.627 9        49.600                    86829401.30849
        43.200    21204624.83649
  23562047.125 7 123819438.727 7        44.000    23562054.457 8  96482721.47348
        32.400    23562053.46948  23562050.332 3  92462599.685 3        33.800
  23711657.891 7 124605639.188 7        42.200    23711664.215 7  97095343.74747
        29.900    23711664.35947  23711659.852 3  93049689.961 3        32.800
 17  4  8  0  8 30.0000000  0 10G01G32G08G28G14G03G11G22G27G10
  20868741.266 9 109665988.317 9        53.900    20868748.465 9  85454049.84049
        46.300    20868748.03949  20868743.789 7  81893450.207 7        41.600
  22178805.586 8 116550428.651 8        47.900    22178811.973 9  90818537.11149
        40.300    22178811.16049  22178807.617 5  87034424.336 5        37.800
  21142417.742 9 111104236.867 9        52.300    21142425.113 9  86574730.98149
        46.500    21142424.05149  21142420.953 6  82967441.128 6        40.900
  23479883.141 7 123387616.127 7        43.300                    96146210.55447
        28.300    23479886.63747
  22157976.297 9 116440950.320 9        49.100                    90733233.72449
        36.800    22157979.96149
  22934164.273 8 120519860.907 8        47.900    22934171.727 8  93911601.33949
        36.200    22934170.99649  22934169.195 5  89998605.560 5        35.100
  20136751.648 9 105819351.808 9        49.900                    82456660.68549
        45.900    20136754.41849
  21193834.219 9 111374502.961 9        50.000                    86785222.09249
        42.900    21193835.49249
  23582820.164 7 123928601.672 7        44.200    23582826.938 7  96567783.49148
        32.300    23582826.49648  23582822.602 3  92544117.472 3        32.500
  23730276.531 7 124703480.796 7        41.600    23730282.762 7  97171583.94747
        29.300    23730283.07047  23730278.914 2  93122753.501 2        31.800
 17  4  8  0  9  0.0000000  0 10G01G32G08G28G14G03G11G22G27G10
  20859287.016 9 109616306.225 9        53.500    20859294.188 9  85415336.52349
        46.500    20859293.80949  20859289.734 7  81856349.940 7        41.400
  22180626.008 9 116559994.870 9        48.300    22180632.824 9  90825991.31849
        40.100    22180631.52049  22180627.859 5  87041567.953 5        37.000
  21154927.656 9 111169975.961 9        52.400    21154934.906 9  86625956.24249
        46.400    21154934.01649  21154930.684 6  83016532.007 6        40.700
  23478723.016 7 123381516.912 7        43.300                    96141457.91447
        27.900    23478725.46147
  22150720.063 9 116402818.619 9        48.300                    90703520.72049
        36.500    22150723.54749
  22916261.523 8 120425779.292 8        47.300    22916268.781 8  93838291.01349
        36.200    22916267.85949  22916266.055 4  89928349.828 4        34.700
  20131704.203 9 105792827.491 9        50.300                    82435992.38149
        45.600    20131707.05149
  21183114.984 9 111318171.942 9        49.900                    86741327.79349
        42.700    21183116.02749
  23603624.609 7 124037929.706 7        44.100    23603630.973 7  96652974.15948
        32.100    23603630.12548  23603626.813 4  92625758.552 4        34.000
  23748915.719 7 124801433.892 7        41.000    23748922.117 7  97247911.02747
        28.100    23748922.20747  23748918.109 3  93195900.289 3        32.000
 17  4  8  0  9 30.0000000  0 10G01G32G08G28G14G03G11G22G27G10
  20849888.492 9 109566918.076 9        53.700    20849895.770 9  85376852.26049
        46.300    20849895.61349  20849891.539 7  81819469.183 7        41.500
  22182561.047 9 116570164.277 9        48.400    22182567.746 9  90833915.53349
        39.800    22182566.64549  22182563.691 5  87049161.997 5        37.500
  21167524.727 9 111236174.362 9        52.200    21167532.348 9  86677539.40649
        46.400    21167531.20749  21167528.289 6  83065965.872 6        40.900
  23477662.156 7 123375943.573 7        43.400                    96137115.06147
        29.700    23477665.55947
  22143562.297 9 116365204.232 9        48.300                    90674210.81749
        36.800    22143566.20349
  22898404.492 8 120331939.392 8        47.300    22898411.449 8  93765169.02349
        36.900    22898411.11749  22898408.609 4  89858274.601 4        34.900
  20126749.242 9 105766790.705 9        49.500                    82415703.97649
        45.500    20126752.10549
  21172465.609 9 111262207.479 9        49.700                    86697719.13649
        42.900    21172466.64149
  23624459.508 7 124147420.676 7        43.800    23624466.063 7  96738291.80748
        31.800    23624465.64148  23624462.914 4  92707521.274 4        34.400
  23767577.375 7 124899496.684 7        41.100    23767583.195 7  97324323.59147
        27.700    23767583.37147  23767579.094 2  93269128.975 2        31.900
 17  4  8  0 10  0.0000000  0 10G01G32G08G28G14G03G11G22G27G10
  20840546.320 9 109517824.742 9        54.500    20840553.418 9  85338597.71449
        46.500    20840553.02349  20840549.121 7  81782808.578 7        41.600
  22184611.438 9 116580936.533 9        49.800    22184617.652 9  90842309.50549
        40.200    22184616.50449  22184613.137 5  87057206.215 5        37.600
  21180209.016 9 111302830.871 9        52.100    21180216.121 9  86729479.53549
        46.100    21180215.14849  21180212.582 7  83115741.826 7        41.300
  23476701.828 7 123370896.182 7        43.800                    96133182.02548
        30.100    23476705.48448
  22136503.133 9 116328108.542 9        48.700                    90645305.09549
        37.300    22136506.98049
  22880593.531 8 120238342.468 8        47.200    22880600.574 8  93692236.36649
        36.400    22880599.77349  22880597.504 5  89788380.805 5        35.100
  20121887.734 9 105741242.434 9        49.500                    82395796.23149
        45.500    20121890.57049
  21161885.109 9 111206609.818 9        50.100                    86654396.29249
        43.300    21161887.16049
  23645325.656 7 124257072.519 7        43.200    23645332.504 8  96823734.80248
        32.600    23645332.30548  23645328.641 3  92789404.141 3        33.600
  23786258.000 7 124997667.435 7        41.200    23786264.551 7  97400820.28447
        28.300    23786264.89547  23786260.855 3  93342438.297 3        32.500
 17  4  8  0 10 30.0000000  0 10G01G32G08G28G14G03G11G22G27G10
  20831260.484 9 109469027.114 9        52.900    20831267.500 9  85300573.59349
        46.500    20831267.26249  20831263.125 7  81746368.793 7        41.400
  22186775.602 9 116592311.362 9        49.000    22186782.012 9  90851173.02549
        39.700    22186780.88349  22186777.637 5  87065700.423 5        37.300
  21192979.984 9 111369943.698 9        52.100    21192987.211 9  86781775.23849
        46.000    21192986.07049  21192983.383 7  83165858.539 7        41.000
  23475841.484 7 123366374.483 7        44.600                    96129658.61847
        29.700    23475844.50047
  22129543.375 8 116291533.007 8        47.200                    90616804.69149
        36.600    22129546.83249
  22862828.844 8 120144989.809 8        46.500    22862836.137 8  93619494.04949
        37.000    22862835.68849  22862832.949 5  89718669.419 5        35.200
  20117119.383 9 105716184.116 9        49.900                    82376270.27049
        45.200    20117122.16449
  21151375.211 9 111151379.404 9        50.200                    86611359.61049
        43.200    21151376.59449
  23666221.609 7 124366883.090 7        43.400    23666228.863 7  96909301.46948
        31.100    23666228.87948  23666225.156 3  92871405.543 3        33.300
  23804959.070 6 125095944.256 6        40.200    23804965.930 7  97477399.60847
        26.400    23804966.09447  23804962.344 1  93415826.816 1        30.700
 17  4  8  0 11  0.0000000  0 10G01G32G08G28G14G03G11G22G27G10
  20822030.961 9 109420526.359 9        52.800    20822038.469 9  85262780.79649
        46.500    20822038.36349  20822034.344 7  81710150.698 7        41.700
  22189054.938 9 116604288.599 9        49.700    22189061.188 9  90860505.95049
        39.500    22189060.64549  22189057.340 5  87074644.476 5        37.600
  21205837.844 9 111437511.305 9        52.200    21205845.023 9  86834425.31549
        46.400    21205843.88349  21205840.609 6  83216314.867 6        40.600
  23475081.391 7 123362378.346 7        43.600                    96126544.74247
        28.900    23475084.06347
  22122682.469 9 116255479.418 9        48.400                    90588710.99949
        37.200    22122685.80149
  22845111.289 8 120051882.868 8        47.100    22845118.953 8  93546943.20649
        36.500    22845118.00849  22845115.855 5  89649141.535 5        35.900
  20112444.305 9 105691617.345 9        49.500                    82357127.33249
        45.900    20112447.50049
  21140935.680 9 111096517.351 9        50.700                    86568609.96049
        43.400    21140936.66049
  23687148.367 7 124476850.526 7        43.900    23687154.625 7  96994990.38348
        31.200    23687154.24248  23687151.402 3  92953524.074 3        33.400
  23823680.820 6 125194325.656 6        40.700    23823687.238 7  97554060.41247
        26.800    23823687.23447  23823683.484 1  93489293.417 1        30.700
 17  4  8  0 11 30.0000000  0 10G01G32G08G28G14G03G11G22G27G10
  20812858.023 9 109372323.109 9        53.400    20812865.645 9  85225219.83149
        46.600    20812865.25449  20812861.527 7  81674154.774 7        41.400
  22191448.570 9 116616867.675 9        49.100    22191455.055 8  90870307.83749
        40.100    22191454.30149  22191450.938 5  87084037.953 5        37.500
  21218781.813 9 111505532.020 9        52.100    21218789.148 9  86887428.46149
        46.000    21218788.16849  21218784.719 6  83267109.552 6        40.100
  23474419.773 7 123358907.672 7        44.800                    96123840.30747
        28.300    23474423.10947
  22115920.813 8 116219948.831 8        47.800                    90561024.83649
        37.300    22115924.47349
  22827440.484 8 119959022.725 8        47.700    22827447.652 8  93474584.66349
        36.600    22827447.04349  22827444.891 4  89579797.938 4        34.900
  20107862.922 9 105667542.709 9        49.800                    82338367.86949
        45.200    20107866.06349
  21130565.703 9 111042023.851 9        50.500                    86526147.50849
        43.300    21130567.03949
  23708103.969 8 124586972.414 8        45.100    23708111.086 8  97080799.62248
        32.200    23708110.89548  23708107.523 4  93035757.921 4        34.200
  23842422.227 7 125292809.437 7        41.300    23842428.313 7  97630801.01247
        27.900    23842428.38747  23842424.348 1  93562836.514 1        30.400
 17  4  8  0 12  0.0000000  0 10G01G32G08G28G14G03G11G22G27G10
  20803742.422 9 109324418.375 9        52.800    20803749.660 9  85187891.46749
        46.900    20803749.39149  20803745.375 7  81638381.763 7        41.700
  22193956.578 9 116630048.265 9        49.300    22193963.008 9  90880578.43449
        40.100    22193962.41849  22193959.230 5  87093880.604 5        37.900
  21231811.555 9 111574004.465 9        52.100    21231819.184 9  86940783.61049
        46.000    21231818.03949  21231814.941 6  83318241.566 6        40.400
  23473859.953 7 123355962.319 7        44.200                    96121545.24147
        29.300    23473863.11347
  22109259.547 8 116184943.097 8        47.600                    90533747.64849
        36.900    22109263.10949
  22809817.297 8 119866410.672 8        47.300    22809824.148 8  93402419.44549
        36.800    22809823.28549  22809821.367 5  89510639.603 5        35.600
  20103375.617 9 105643961.662 9        49.600                    82319993.02949
        45.400    20103378.63749
  21120266.344 9 110987899.209 9        50.200                    86483972.46349
        43.400    21120267.33249
  23729088.469 8 124697246.757 8        45.200    23729094.906 7  97166727.67148
        31.200    23729094.53948  23729090.875 3  93118105.643 3        33.000
  23861181.758 6 125391394.053 6        40.500    23861188.070 7  97707620.18847
        25.900    23861188.00447  23861184.375 3  93636454.885 3        32.100
 17  4  8  0 12 30.0000000  0 10G01G32G08G28G14G03G11G22G27G10
  20794683.555 9 109276813.055 9        52.900    20794690.566 9  85150796.41349
        46.700    20794690.20749  20794686.074 7  81602832.339 7        41.900
  22196579.156 9 116643829.901 9        48.200    22196585.953 9  90891317.38449
        39.800    22196585.12549  22196581.586 6  87104172.104 6        38.300
  21244927.070 9 111642926.735 9        51.900    21244934.219 9  86994489.26649
        46.000    21244933.48049  21244930.559 6  83369709.485 6        40.700
  23473399.141 7 123353541.987 7        42.600                    96119659.27447
        28.400    23473401.81647
  22102698.320 9 116150463.427 9        48.400                    90506880.37949
        37.200    22102701.80949
  22792241.141 8 119774047.985 8        47.900    22792248.141 8  93330448.54049
        37.300    22792247.35949  22792245.379 5  89441667.484 5        35.500
  20098982.492 9 105620875.196 9        49.500                    82302003.57349
        45.000    20098985.53149
  21110037.078 9 110934144.047 9        50.100                    86442085.33349
        43.300    21110038.49649
  23750101.352 7 124807671.401 7        44.000    23750108.340 7  97252772.85347
        29.900    23750107.26247  23750104.770 4  93200565.610 4        34.000
  23879960.586 6 125490077.606 6        40.400    23879967.191 6  97784516.45247
        25.800    23879967.08647  23879963.395 1  93710147.113 1        30.400
 17  4  8  0 13  0.0000000  0 10G01G32G08G28G14G03G11G22G27G10
  20785681.523 9 109229507.783 9        52.800    20785688.203 9  85113935.16649
        46.800    20785687.96549  20785684.008 7  81567506.976 7        41.700
  22199315.727 9 116658211.878 9        48.200    22199322.574 9  90902524.11849
        39.700    22199322.31649  22199318.660 5  87114911.890 5        37.600
  21258127.938 9 111712297.320 9        51.800    21258135.285 9  87048544.26549
        45.900    21258134.02049  21258131.508 6  83421512.181 6        40.900
  23473037.914 7 123351646.485 7        42.600                    96118182.24147
        28.500    23473041.57047
  22096237.813 9 116116510.846 9        48.100                    90480423.83949
        37.300    22096241.25449
  22774712.711 8 119681935.653 8        47.900    22774720.000 8  93258672.70649
        37.100    22774719.54749  22774717.566 4  89372882.316 4        34.900
  20094683.570 9 105598283.974 9        49.500                    82284400.02449
        45.100    20094686.03949
  21099878.141 9 110880758.560 9        50.000                    86400486.26049
        43.600    21099879.12149
  23771143.016 8 124918244.019 8        45.000    23771149.543 7  97338933.32448
        31.500    23771148.71948  23771146.055 3  93283136.050 3        32.600
  23898758.727 7 125588858.128 7        41.100    23898763.793 6  97861488.31147
        25.900    23898763.59447  23898759.551 1  93783911.800 1        29.400
 17  4  8  0 13 30.0000000  0 10G01G32G08G28G14G03G11G22G27G10
  20776737.000 9 109182504.098 9        53.300    20776744.047 9  85077308.91349
        46.700    20776743.67249  20776740.008 7  81532406.821 7        41.400
  22202166.852 9 116673194.452 9        48.300    22202173.340 9  90914198.85949
        39.600    22202172.98449  22202169.324 5  87126100.190 5        37.500
  21271413.625 9 111782114.799 9        51.800    21271420.582 9  87102947.48349
        45.600    21271419.62149  21271416.523 6  83473648.608 6        40.500
  23472777.578 7 123350275.907 7        43.600                    96117114.24747
        28.500    23472780.28147
  22089877.172 9 116083087.348 9        48.300                    90454379.55749
        37.000    22089880.68449
  22757232.406 8 119590075.531 8        47.500    22757239.340 8  93187093.40249
        37.300    22757238.86349  22757237.000 5  89304285.498 5        36.200
  20090479.148 9 105576190.226 9        49.300                    82267184.10549
        45.400    20090482.16849
  21089789.461 9 110827743.828 9        50.000                    86359176.08349
        43.700    21089790.77049
  23792212.188 7 125028963.049 7        44.400    23792218.848 7  97425207.88048
        31.600    23792218.10948  23792214.566 3  93365815.835 3        32.400
  23917573.211 6 125687734.470 6        39.400    23917580.055 6  97938534.84346
        24.900    23917579.39546  23917574.887 1  93857748.060 1        30.400
 17  4  8  0 14  0.0000000  0 10G01G32G08G28G14G03G11G22G27G10
  20767850.117 9 109135802.600 9        53.500    20767856.996 9  85040918.14049
        46.900    20767856.66449  20767852.707 7  81497532.324 7        41.900
  22205132.172 8 116688776.756 8        47.400    22205138.906 9  90926340.91749
        40.200    22205138.36349  22205134.766 6  87137736.331 6        38.200
  21284784.438 9 111852377.321 9        51.800    21284791.797 9  87157697.49249
        45.600    21284790.67249  21284787.516 6  83526117.370 6        40.800
  23472616.367 7 123349429.647 7        43.900                    96116454.81547
        27.500    23472619.60547
  22083618.063 8 116050194.291 8        47.700                    90428748.61349
        37.200    22083621.42649
  22739800.016 8 119498468.556 8        47.600    22739807.129 8  93115711.35549
        37.400    22739806.52049  22739804.250 5  89235877.702 5        36.200
  20086369.680 9 105554594.646 9        49.600                    82250356.38249
        45.500    20086372.39149
  21079771.570 9 110775100.158 9        50.000                    86318155.04749
        43.400    21079773.11349
  23813308.680 7 125139826.057 7        44.800    23813315.172 7  97511594.61648
        30.700    23813314.54348  23813311.465 3  93448603.127 3        32.300
  23936407.297 6 125786704.678 6        38.700    23936414.020 6  98015654.42847
        26.300    23936413.98847  23936409.246 1  93931654.346 1        30.200
 17  4  8  0 14 30.0000000  0 10G01G32G08G28G14G03G11G22G27G10
  20759020.500 9 109089404.297 9        53.000    20759027.773 9  85004763.61449
        46.800    20759027.25849  20759023.355 7  81462884.240 7        41.400
  22208211.320 9 116704958.337 9        48.200    22208217.828 9  90938949.94949
        40.000    22208217.17649  22208213.988 6  87149819.991 6        38.100
  21298239.344 9 111923083.593 9        51.900    21298246.785 9  87212793.28049
        45.900    21298245.71549  21298242.559 6  83578917.495 6        40.400
  23472554.844 7 123349107.416 7        43.200                    96116203.74247
        27.100    23472557.85247
  22077459.719 8 116017832.965 8        47.800                    90403532.00849
        37.200    22077463.18449
  22722416.211 8 119407116.006 8        47.900    22722423.594 8  93044527.56749
        36.900    22722422.61349  22722420.695 5  89167659.910 5        35.800
  20082355.055 9 105533498.467 9        49.100                    82233917.78949
        45.000    20082358.36749
  21069824.516 9 110722827.662 9        50.000                    86277423.24649
        43.700    21069825.91049
  23834432.273 7 125250830.999 7        44.800    23834438.629 7  97598091.98548
        30.600    23834437.94148  23834434.980 3  93531496.433 3        32.600
  23955258.289 6 125885766.852 6        40.900    23955263.945 6  98092845.71246
        23.500    23955264.03946  23955260.465 1  94005629.306 1        29.300
 17  4  8  0 15  0.0000000  0 10G01G32G08G28G14G03G11G22G27G10
  20750249.164 9 109043309.841 9        52.900    20750256.410 9  84968845.86149
        46.600    20750255.93449  20750252.094 7  81428463.056 7        42.000
  22211404.773 9 116721738.475 9        48.600    22211411.320 9  90952025.38949
        39.900    22211410.70749  22211407.285 6  87162350.612 6        38.100
  21311778.117 9 111994231.240 9        52.000    21311785.395 9  87268233.00649
        45.400    21311784.22749  21311781.188 6  83632047.231 6        40.900
  23472593.336 7 123349308.950 7        43.600                    96116360.77747
        28.500    23472596.73447
  22071403.477 9 115986004.517 9        48.000                    90378730.63549
        36.700    22071406.36349
  22705080.805 9 119316018.936 9        48.100    22705088.082 8  92973542.83649
        37.000    22705087.13749  22705085.039 5  89099632.884 5        35.800
  20078435.859 9 105512902.364 9        49.100                    82217868.87849
        45.500    20078438.33649
  21059948.453 9 110670927.059 9        50.900                    86236981.22249
        43.700    21059949.58249
  23855581.758 7 125361975.535 7        43.100    23855589.121 7  97684698.09248
        31.000    23855588.65248  23855585.984 3  93614493.956 3        33.600
  23974125.992 6 125984919.168 6        39.300    23974131.398 6  98170107.28646
        22.900    23974131.30546  23974126.441 1  94079671.637 1        28.900
 17  4  8  0 15 30.0000000  0 10G01G32G08G28G14G03G11G22G27G10
  20741535.641 9 108997520.625 9        52.800    20741542.906 9  84933165.95149
        46.900    20741542.49249  20741538.766 7  81394269.812 7        42.100
  22214711.734 9 116739116.994 9        48.500    22214718.465 9  90965567.10349
        40.100    22214717.75449  22214714.039 5  87175328.089 5        37.600
  21325400.969 9 112065819.424 9        51.700    21325408.352 9  87324015.99649
        45.600    21325407.33249  21325404.473 6  83685505.929 6        40.800
  23472731.891 7 123350034.224 7        43.000                    96116925.92847
        29.200    23472735.26647
  22065447.805 8 115954710.400 8        47.600                    90354345.61249
        37.500    22065451.57849
  22687795.125 9 119225178.945 9        48.600    22687802.145 8  92902758.45049
        37.900    22687801.17249  22687799.309 5  89031797.849 5        36.100
  20074612.125 9 105492807.997 9        49.300                    82202210.92949
        45.200    20074615.14149
  21050142.766 9 110619399.318 9        51.200                    86196829.73949
        43.600    21050144.12149
  23876757.703 7 125473257.933 7        43.400    23876765.426 7  97771411.63448
        30.400    23876765.16048  23876762.730 3  93697594.409 3        33.200
  23993010.750 6 126084160.335 6        38.100    23993017.789 6  98247438.05046
        22.200    23993017.08646  23993012.520 1  94153780.318 1        29.300
 17  4  8  0 16  0.0000000  0 10G01G32G08G28G14G03G11G22G27G10
  20732880.539 9 108952037.166 9        53.000    20732887.691 9  84897724.29749
        47.000    20732887.46949  20732883.746 7  81360304.893 7        41.800
  22218132.469 9 116757092.939 9        48.400    22218139.098 9  90979574.34149
        39.800    22218138.12949  22218134.297 5  87188751.695 5        37.400
  21339106.984 9 112137845.625 9        51.500    21339114.262 9  87380140.30449
        45.300    21339113.19149  21339110.094 6  83739291.725 6        40.500
  23472969.188 7 123351282.596 7        43.800                    96117898.66847
        29.200    23472972.21147
  22059594.852 9 115923951.512 9        48.000                    90330377.65549
        36.900    22059597.89549
  22670557.672 9 119134596.922 9        48.500    22670564.738 8  92832175.06749
        37.700    22670564.19149  22670561.859 5  88964155.437 5        35.700
  20070883.969 9 105473216.026 9        49.200                    82186944.45449
        45.400    20070886.93849
  21040408.594 9 110568244.433 9        50.000                    86156968.80049
        43.900    21040409.55149
  23897960.313 7 125584675.727 7        43.600    23897967.188 7  97858230.67048
        30.400    23897967.07848  23897963.824 3  93780795.994 3        32.500
  24011912.227 6 126183488.251 6        38.100    24011919.117 6  98324836.40846
        22.900    24011918.61346  24011914.453 1  94227953.734 1        30.000
 17  4  8  0 16 30.0000000  0 10G01G32G08G28G14G03G11G22G27G10
  20724283.813 9 108906860.606 9        53.500    20724290.957 9  84862521.78349
        47.300    20724290.59849  20724286.875 7  81326569.157 7        41.900
  22221666.609 9 116775665.988 9        49.300    22221673.035 8  90994046.84949
        38.900    22221672.38349  22221668.723 5  87202621.192 5        37.600
  21352896.297 9 112210308.984 9        51.700    21352903.602 9  87436605.26749
        45.100    21352902.43849  21352899.105 6  83793403.985 6        39.900
  23473306.492 7 123353053.712 7        42.400                    96119278.75847
        27.900    23473309.95747
  22053843.219 9 115893729.538 9        48.000                    90306828.07949
        37.200    22053846.99249
  22653369.992 9 119044274.312 9        48.100    22653377.320 8  92761793.82749
        37.500    22653376.48049  22653374.617 5  88896706.753 5        36.200
  20067251.641 9 105454127.725 9        49.300                    82172070.45249
        45.100    20067254.51249
  21030744.844 9 110517462.878 9        50.200                    86117398.76749
        43.900    21030746.46949
  23919188.234 7 125696226.999 7        42.700    23919194.527 7  97945153.74747
        29.300    23919193.94947  23919190.285 2  93864097.279 2        31.900
  24030830.609 5 126282901.364 5        37.900    24030836.793 6  98402301.15146
        22.600    24030836.59446  24030832.027 2  94302190.790 2        31.200
 17  4  8  0 17  0.0000000  0 10G01G32G08G28G14G03G11G22G27G10
  20715745.281 9 108861991.745 9        52.900    20715752.824 9  84827559.02349
        47.300    20715752.46949  20715748.332 7  81293063.182 7        42.200
  22225314.539 9 116794835.281 9        49.600    22225321.105 9  91008983.96549
        39.700    22225320.35549  22225317.227 5  87216935.924 5        37.500
  21366768.320 9 112283206.767 9        51.600    21366775.668 9  87493408.72349
        45.700    21366774.68049  21366771.645 6  83847840.628 6        40.200
  23473742.281 7 123355347.151 7        43.200                    96121065.83847
        29.300    23473746.19947
  22048194.836 8 115864045.453 8        47.100                    90283697.62749
        36.800    22048198.42249
  22636231.695 9 118954212.132 9        48.400    22636238.609 8  92691615.51049
        37.900    22636237.91449  22636236.051 5  88829452.542 5        36.000
  20063715.133 9 105435543.812 9        49.300                    82157589.47349
        45.000    20063718.15249
  21021152.688 9 110467054.990 9        51.500                    86078119.89849
        44.000    21021154.17249
  23940441.289 7 125807909.455 7        44.000    23940447.707 7  98032179.02648
        31.300    23940447.00448  23940443.516 3  93947496.505 3        32.600
  24049763.484 5 126382397.952 5        37.500    24049769.660 6  98479830.95146
        22.000    24049768.83246  24049765.320 1  94376490.126 1        30.300
 17  4  8  0 17 30.0000000  0 10G01G32G08G28G14G03G11G22G27G10
  20707266.000 9 108817431.638 9        52.800    20707273.273 9  84792836.87149
        47.400    20707273.00049  20707268.867 7  81259787.787 7        42.500
  22229075.734 9 116814600.375 9        49.800    22229082.074 8  91024385.35249
        39.400    22229081.54349  22229078.180 5  87231695.577 5        37.300
  21380722.758 9 112356537.936 9        51.300    21380730.059 9  87550549.89149
        44.900    21380729.06649  21380725.969 6  83902600.914 6        40.600
  23474278.648 7 123358162.451 7        42.800                    96123259.56347
        28.200    23474282.67647
  22042648.688 8 115834900.681 8        47.900                    90260987.42549
        36.800    22042652.10949
  22619143.086 9 118864411.781 9        48.300    22619150.418 8  92621641.22649
        38.600    22619149.80149  22619147.586 5  88762393.853 5        36.200
  20060275.086 9 105417465.855 9        49.100                    82143502.75349
        45.200    20060277.62949
  21011631.359 9 110417020.921 9        50.100                    86039132.32349
        44.100    21011632.62949
  23961717.016 7 125919721.120 7        43.200    23961724.906 7  98119304.99448
        31.400    23961723.92248  23961720.668 3  94030992.213 3        33.100
  24068713.578 6 126481976.352 6        39.200    24068719.609 6  98557424.49846
        24.600    24068719.56346  24068714.410 1  94450850.600 1        30.300
 17  4  8  0 18  0.0000000  0 10G01G32G08G28G14G03G11G22G27G10
  20698845.188 9 108773181.186 9        53.400    20698852.699 9  84758355.99849
        47.400    20698852.03949  20698848.199 7  81226743.609 7        41.700
  22232950.234 9 116834960.543 9        49.500    22232956.773 9  91040250.42649
        39.500    22232956.04349  22232952.441 5  87246899.609 5        37.100
  21394759.531 9 112430300.807 9        51.500    21394766.965 9  87608027.43649
        45.100    21394765.89849  21394762.918 6  83957683.560 6        40.900
  23474913.375 7 123361499.427 7        43.600                    96125859.79347
        27.900    23474916.81647
  22037205.320 8 115806296.375 8        47.500                    90238698.36549
        37.400    22037208.88349
  22602104.477 9 118774874.413 9        48.300    22602111.402 8  92551871.85349
        38.300    22602110.68449  22602108.824 5  88695531.535 5        36.800
  20056931.344 9 105399894.814 9        49.100                    82129811.03249
        45.400    20056933.97349
  21002181.508 9 110367361.400 9        50.300                    86000436.59449
        43.900    21002183.18449
  23983018.523 7 126031659.851 7        41.900    23983025.320 7  98206529.97547
        29.700    23983024.44547  23983022.012 2  94114582.828 2        31.800
  24087677.461 6 126581634.890 6        39.200    24087684.223 7  98635080.48547
        26.500    24087684.04347  24087678.539 1  94525270.950 1        29.100
 17  4  8  0 18 30.0000000  0 10G01G32G08G28G14G03G11G22G27G10
  20690483.789 9 108729241.349 9        52.800    20690491.344 9  84724117.16749
        47.600    20690491.02749  20690487.242 7  81193931.395 7        42.400
  22236937.219 9 116855915.142 9        49.500    22236943.684 9  91056578.68949
        39.800    22236943.09049  22236939.258 5  87262547.535 5        36.900
  21408877.867 9 112504493.415 9        51.500    21408885.113 9  87665839.86049
        44.900    21408884.03549  21408881.172 6  84013087.131 6        40.300
  23475647.383 7 123365357.410 7        42.900                    96128866.00947
        27.500    23475650.51247
  22031865.758 8 115778233.839 8        47.000                    90216831.47249
        37.300    22031869.12549
  22585116.281 9 118685601.239 9        48.100    22585123.602 8  92482308.35549
        38.100    22585122.93449  22585121.480 5  88628866.521 5        36.600
  20053684.305 9 105382831.554 9        49.100                    82116514.98649
        45.400    20053687.23849
  20992803.047 9 110318077.264 9        50.900                    85962033.37149
        44.100    20992804.15249
  24004344.078 7 126143723.549 7        44.000    24004350.809 7  98293852.32047
        29.600    24004349.65647  24004346.637 2  94198266.742 2        31.600
  24106655.820 6 126681371.994 6        38.600    24106662.953 6  98712797.64046
        23.400    24106663.23046  24106657.668 1  94599749.940 1        29.400
 17  4  8  0 19  0.0000000  0 11G01G32G08G28G17G14G03G11G22G27G10
  20682181.734 9 108685612.977 9        52.700    20682188.879 9  84690121.03749
        47.400    20682188.52049  20682184.855 7  81161351.767 7        42.100
  22241038.430 9 116877463.327 9        50.000    22241044.836 9  91073369.49149
        39.800    22241043.80949  22241040.563 5  87278638.719 5        37.500
  21423077.711 9 112579113.899 9        51.400    21423084.941 9  87723985.69049
        44.600    21423083.75449  21423080.715 6  84068810.218 6        40.200
  23476481.055 7 123369735.964 7        43.700                    96132277.86247
        28.300    23476483.90647
  25589378.500 5 134473096.05715        37.200    25589382.477 4 104784238.49355
        18.600    25589381.93445
  22026628.500 8 115750713.900 8        47.500                    90195387.37149
        37.300    22026632.52349
  22568178.758 9 118596593.399 9        48.200    22568185.750 8  92412951.61049
        37.600    22568184.95349  22568183.383 5  88562399.649 5        36.600
  20050533.844 9 105366277.057 9        48.900                    82103615.36749
        45.300    20050537.10949
  20983496.188 9 110269168.296 9        50.800                    85923922.50649
        44.300    20983497.38349
  24025691.750 7 126255909.993 7        42.900    24025699.195 7  98381270.32847
        29.700    24025698.19147  24025696.227 3  94282042.324 3        33.900
  24125650.445 6 126781185.797 6        39.200    24125656.676 6  98790574.64146
        22.800    24125656.75846  24125652.250 1  94674286.198 1        29.600
 17  4  8  0 19 30.0000000  0 11G01G32G08G28G17G14G03G11G22G27G10
  20673939.031 9 108642296.872 9        53.400    20673945.926 9  84656368.23149
        47.600    20673945.74649  20673942.082 7  81129005.335 7        42.400
  22245251.695 9 116899604.259 9        50.400    22245257.750 9  91090622.17349
        39.600    22245257.05549  22245253.340 5  87295172.546 5        37.600
  21437358.500 9 112654160.444 9        51.400    21437365.609 9  87782463.50849
        45.100    21437364.24649  21437361.270 6  84124851.463 6        40.900
  23477412.734 7 123374634.851 7        43.000                    96136095.17447
        27.300    23477416.41847
  25569514.078 6 134368707.714 6        39.000    25569518.762 6 104702896.98146
        21.500    25569518.65646
  22021495.203 8 115723737.701 8        46.600                    90174366.96349
        37.300    22021498.80149
  22551291.906 8 118507851.933 8        47.300    22551298.863 8  92343802.43049
        37.900    22551297.86749  22551296.648 5  88496131.687 5        36.400
  20047480.891 9 105350232.126 9        49.300                    82091112.81549
        45.300    20047483.30949
  20974260.492 9 110220634.596 9        50.200                    85886104.04249
        44.300    20974261.98049
  24047063.273 7 126368216.916 7        43.700    24047070.707 7  98468782.19948
        30.600    24047070.17248  24047067.445 3  94365907.842 3        33.000
  24144658.789 6 126881074.596 6        39.500    24144664.922 6  98868410.07646
        23.400    24144665.13746  24144660.215 1  94748878.506 1        28.200
 17  4  8  0 20  0.0000000  0 11G01G32G08G28G17G14G03G11G22G27G10
  20665756.023 9 108599294.268 9        53.400    20665763.043 9  84622859.70849
        47.400    20665762.82849  20665759.043 7  81096892.998 7        42.400
  22249577.461 9 116922337.476 9        49.600    22249583.594 8  91108336.36649
        38.900    22249582.71549  22249579.406 5  87312148.648 5        37.600
  21451720.305 9 112729631.390 9        51.500    21451727.516 9  87841272.02749
        44.700    21451726.36749  21451723.387 6  84181209.629 6        40.000
  23478444.813 7 123380053.442 7        43.300                    96140317.43047
        27.600    23478447.39547
  25549661.281 6 134264379.605 6        38.800    25549665.824 5 104621602.29546
        22.300    25549664.96546
  22016465.617 8 115697306.671 8        47.700                    90153771.37249
        36.800    22016468.73449
  22534456.039 9 118419378.347 9        49.000    22534462.703 8  92274861.98249
        38.000    22534461.67649  22534459.992 5  88430063.763 5        36.600
  20044524.867 9 105334698.337 9        49.300                    82079008.55949
        45.400    20044527.81349
  20965096.594 9 110172477.369 9        50.800                    85848578.93849
        44.400    20965098.03149
  24068456.602 7 126480642.512 7        43.500    24068463.820 7  98556386.57147
        28.900    24068463.62147  24068460.309 3  94449862.047 3        32.000
  24163681.258 6 126981036.991 6        39.200    24163687.496 6  98946302.86947
        25.300    24163687.51247  24163682.941 1  94823525.736 1        29.400
 17  4  8  0 20 30.0000000  0 11G01G32G08G28G17G14G03G11G22G27G10
  20657632.406 9 108556605.838 9        54.100    20657639.289 9  84589595.99349
        47.700    20657639.32449  20657635.777 7  81065015.274 7        42.100
  22254015.641 9 116945661.927 9        49.600    22254022.504 8  91126511.26649
        39.300    22254021.57849  22254018.328 5  87329566.249 5        37.500
  21466162.258 9 112805524.847 9        51.600    21466169.973 9  87900409.78449
        44.600    21466168.75049  21466165.828 6  84237883.318 6        40.800
  23479574.258 7 123385990.993 7        43.100                    96144944.08447
        28.300    23479577.92247
  25529820.430 6 134160113.994 6        40.200    25529825.516 6 104540356.38247
        25.500    25529824.73047
  22011539.570 8 115671421.736 8        47.400                    90133601.29649
        37.300    22011543.40649
  22517670.875 8 118331173.518 8        47.900    22517678.242 8  92206130.95649
        38.700    22517677.64149  22517676.070 5  88364196.528 5        36.700
  20041666.188 9 105319676.311 9        49.000                    82067303.08249
        45.700    20041669.25849
  20956004.344 9 110124696.432 9        51.500                    85811347.05649
        44.300    20956005.54349
  24089873.539 7 126593184.337 7        43.600    24089880.656 7  98644081.49748
        30.700    24089880.07448  24089876.703 2  94533903.019 2        31.900
  24182717.766 6 127081071.183 6        40.000    24182723.559 6  99024251.56746
        24.000    24182723.67246  24182719.277 1  94898226.544 1        30.000
 17  4  8  0 21  0.0000000  0 11G01G32G08G28G17G14G03G11G22G27G10
  20649569.273 9 108514232.658 9        53.800    20649576.633 9  84556577.93149
        47.600    20649576.15649  20649572.371 7  81033372.968 7        42.600
  22258566.484 9 116969576.949 9        49.500    22258573.496 9  91145146.34949
        39.400    22258572.84849  22258569.191 5  87347424.878 5        37.300
  21480684.367 9 112881838.817 9        51.100    21480691.668 9  87959875.20949
        44.300    21480690.69549  21480687.539 6  84294871.008 6        40.600
  23480802.789 7 123392446.894 7        43.400                    96149974.62747
        27.800    23480805.52347
  25509991.938 6 134055912.565 6        40.600    25509994.570 5 104459160.52346
        24.600    25509994.69546
  22006717.953 9 115646084.022 9        48.000                    90113857.63449
        37.000    22006721.77349
  22500937.625 9 118243238.750 9        48.100    22500944.613 8  92137610.37149
        38.600    22500943.96549  22500942.043 5  88298530.977 5        36.900
  20038905.438 9 105305167.133 9        48.900                    82055997.22549
        44.900    20038908.08249
  20946983.469 9 110077292.311 9        50.400                    85774408.78049
        44.400    20946984.52749
  24111310.867 6 126705840.443 6        40.900    24111318.625 7  98731865.43548
        30.500    24111317.83648  24111314.352 3  94618029.294 3        32.500
  24201766.313 6 127181175.552 6        40.100    24201772.375 6  99102254.93646
        24.900    24201772.54346  24201767.977 1  94972979.787 1        30.100
 17  4  8  0 21 30.0000000  0 11G01G32G08G28G17G14G03G11G22G27G10
  20641566.125 9 108472175.606 9        54.300    20641573.063 9  84523806.20249
        47.800    20641572.71949  20641568.992 7  81001966.728 7        41.700
  22263229.977 9 116994081.634 9        49.600    22263236.500 9  91164240.92049
        39.000    22263235.89849  22263232.180 5  87365723.837 5        37.300
  21495285.906 9 112958571.807 9        51.800    21495293.141 9  88019667.13749
        44.300    21495292.24649  21495288.973 6  84352171.609 6        39.600
  23482129.766 7 123399420.896 7        43.600                    96155408.91647
        29.000    23482132.90647
  25490173.063 5 133951777.528 5        35.700    25490179.469 6 104378016.37346
        20.600    25490178.78146
  22002000.609 9 115621294.503 9        48.500                    90094541.13749
        37.700    22002004.40649
  22484255.922 9 118155575.200 9        48.300    22484262.926 8  92069301.12649
        38.100    22484262.00449  22484260.258 5  88233067.955 5        36.000
  20036241.781 9 105291171.522 9        48.800                    82045091.55749
        45.300    20036244.92649
  20938034.492 9 110030265.619 9        51.100                    85737764.61149
        44.500    20938035.61349
  24132770.297 7 126818608.653 7        43.000    24132777.012 7  98819736.75647
        29.400    24132776.60547  24132773.293 3  94702239.315 3        32.400
  24220828.734 6 127281348.533 6        39.400    24220834.848 6  99180311.81346
        22.300    24220834.18446  24220830.316 1  95047784.285 1        27.900
 17  4  8  0 22  0.0000000  0 11G01G32G08G28G17G14G03G11G22G27G10
  20633623.039 9 108430435.589 9        53.000    20633629.832 9  84491281.50849
        47.900    20633629.77049  20633625.637 7  80970797.234 7        42.400
  22268005.125 9 117019175.112 9        49.300    22268011.777 8  91183794.28049
        39.600    22268010.89149  22268007.469 5  87384462.478 5        37.500
  21509967.180 9 113035721.540 9        51.300    21509974.648 9  88079783.81249
        44.700    21509973.41849  21509970.203 6  84409783.424 6        39.500
  23483555.391 7 123406912.211 7        43.600                    96161246.30847
        28.600    23483558.98847
  25470371.742 6 133847711.055 6        38.300    25470372.910 2 104296925.46345
        17.800    25470373.81645
  21997387.781 9 115597054.080 9        48.000                    90075652.49649
        36.700    21997391.43049
  22467625.672 9 118068183.946 9        48.700    22467633.105 8  92001204.04849
        38.400    22467632.17649  22467630.258 5  88167808.262 5        36.900
  20033676.938 9 105277690.507 9        48.800                    82034586.85849
        45.900    20033679.53949
  20929157.188 9 109983616.312 9        51.700                    85701414.51549
        44.700    20929158.12149
  24154250.180 7 126931486.748 7        42.200    24154256.215 7  98907693.73847
        29.000    24154255.53547  24154252.633 2  94786531.419 2        31.400
  24239903.383 6 127381588.451 6        38.400    24239909.488 6  99258420.84446
        22.800    24239909.10546  24239905.477 1  95122638.787 1        28.400
 17  4  8  0 22 30.0000000  0 11G01G32G08G28G17G14G03G11G22G27G10
  20625740.820 9 108389013.453 9        53.500    20625747.859 9  84459004.52349
        47.800    20625747.59049  20625743.746 7  80939865.123 7        42.300
  22272892.156 9 117044856.374 9        49.300    22272898.559 9  91203805.66049
        39.600    22272897.81649  22272894.336 5  87403640.050 5        36.900
  21524727.305 9 113113286.238 9        51.100    21524734.113 9  88140223.83749
        44.200    21524733.27349  21524730.234 6  84467705.114 6        40.100
  23485078.531 7 123414919.875 7        43.300                    96167486.02147
        27.400    23485082.80947
  25450583.133 7 133743715.660 7        42.800    25450586.195 5 104215890.17347
        26.000    25450585.80947
  21992879.523 9 115573363.978 9        48.300                    90057192.68549
        37.500    21992883.27349
  22451047.773 9 117981066.087 9        48.300    22451054.910 8  91933320.01649
        39.200    22451054.50849  22451052.238 5  88102752.725 5        36.500
  20031209.305 9 105264724.872 9        49.000                    82024483.76849
        45.100    20031212.32449
  20920352.117 9 109937344.760 9        50.900                    85665358.75949
        44.300    20920353.10249
  24175750.758 7 127044472.562 7        43.300    24175757.645 7  98995734.61647
        29.700    24175757.37947  24175753.832 3  94870903.944 3        32.900
  24258991.086 6 127481893.642 6        38.400    24258997.301 6  99336580.69946
        20.900    24258996.78546  24258993.156 1  95197541.970 1        29.400
 17  4  8  0 23  0.0000000  0 11G01G32G08G28G17G14G03G11G22G27G10
  20617918.867 9 108347910.124 9        53.400    20617925.984 9  84426975.95249
        48.000    20617925.61749  20617921.656 7  80909171.072 7        42.500
  22277890.422 9 117071124.588 9        49.900    22277897.066 8  91224274.40549
        39.400    22277896.24649  22277892.707 5  87423255.933 5        37.300
  21539565.813 9 113191264.117 9        50.900    21539573.258 9  88200985.81349
        44.600    21539572.28949  21539569.133 6  84525935.341 6        40.000
  23486701.438 7 123423443.555 7        43.400                    96174127.82447
        28.100    23486704.33647
  25430806.969 7 133639792.517 7        41.000    25430810.527 5 104134911.09046
        22.600    25430809.50446
  21988476.891 9 115550224.917 9        49.000                    90039162.27049
        37.300    21988480.13749
  22434521.961 9 117894222.740 9        49.300    22434529.445 8  91865649.88449
        39.000    22434528.44549  22434526.938 5  88037902.181 5        36.900
  20028840.359 9 105252275.587 9        48.900                    82014783.02149
        45.100    20028843.30549
  20911618.883 9 109891450.838 9        50.500                    85629597.27549
        44.700    20911619.81349
  24197271.508 7 127157563.934 7        43.000    24197278.719 7  99083857.73348
        30.200    24197277.97748  24197275.660 3  94955355.245 3        33.000
  24278091.102 5 127582262.397 5        37.800    24278096.617 5  99414790.10546
        20.100    24278095.63346  24278092.645 1  95272492.642 1        28.600
 17  4  8  0 23 30.0000000  0 11G01G32G08G28G17G14G03G11G22G27G10
  20610158.094 9 108307126.753 9        53.500    20610165.281 9  84395196.70149
        48.000    20610165.01249  20610160.996 7  80878715.956 7        42.600
  22283000.742 9 117097979.005 9        49.100    22283007.156 8  91245199.91649
        38.700    22283006.32049  22283002.781 5  87443309.547 5        37.600
  21554482.914 9 113269653.558 9        50.900    21554490.313 9  88262068.48449
        44.200    21554489.22349  21554486.242 6  84584472.892 6        39.800
  23488421.570 7 123432482.641 7        42.800                    96181171.25247
        27.900    23488423.69147
  25411044.406 6 133535944.547 6        39.200    25411049.172 6 104053990.64746
        22.200    25411048.80546
  21984178.547 9 115527638.161 9        48.800                    90021562.20349
        37.700    21984182.43049
  22418048.984 9 117807655.286 9        49.300    22418056.152 8  91798194.74349
        39.500    22418055.33249  22418053.176 5  87973257.679 5        37.300
  20026569.719 9 105240343.850 9        48.900                    82005485.55949
        45.000    20026572.79749
  20902957.492 9 109845935.524 9        50.500                    85594130.79749
        44.600    20902958.53949
  24218811.391 7 127270758.931 7        41.300    24218818.297 7  99172061.64047
        28.400    24218817.82047  24218815.332 3  95039883.971 3        32.200
  24297201.414 5 127682693.458 5        36.300    24297208.246 5  99493048.07445
        18.600    24297207.14145  24297203.336 1  95347489.854 1        27.400
 17  4  8  0 24  0.0000000  0 11G01G32G08G28G17G14G03G11G22G27G10
  20602458.422 9 108266664.406 9        54.100    20602465.355 9  84363667.60549
        48.100    20602465.30549  20602461.230 7  80848500.566 7        42.700
  22288222.539 9 117125418.795 9        49.800    22288228.824 9  91266581.57649
        39.300    22288228.14149  22288224.719 5  87463800.304 5        37.300
  21569478.180 9 113348452.816 9        51.900    21569485.301 9  88323470.49949
        44.100    21569484.10249  21569480.945 6  84643316.496 6        40.200
  23490239.516 7 123442036.789 7        43.900                    96188616.02347
        27.400    23490242.61747
  25391297.953 6 133432173.810 6        40.700    25391301.770 5 103973130.31946
        22.300    25391301.44146
  21979985.797 9 115505604.777 9        49.000                    90004393.33949
        37.500    21979989.05549
  22401627.852 9 117721364.936 9        49.500    22401635.125 8  91730955.52349
        39.200    22401634.64149  22401632.426 5  87908820.093 5        37.000
  20024397.945 9 105228930.782 9        49.200                    81996592.25849
        44.900    20024400.46549
  20894368.359 9 109800799.467 9        50.200                    85558959.85449
        44.500    20894369.73049
  24240371.383 7 127384055.573 7        42.200    24240377.578 7  99260344.73547
        29.700    24240377.16447  24240373.324 2  95124488.603 2        31.200
  24316324.258 5 127783185.306 5        36.300    24316330.391 5  99571353.38845
        19.000    24316329.85245  24316325.926 1  95422532.477 1        26.000
 17  4  8  0 24 30.0000000  0 11G01G32G08G28G17G14G03G11G22G27G10
  20594819.914 9 108226523.566 9        53.700    20594827.094 9  84332389.02449
        48.000    20594826.72749  20594822.824 7  80818525.264 7        42.500
  22293555.234 9 117153442.535 9        48.900    22293561.383 8  91288418.26949
        39.500    22293560.62149  22293557.313 5  87484727.142 5        37.400
  21584550.617 9 113427659.272 9        50.900    21584557.898 9  88385189.81949
        43.800    21584556.66049  21584553.449 6  84702464.184 6        39.800
  23492154.719 7 123452104.787 7        42.500                    96196461.19047
        28.500    23492159.05547
  25371565.680 6 133328482.208 6        40.200    25371568.234 3 103892331.61146
        20.100    25371567.89546
  21975898.305 9 115484124.968 9        48.800                    89987655.83749
        37.600    21975902.17249
  22385260.469 9 117635352.401 9        49.900    22385267.809 8  91663932.77549
        39.400    22385266.94949  22385264.852 5  87844589.964 5        37.000
  20022325.219 9 105218036.494 9        49.100                    81988103.19249
        45.300    20022328.13349
  20885851.414 9 109756042.110 9        51.300                    85524084.00449
        44.600    20885852.48849
  24261949.406 7 127497451.201 7        42.300    24261956.652 7  99348704.96147
        29.900    24261956.30547  24261952.875 3  95209167.172 3        32.000
  24335458.953 5 127883735.910 5        37.300    24335465.320 6  99649704.51945
        19.000    24335465.18445  24335460.848 1  95497618.971 1        26.400
 17  4  8  0 25  0.0000000  0 11G01G32G08G28G17G14G03G11G22G27G10
  20587242.672 9 108186705.321 9        54.900    20587249.840 9  84301361.82249
        48.100    20587249.39549  20587245.613 7  80788790.860 7        42.200
  22298998.961 9 117182049.385 9        49.600    22299005.656 8  91310709.33549
        38.800    22299004.73049  22299001.250 5  87506089.404 5        37.500
  21599700.328 9 113507271.170 9        50.800    21599707.676 9  88447225.05449
        43.400    21599706.31649  21599703.570 6  84761914.614 6        40.000
  23494168.813 7 123462686.121 7        43.900                    96204706.37547
        28.500    23494172.55947
  25351849.211 6 133224871.852 6        39.200    25351853.793 6 103811596.24946
        22.200    25351852.83246
  21971916.352 9 115463200.089 9        49.600                    89971350.74549
        37.900    21971920.11749
  22368945.898 9 117549618.926 9        50.300    22368953.176 8  91597127.48949
        39.400    22368952.21149  22368950.348 5  87780568.237 5        36.700
  20020350.781 9 105207662.130 9        48.600                    81980019.26849
        45.200    20020353.27749
  20877406.953 9 109711664.149 9        51.600                    85489503.76749
        45.100    20877407.73049
  24283546.078 7 127610943.897 7        41.100    24283553.738 7  99437140.81147
        29.100    24283552.91847  24283550.133 3  95293918.183 3        32.200
  24354602.492 4 127984343.909 4        34.200    24354609.828 5  99728100.34845
        17.400    24354610.52045  24354605.832 1  95572748.317 1        28.600
 17  4  8  0 25 30.0000000  0 11G01G32G08G28G17G14G03G11G22G27G10
  20579727.195 9 108147210.623 9        54.900    20579734.363 9  84270586.72949
        47.900    20579733.93449  20579730.094 7  80759298.065 7        42.600
  22304553.227 9 117211238.386 9        49.300    22304559.895 9  91333454.01649
        39.300    22304559.01649  22304555.418 5  87527886.395 5        36.800
  21614926.445 9 113587286.636 9        51.300    21614933.602 9  88509574.76849
        43.300    21614932.64549  21614929.605 6  84821666.424 6        39.700
  23496280.258 7 123473780.048 7        43.800                    96213350.98547
        28.300    23496283.00047
  25332149.375 7 133121344.998 7        41.800    25332153.035 6 103730926.04347
        26.000    25332152.10247
  21968040.414 9 115442831.071 9        50.000                    89955478.78649
        37.700    21968043.54349
  22352685.055 9 117464165.689 9        51.100    22352691.906 8  91530540.56349
        39.300    22352690.70349  22352689.605 5  87716755.759 5        37.700
  20018475.578 9 105197808.604 9        48.600                    81972341.18949
        44.700    20018478.33249
  20869034.156 9 109667665.586 9        52.400                    85455219.18249
        44.700    20869035.21949
  24305162.313 7 127724531.549 7        42.300    24305168.035 7  99525650.63447
        29.400    24305167.37547  24305164.184 1  95378740.089 1        30.200
  24373759.164 3 128085007.81113        33.500    24373765.777 5  99806539.74454
        14.800    24373765.95344  24373761.797 1  95647919.35011        28.800
 17  4  8  0 26  0.0000000  0 11G01G32G08G28G17G14G03G11G22G27G10
  20572273.258 9 108108040.500 9        55.700    20572281.023 9  84240064.56149
        48.500    20572280.58649  20572276.566 7  80730047.650 7        42.100
  22310218.352 9 117241008.513 9        49.400    22310225.141 8  91356651.52149
        38.700    22310224.39549  22310220.797 5  87550117.335 5        37.300
  21630229.609 9 113667703.976 9        51.000    21630236.844 9  88572237.62749
        43.300    21630235.50449  21630232.527 6  84881718.325 6        39.500
  23498488.625 7 123485385.606 7        43.000                    96222394.25547
        26.900    23498491.75447
  25312465.891 7 133017904.222 7        42.900    25312469.863 6 103650322.87447
        27.400    25312469.28147
  21964270.375 9 115423018.782 9        49.100                    89940040.64749
        38.000    21964273.60549
  22336477.445 9 117378993.800 9        51.000    22336483.957 8  91464172.87049
        39.000    22336482.96949  22336481.926 5  87653153.402 5        37.100
  20016700.008 9 105188476.997 9        48.900                    81965069.80749
        45.100    20016702.65249
  20860733.188 9 109624046.858 9        52.400                    85421230.56949
        44.700    20860734.38349
  24326794.477 7 127838212.002 7        41.500    24326801.188 7  99614232.85347
        29.800    24326800.71947  24326797.055 1  95463631.397 1        30.600
  24392926.430 5 128185725.949 5        35.400    24392931.785 5  99885021.35845
        17.800    24392931.28945  24392927.773 1  95723130.896 1        28.100
 17  4  8  0 26 30.0000000  0 11G01G32G08G28G17G14G03G11G22G27G10
  20564881.695 9 108069195.660 9        55.000    20564888.410 9  84209795.84849
        48.400    20564888.43449  20564884.418 7  80701040.145 7        42.400
  22315993.789 9 117271358.581 9        48.300    22316000.195 8  91380300.92449
        39.000    22315999.40249  22315995.746 5  87572781.349 5        36.600
  21645608.672 9 113748520.952 9        50.800    21645615.723 9  88635211.88449
        43.600    21645614.74649  21645611.590 6  84942068.663 6        39.400
  23500793.875 7 123497501.792 7        42.300                    96231835.42347
        28.000    23500797.53147
  25292797.313 6 132914551.120 6        40.700    25292801.711 5 103569787.97146
        22.600    25292801.44546
  21960605.977 9 115403763.774 9        49.500                    89925036.75949
        37.700    21960609.67249
  22320323.203 9 117294104.251 9        50.900    22320330.246 8  91398025.17649
        39.900    22320329.44549  22320327.992 5  87589761.870 5        37.700
  20015023.273 9 105179667.503 9        49.600                    81958205.26049
        44.900    20015026.31649
  20852505.109 9 109580807.892 9        51.900                    85387537.87349
        44.900    20852506.41849
  24348444.297 7 127951983.065 7        41.500    24348451.746 7  99702885.57647
        29.900    24348451.07447  24348447.996 2  95548590.274 2        31.800
  24412101.758 3 128286496.773 3        33.700    24412108.430 6  99963544.14545
        18.300    24412108.08245  24412103.453 1  95798381.861 1        25.100
 17  4  8  0 27  0.0000000  0 11G01G32G08G28G17G14G03G11G22G27G10
  20557551.719 9 108030677.291 9        54.500    20557558.754 9  84179781.53549
        48.500    20557558.46549  20557554.566 7  80672276.421 7        42.200
  22321879.438 9 117302287.684 9        48.800    22321885.844 8  91404401.53149
        38.800    22321884.94949  22321881.465 5  87595877.761 5        37.000
  21661063.234 9 113829735.757 9        51.000    21661070.660 9  88698496.14649
        43.400    21661069.66849  21661066.570 6  85002716.079 6        39.900
  23503196.977 7 123510128.116 7        43.700                    96241674.11947
        27.600    23503200.62547
  25273145.734 5 132811288.037 5        36.500    25273151.238 6 103489323.21946
        20.900    25273150.63746
  21957048.148 9 115385066.858 9        49.600                    89910467.74449
        37.800    21957051.52049
  22304223.484 9 117209498.302 9        51.200    22304230.105 8  91332098.47249
        40.100    22304229.44949  22304227.879 5  87526582.115 5        37.000
  20013446.742 9 105171381.279 9        49.000                    81951748.46049
        45.200    20013449.39849
  20844350.039 9 109537949.564 9        52.800                    85354141.78649
        45.000    20844350.84049
  24370110.813 7 128065842.667 7        41.700    24370118.059 7  99791607.32747
        28.600    24370117.78947  24370114.828 3  95633615.265 3        32.200
  24431288.086 3 128387318.86813        33.000    24431294.742 6 100042106.75655
        16.900    24431295.11345  24431289.375 1  95873671.09511        26.500
 17  4  8  0 27 30.0000000  0 11G01G32G08G28G17G14G03G11G22G27G10
  20550284.188 9 107992486.397 9        54.500    20550291.453 9  84150022.39849
        48.600    20550290.95349  20550286.934 7  80643757.250 7        42.300
  22327874.773 9 117333794.830 9        48.200    22327881.766 8  91428952.55849
        38.300    22327881.14849  22327877.488 5  87619405.836 5        37.000
  21676593.164 9 113911346.495 9        51.100    21676600.086 9  88762088.92749
        43.700    21676599.38749  21676596.348 6  85063659.161 6        39.700
  23505696.539 7 123523263.896 7        43.200                    96251909.76347
        27.600    23505698.77047
  25253513.859 6 132708117.295 6        39.800    25253519.316 6 103408930.43846
        22.600    25253517.97746
  21953596.453 9 115366929.368 9        48.800                    89896334.63549
        37.300    21953600.21549
  22288177.305 9 117125177.166 9        50.300    22288184.469 8  91266393.69949
        40.200    22288183.65649  22288181.797 5  87463615.042 5        37.900
  20011969.930 9 105163619.472 9        49.100                    81945700.28649
        45.300    20011972.69149
  20836266.586 9 109495471.965 9        52.200                    85321042.36549
        45.000    20836267.71149
  24391794.242 6 128179788.888 6        40.800    24391800.977 6  99880396.60547
        27.900    24391799.97347  24391797.305 1  95718704.965 1        30.800
  24450483.195 3 128488190.911 3        33.500    24450489.367 6 100120708.27045
        16.300    24450490.48045  24450485.211 1  95948997.546 1        27.600
 17  4  8  0 28  0.0000000  0 11G01G32G08G28G17G14G03G11G22G27G10
  20543079.289 9 107954623.505 9        55.200    20543086.301 9  84120518.84249
        48.400    20543086.00849  20543081.988 7  80615483.011 7        42.600
  22333980.305 9 117365878.419 9        48.300    22333987.383 9  91453952.75549
        39.200    22333986.49249  22333982.719 5  87643364.356 5        37.300
  21692197.852 9 113993350.588 9        50.500    21692204.961 9  88825988.21449
        42.900    21692203.87149  21692200.949 6  85124895.977 6        39.900
  23508292.750 7 123536908.101 7        42.700                    96262541.60547
        26.500    23508296.34447
  25233898.266 6 132605040.859 6        39.200    25233903.727 6 103328611.10546
        22.000    25233903.10546
  21950251.836 9 115349351.361 9        48.800                    89882637.50449
        37.500    21950255.38749
  22272185.852 9 117041141.438 9        51.200    22272193.219 8  91200911.32949
        39.600    22272192.20349  22272190.578 5  87400861.100 5        37.600
  20010592.813 9 105156382.374 9        48.700                    81940060.98949
        45.000    20010595.37149
  20828255.852 9 109453375.018 9        52.500                    85288239.54949
        44.900    20828256.95349
  24413493.586 7 128293819.105 7        41.200    24413500.406 7  99969251.32147
        29.400    24413499.77747  24413496.055 1  95803857.420 1        30.300
  24469687.984 4 128589110.889 4        34.500    24469693.504 5 100199347.18545
        16.300    24469693.90645  24469689.926 1  96024359.822 1        26.700
 17  4  8  0 28 30.0000000  0 11G01G32G08G28G17G14G03G11G22G27G10
  20535936.656 9 107917089.741 9        54.400    20535944.055 9  84091271.75049
        48.400    20535943.71949  20535939.703 7  80587454.551 7        42.500
  22340195.008 8 117398537.597 8        47.100    22340201.383 8  91479401.47449
        39.000    22340200.93049  22340197.391 5  87667752.713 5        36.800
  21707877.273 9 114075746.831 9        51.000    21707884.496 9  88890193.07949
        42.800    21707883.35949  21707880.262 6  85186425.639 6        39.400
  23510985.930 7 123551059.773 7        43.000                    96273568.86247
        27.600    23510989.04347
  25214302.852 6 132502060.877 6        40.000    25214307.277 6 103248366.94146
        23.600    25214306.81646
  21947013.359 9 115332333.932 9        48.800                    89869377.17749
        38.100    21947016.78149
  22256249.031 9 116957392.467 9        49.800    22256256.246 8  91135652.39749
        39.300    22256255.19149  22256253.508 5  87338321.298 5        37.500
  20009315.453 9 105149670.931 9        48.800                    81934831.28949
        44.900    20009318.19149
  20820317.445 9 109411659.119 9        50.900                    85255733.66149
        45.000    20820318.65649
  24435208.508 7 128407931.378 7        41.700    24435215.383 7 100058169.93847
        29.400    24435215.19947  24435211.887 3  95889071.108 3        32.900
  24488901.055 5 128690077.413 5        35.300    24488907.059 5 100278022.43645
        16.300    24488907.14145  24488902.691 1  96099756.901 1        26.900
 17  4  8  0 29  0.0000000  0 11G01G32G08G28G17G14G03G11G22G27G10
  20528856.820 9 107879885.903 9        54.500    20528864.270 9  84062281.75149
        48.500    20528863.78149  20528859.824 7  80559672.461 7        42.500
  22346519.344 8 117431770.981 8        47.800    22346525.836 8  91505297.61549
        39.000    22346525.09849  22346521.852 5  87692569.848 5        37.100
  21723631.148 9 114158532.239 9        50.800    21723638.520 9  88954701.17949
        43.700    21723637.59049  21723634.082 6  85248245.904 6        39.500
  23513774.828 7 123565718.068 7        42.500                    96284990.91347
        28.200    23513778.79347
  25194724.852 6 132399179.671 6        39.200    25194730.191 6 103168199.82046
        23.500    25194730.02746
  21943881.367 9 115315877.524 9        49.100                    89856554.01749
        37.800    21943885.00049
  22240367.063 9 116873931.114 9        50.000    22240374.184 8  91070617.59349
        40.400    22240373.51249  22240371.418 5  87275996.283 5        37.900
  20008138.563 9 105143485.594 9        48.800                    81930011.53749
        45.500    20008141.19949
  20812451.797 9 109370324.087 9        52.200                    85223524.54949
        45.200    20812452.78949
  24456938.820 7 128522123.416 7        42.500    24456945.484 6 100147150.74347
        28.300    24456944.82047  24456942.328 3  95974344.340 3        32.800
  24508123.156 5 128791088.976 5        35.300    24508129.676 5 100356732.75245
        16.900    24508128.84445  24508123.805 1  96175187.618 1        25.000
 17  4  8  0 29 30.0000000  0 11G01G32G08G28G17G14G03G11G22G27G10
  20521840.367 9 107843013.135 9        53.400    20521847.777 9  84033549.71849
        48.400    20521847.28949  20521843.215 7  80532137.604 7        42.800
  22352952.703 9 117465577.645 9        48.200    22352959.066 8  91531640.47749
        37.700    22352958.12549  22352954.762 5  87717815.087 5        36.500
  21739458.422 9 114241705.451 9        50.800    21739465.449 9  89019511.46749
        43.200    21739464.65649  21739461.441 6  85310355.765 6        39.400
  23516660.977 7 123580882.013 7        43.400                    96296806.96347
        27.200    23516664.52347
  25175167.289 7 132296399.740 7        41.500    25175170.586 5 103088111.61346
        24.800    25175169.93446
  21940857.070 9 115299983.062 9        48.100                    89844168.72349
        37.900    21940861.00849
  22224540.141 9 116790758.697 9        50.300    22224546.656 8  91005807.93449
        40.200    22224545.87949  22224543.781 5  87213887.017 5        37.800
  20007062.102 9 105137827.426 9        48.700                    81925602.57049
        44.900    20007064.61749
  20804658.500 9 109329370.789 9        50.500                    85191612.89649
        44.900    20804659.71549
  24478683.391 7 128636393.261 7        41.900    24478689.945 6 100236192.20447
        27.900    24478689.17647  24478685.688 1  96059675.732 1        28.500
  24527352.859 4 128892144.290 4        34.600    24527359.910 5 100435477.12745
        17.400    24527359.54745  24527353.922 1  96250651.001 1        25.900
 17  4  8  0 30  0.0000000  0 11G01G32G08G28G17G14G03G11G22G27G10
  20514886.734 9 107806472.237 9        54.100    20514894.539 9  84005076.29749
        48.600    20514893.84449  20514889.824 7  80504850.572 7        42.600
  22359494.438 9 117499956.218 9        48.000    22359500.734 8  91558428.98549
        38.800    22359499.67249  22359496.602 5  87743487.403 5        36.300
  21755359.094 9 114325264.372 9        50.800    21755366.352 9  89084622.30449
        42.800    21755365.37949  21755362.637 6  85372753.654 6        39.100
  23519642.367 7 123596550.854 7        42.700                    96309016.44347
        28.700    23519645.82847
  25155629.891 7 132193722.927 7        44.600    25155631.563 5 103008103.64047
        26.000    25155631.26647
  21937939.609 9 115284651.143 9        48.100                    89832221.78749
        37.200    21937943.60249
  22208767.586 9 116707876.113 9        50.900    22208774.543 8  90941224.11149
        40.100    22208773.72349  22208772.039 5  87151994.194 5        37.500
  20006085.430 9 105132696.729 9        48.500                    81921604.61749
        44.900    20006088.77349
  20796937.813 9 109288798.713 9        50.400                    85159998.29449
        45.000    20796939.00849
  24500442.375 7 128750738.764 7        41.100    24500450.379 7 100325292.57448
        30.000    24500449.59048  24500445.750 2  96145063.630 2        31.200
  24546591.086 4 128993241.690 4        34.500    24546598.277 5 100514254.27245
        17.400    24546597.78545  24546592.926 1  96326145.809 1        26.500
 17  4  8  0 30 30.0000000  0 11G01G32G08G28G17G14G03G11G22G27G10
  20507996.438 9 107770264.057 9        53.500    20508003.859 9  83976862.12649
        48.700    20508003.65649  20507999.699 7  80477811.997 7        42.100
  22366144.773 8 117534905.396 8        47.900    22366151.410 8  91585662.11749
        38.400    22366150.59449  22366147.051 5  87769585.825 5        36.000
  21771332.906 9 114409206.980 9        50.500    21771340.379 9  89150032.12249
        42.600    21771339.31649  21771335.988 6  85435438.064 6        39.300
  23522719.859 7 123612723.313 7        43.100                    96321618.34547
        28.500    23522722.84847
  25136109.930 6 132091151.611 6        40.200    25136114.500 6 102928177.95146
        24.700    25136114.25046
  21935128.961 9 115269882.387 9        48.400                    89820713.66849
        37.200    21935132.68449
  22193051.078 9 116625284.364 9        49.900    22193058.434 8  90876866.90749
        40.800    22193057.57449  22193055.711 6  87090318.550 6        38.100
  20005209.398 9 105128094.571 9        48.400                    81918018.52349
        45.100    20005213.04749
  20789290.008 9 109248608.717 9        52.000                    85128681.42449
        45.200    20789291.01249
  24522215.727 7 128865157.585 7        41.300    24522222.758 6 100414450.08547
        28.500    24522222.24647  24522220.051 3  96230506.250 3        33.400
  24565837.680 5 129094379.657 5        35.000    24565843.379 4 100593063.04845
        16.900    24565842.89145  24565839.199 1  96401670.861 1        28.400
 17  4  8  0 31  0.0000000  0 11G01G32G08G28G17G14G03G11G22G27G10
  20501169.898 9 107734389.785 9        54.500    20501177.023 9  83948908.15149
        48.700    20501177.05949  20501173.219 7  80451022.765 7        42.500
  22372904.148 9 117570424.166 9        48.000    22372910.816 8  91613339.07949
        38.300    22372909.94149  22372906.461 5  87796109.587 5        36.600
  21787379.406 9 114493531.251 9        50.500    21787386.570 9  89215739.34849
        43.000    21787385.25449  21787382.219 6  85498407.483 6        39.300
  23525893.031 7 123629398.602 7        42.100                    96334612.07147
        27.600    23525896.89547
  25116610.391 5 131988688.053 5        37.300    25116616.660 7 102848336.35646
        24.700    25116615.93846
  21932425.695 9 115255677.530 9        48.900                    89809644.95949
        37.500    21932429.48049
  22177389.656 9 116542984.722 9        50.400    22177397.090 9  90812737.33249
        40.600    22177396.46949  22177394.430 6  87028861.033 6        38.100
  20004434.602 9 105124022.028 9        48.600                    81914845.10349
        45.300    20004437.81349
  20781714.445 9 109208800.340 9        52.700                    85097661.92149
        45.200    20781715.38749
  24544002.070 6 128979647.905 6        40.700    24544009.004 6 100503663.30747
        27.300    24544008.51247  24544006.078 2  96316002.213 2        31.200
  24585091.391 3 129195556.893 3        33.700    24585096.090 4 100671902.53544
        14.800    24585095.55144  24585091.102 1  96477225.289 1        24.500
 17  4  8  0 31 30.0000000  0 11G01G32G08G28G17G14G03G11G22G27G10
  20494407.055 9 107698850.295 9        53.900    20494414.121 9  83921215.04649
        48.900    20494413.83249  20494409.992 7  80424483.540 7        42.500
  22379771.148 9 117606511.221 9        48.000    22379777.438 9  91641458.86549
        38.300    22379776.39149  22379772.965 5  87823057.714 5        36.500
  21803497.758 9 114578234.867 9        50.300    21803505.063 9  89281742.16749
        42.300    21803504.02349  21803500.691 6  85561660.183 6        39.400
  23529161.914 7 123646576.010 7        42.200                    96347997.04947
        27.000    23529165.56647
  25097135.242 7 131886334.477 7        44.100    25097137.832 5 102768580.32346
        24.700    25097137.42646
  21929830.492 9 115242037.315 9        48.200                    89799016.23649
        38.100    21929833.98449
  22161784.516 9 116460978.167 9        49.900    22161791.961 9  90748836.13349
        40.400    22161791.03949  22161789.293 6  86967622.383 6        38.300
  20003760.398 9 105120479.515 9        48.400                    81912084.70049
        45.100    20003763.57849
  20774211.914 9 109169374.274 9        51.900                    85066940.31249
        45.100    20774213.30149
  24565802.438 7 129094207.453 7        41.500    24565809.254 6 100592930.49547
        29.100    24565807.78147  24565804.762 1  96401549.937 1        30.000
  24604350.898 1 129296771.977 1        29.900    24604358.164 5 100750771.39943
        13.900    24604357.69543  24604353.008 1  96552807.980 1        25.800
 17  4  8  0 32  0.0000000  0 11G01G32G08G28G17G14G03G11G22G27G10
  20487708.008 9 107663646.262 9        53.700    20487714.980 9  83893783.33149
        48.900    20487714.87149  20487711.027 7  80398194.811 7        42.600
  22386746.258 9 117643165.012 9        49.400    22386752.469 8  91670020.26349
        38.100    22386751.82449  22386748.285 5  87850429.056 5        36.800
  21819688.414 9 114663316.040 9        50.100    21819695.914 9  89348039.17149
        42.200    21819695.09449  21819691.469 6  85625194.819 6        39.000
  23532526.453 7 123664254.044 7        42.700                    96361772.13547
        26.400    23532529.13347
  25077678.203 6 131784093.146 6        40.100    25077682.219 5 102688911.64846
        21.300    25077681.60946
  21927342.273 9 115228961.888 9        49.200                    89788827.59849
        37.700    21927345.73449
  22146235.102 9 116379265.450 9        50.800    22146242.238 8  90685163.90549
        40.800    22146241.43849  22146239.809 6  86906603.167 6        38.200
  20003187.406 9 105117467.261 9        48.600                    81909737.49049
        44.900    20003190.19549
  20766782.172 9 109130330.035 9        50.400                    85036516.23349
        45.400    20766783.65249
  24587615.547 7 129208833.906 7        41.700    24587622.422 7 100682249.78647
        28.400    24587621.73047  24587618.828 2  96487147.635 2        31.500
  24623618.039 1 129398023.224 1        30.300    24623625.641 5 100829668.34344
        14.800    24623625.12944  24623618.801 1  96628417.605 1        24.400
 17  4  8  0 32 30.0000000  0 11G01G32G08G28G17G14G03G11G22G27G10
  20481072.930 9 107628778.892 9        53.500    20481079.953 9  83866613.95349
        48.900    20481079.69149  20481075.793 7  80372157.495 7        42.300
  22393828.594 9 117680384.494 9        48.100    22393835.570 8  91699022.46249
        38.600    22393834.91049  22393831.195 5  87878222.826 5        37.200
  21835950.258 9 114748772.511 9        50.500    21835957.590 9  89414628.62249
        42.600    21835956.55949  21835953.461 6  85689009.710 6        38.900
  23535984.867 7 123682431.854 7        42.700                    96375936.64847
        26.500    23535988.03547
  25058243.539 7 131681966.193 7        42.300    25058248.906 6 102609332.26547
        26.200    25058248.23847
  21924961.289 9 115216452.041 9        49.100                    89779079.66949
        37.300    21924965.60249
  22130741.789 9 116297847.928 9        50.900    22130748.738 8  90621721.69549
        40.400    22130747.91449  22130746.348 5  86845804.388 5        37.900
  20002714.859 9 105114986.378 9        48.700                    81907804.32949
        45.600    20002718.57049
  20759425.250 9 109091668.753 9        50.300                    85006390.56849
        45.500    20759426.52749
  24609440.242 6 129323525.376 6        40.900    24609446.871 7 100771619.73947
        25.800    24609446.70747  24609443.688 2  96572793.825 2        31.800
  24642892.914 3 129499309.37013        32.400    24642899.133 5 100908592.62955
        15.600    24642899.01645  24642893.625 1  96704053.42911        24.800
 17  4  8  0 33  0.0000000  0 11G01G32G08G28G17G14G03G11G22G27G10
  20474502.195 9 107594248.885 9        54.400    20474509.383 9  83839707.45449
        48.900    20474508.90249  20474504.766 7  80346372.096 7        42.900
  22401018.820 9 117718168.067 9        48.700    22401025.492 8  91728464.20549
        38.100    22401024.60249  22401020.945 5  87906437.830 5        36.600
  21852282.914 9 114834602.210 9        50.300    21852290.512 9  89481508.89749
        42.600    21852289.60549  21852286.449 6  85753103.303 6        39.900
  23539539.219 7 123701108.371 7        42.500                    96390489.75947
        29.700    23539542.83647
  25038832.469 7 131579955.945 7        43.400    25038836.086 5 102529843.80846
        24.700    25038835.16446
  21922688.898 9 115204508.124 9        49.600                    89769772.72649
        38.100    21922692.38349
  22115304.813 9 116216726.325 9        51.000    22115311.738 8  90558510.06249
        40.400    22115311.14149  22115309.512 6  86785226.579 6        38.000
  20002344.352 9 105113037.197 9        48.800                    81906285.47949
        45.100    20002347.17249
  20752140.883 9 109053389.684 9        51.800                    84976562.73249
        45.400    20752142.02749
  24631276.945 7 129438279.534 7        41.300    24631284.027 6 100861038.61247
        27.600    24631282.58647  24631280.742 1  96658486.852 1        30.900
  24662172.992 1 129600628.784 1        30.300    24662179.180 3 100987542.87243
        13.900    24662179.21143  24662175.402 1  96779714.009 1        26.200
 17  4  8  0 33 30.0000000  0 11G01G32G08G28G17G14G03G11G22G27G10
  20467995.617 9 107560057.362 9        53.700    20468002.836 9  83813064.71049
        49.100    20468002.48849  20467998.355 7  80320839.465 7        42.800
  22408315.906 9 117756514.614 9        49.500    22408322.133 8  91758344.64449
        38.300    22408321.63349  22408318.152 5  87935073.251 5        36.500
  21868686.172 9 114920803.276 9        50.000    21868693.559 9  89548678.55449
        42.000    21868692.43849  21868689.223 6  85817474.224 6        38.700
  23543187.375 7 123720282.806 7        43.200                    96405430.87847
        27.600    23543190.80947
  25019442.945 6 131478064.802 6        40.400    25019446.047 3 102450448.06745
        19.000    25019445.12945
  21920523.789 9 115193130.779 9        49.500                    89760907.28249
        38.300    21920527.25049
  22099924.461 9 116135901.884 9        52.100    22099931.816 8  90495529.99349
        41.300    22099930.84049  22099929.098 5  86724870.684 5        37.900
  20002074.891 9 105111620.619 9        49.100                    81905181.65349
        45.300    20002077.58249
  20744929.703 9 109015493.804 9        50.500                    84947033.47649
        45.600    20744930.65249
  24653125.859 7 129553094.350 7        41.100    24653132.961 7 100950504.70947
        28.300    24653131.88347  24653128.160 1  96744225.220 1        29.800
  24681458.039 1 129701980.189 1        26.400    24681465.887 4 101066511.07814
        34.400                    24681461.672 1  96855398.461 1        24.700
 17  4  8  0 34  0.0000000  0 11G01G32G08G28G17G14G03G11G22G27G10
  20461553.898 9 107526205.083 9        54.400    20461561.371 9  83786686.30649
        49.000    20461560.76649  20461557.043 7  80295560.169 7        42.800
  22415719.688 9 117795422.539 9        49.400    22415726.109 8  91788662.51049
        37.800    22415725.44549  22415722.492 5  87964127.871 5        36.400
  21885160.188 9 115007373.086 9        49.900    21885167.285 9  89616135.55449
        41.800    21885166.32849  21885162.941 6  85882120.514 6        38.900
  23546931.266 7 123739953.660 7        42.600                    96420758.81447
        28.300    23546933.97747
  25000076.383 7 131376294.717 7        41.900    25000081.066 6 102371146.69347
        25.400    25000080.08647
  21918466.703 9 115182320.254 9        49.600                    89752483.50449
        38.200    21918470.02349
  22084600.547 9 116055375.366 9        51.800    22084608.168 8  90432782.07349
        40.400    22084607.11349  22084605.840 6  86664737.257 6        38.000
  20001906.430 9 105110736.760 9        48.600                    81904492.92249
        45.000    20001909.50449
  20737791.180 9 108977980.656 9        52.300                    84917802.45949
        45.400    20737792.20749
  24674985.102 7 129667967.539 7        41.600    24674993.023 7 101040016.23047
        26.900    24674992.64147  24674989.387 1  96830007.147 1        30.600
  24700751.781 1 129803362.10211        28.600    24700758.961 5 101145510.00115
        35.700                    24700752.660 1  96931105.74811        23.000
 17  4  8  0 34 30.0000000  0 11G01G32G08G28G17G14G03G11G22G27G10
  20455176.633 9 107492692.949 9        54.500    20455183.668 9  83760572.95249
        49.100    20455183.50849  20455179.371 7  80270534.866 7        43.000
  22423230.516 9 117834890.515 9        49.800    22423236.805 8  91819416.77749
        38.000    22423235.76649  22423232.867 5  87993600.707 5        36.500
  21901703.758 9 115094309.897 9        49.900    21901711.086 9  89683878.52249
        41.500    21901710.04349  21901706.828 6  85947040.860 6        38.800
  23550768.406 7 123760119.846 7        43.400                    96436472.72347
        28.900    23550772.68847
  24980734.758 7 131274648.146 7        42.700    24980738.883 6 102291941.59847
        26.500    24980738.43847
  21916517.563 8 115172077.509 8        47.800                    89744502.14549
        37.700    21916521.21149
  22069334.188 9 115975147.865 9        52.200    22069340.922 8  90370267.14549
        41.100    22069340.00449  22069338.789 6  86604827.130 6        38.100
  20001839.898 9 105110386.583 9        48.700                    81904220.05549
        44.900    20001842.58649
  20730725.547 9 108940850.369 9        51.100                    84888869.77649
        45.700    20730726.62149
  24696856.117 7 129782896.996 7        41.500    24696862.223 6 101129571.66147
        27.000    24696861.37547  24696859.531 2  96915831.050 2        31.600
  24720050.680 1                        30.500

 17  4  8  0 35  0.0000000  0 11G01G32G08G28G17G14G03G11G22G27G10
  20448864.469 9 107459521.964 9        55.100    20448871.680 9  83734725.43349
        49.100    20448871.33649  20448867.262 7  80245764.330 7        42.500
  22430846.922 9 117874917.132 9        50.200    22430853.449 8  91850606.34649
        38.000    22430852.90649  22430849.543 5  88023490.716 5        36.100
  21918316.359 9 115181611.350 9        49.500    21918324.102 9  89751905.61849
        41.700    21918323.34849  21918320.078 6  86012233.491 6        39.100
  23554700.539 7 123780780.186 7        42.600                    96452571.67947
        26.500    23554703.50447
  24961413.984 6 131173127.303 6        39.900    24961419.695 5 102212834.45846
        21.800    24961418.36746
  21914676.484 9 115162402.635 9        48.100                    89736963.28949
        37.900    21914679.91449
  22054123.992 9 115895220.352 9        52.300    22054131.355 9  90307985.97349
        41.100    22054130.42249  22054128.793 5  86545141.016 5        37.600
  20001874.914 9 105110570.696 9        48.500                    81904363.51649
        45.500    20001877.71149
  20723732.555 9 108904103.005 9        52.100                    84860235.47149
        45.800    20723733.75849
  24718736.523 6 129897880.631 6        40.500    24718743.414 6 101219169.31847
        25.700    24718742.87147  24718739.559 1  97001695.442 1        29.900
  24739352.711 2                        31.300

 17  4  8  0 35 30.0000000  0 11G01G32G08G28G17G14G03G11G22G27G10
  20442617.234 9 107426693.029 9        54.300    20442624.363 9  83709144.44949
        49.300    20442624.04749  20442620.262 7  80221249.221 7        43.000
  22438570.336 9 117915500.954 9        49.200    22438576.410 8  91882230.11149
        38.100    22438575.73049  22438572.129 5  88053796.823 5        36.500
  21934998.523 9 115269275.348 9        49.600    21935005.438 9  89820215.21249
        42.000    21935004.69149  21935001.480 6  86077696.855 6        38.500
  23558726.188 7 123801933.602 7        42.000                    96469054.84747
        27.000    23558729.14147
  24942121.594 7 131071734.662 7        44.600    24942124.516 5 102133827.12347
        25.300    24942122.91847
  21912943.641 9 115153296.159 9        48.000                    89729867.34349
        38.300    21912947.00449
  22038971.922 9 115815593.786 9        52.000    22038979.004 9  90245939.31149
        41.300    22038978.07849  22038976.098 5  86485679.637 5        37.600
  20002011.734 9 105111289.517 9        49.200                    81904923.62849
        45.400    20002014.75849
  20716812.859 9 108867738.691 9        51.600                    84831899.64749
        45.800    20716813.97349
  24740627.352 7 130012916.251 7        41.500    24740634.289 7 101308807.45247
        27.700    24740633.66047  24740629.820 1  97087598.682 1        28.700
  24758661.344 3 130107676.73213        33.900    24758667.145 3 101382603.06453
        13.900    24758668.03543  24758663.352 1  97158353.59211        22.800
 17  4  8  0 36  0.0000000  0 11G01G32G08G28G17G14G03G11G22G27G10
  20436435.203 9 107394206.775 9        54.100    20436442.352 9  83683830.47549
        49.200    20436441.67249  20436438.063 7  80196989.993 7        42.900
  22446398.859 9 117956640.211 9        49.300    22446405.156 8  91914286.67649
        38.300    22446404.29349  22446400.809 5  88084517.706 5        35.900
  21951749.109 9 115357299.461 9        49.700    21951756.227 9  89888805.43049
        41.900    21951755.08649  21951751.813 6  86143429.148 6        38.800
  23562844.547 7 123823578.833 7        41.800                    96485921.22947
        28.300    23562847.56647
  24922852.133 7 130970472.203 7        43.100    24922855.676 6 102054921.31047
        26.700    24922854.14147
  21911318.773 8 115144758.213 8        47.600                    89723214.41449
        38.100    21911322.82049
  22023876.938 9 115736268.875 9        51.800    22023883.719 9  90184127.71149
        41.400    22023882.98449  22023880.891 6  86426443.506 6        38.300
  20002250.109 9 105112543.227 9        48.500                    81905900.54449
        45.000    20002253.45349
  20709965.547 9 108831757.359 9        52.100                    84803862.25549
        45.900    20709966.70749
  24762527.500 6 130128001.416 6        40.300    24762533.910 7 101398484.19247
        26.500    24762533.23047  24762530.563 2  97173538.945 2        31.500
  24777974.938 6 130209166.254 6        38.400    24777979.672 1 101461720.80411
        28.300                    24777975.203 1  97234141.172 1        22.300
 17  4  8  0 36 30.0000000  0 11G01G32G08G28G17G14G03G11G22G27G10
  20430318.922 9 107362064.250 9        53.800    20430325.789 9  83658784.34749
        49.300    20430325.58249  20430321.684 7  80172987.459 7        43.100
  22454332.813 9 117998333.589 9        49.100    22454339.066 8  91946775.03249
        38.000    22454338.33249  22454334.613 5  88115652.369 5        35.900
  21968567.578 9 115445681.570 9        49.500    21968575.059 9  89957674.61049
        41.300    21968574.07849  21968570.922 6  86209428.782 6        38.400
  23567057.164 7 123845714.694 7        43.000                    96503169.96647
        28.900    23567060.74647
  24903605.758 6 130869342.715 6        40.500    24903611.605 6 101976119.16846
        24.200    24903611.77046
  21909802.516 9 115136789.090 9        48.700                    89717004.71649
        38.000    21909805.97349
  22008839.352 9 115657246.701 9        52.200    22008846.574 9  90122552.00549
        41.300    22008845.89149  22008843.797 6  86367433.466 6        38.800
  20002590.852 9 105114332.622 9        48.600                    81907294.87449
        45.100    20002594.11349
  20703191.641 9 108796158.900 9        50.500                    84776123.19549
        45.800    20703192.53149
  24784436.188 7 130243134.181 7        41.200    24784442.074 6 101488198.04446
        23.900    24784441.44146  24784438.895 1  97259514.682 1        30.500
  24797291.797 6 130310679.153 6        38.100    24797298.500 2 101540821.839 2
        31.400                    24797291.805 1  97309946.261 1        21.300
 17  4  8  0 37  0.0000000  0 11G01G32G08G28G17G14G03G11G22G27G10
  20424268.031 9 107330266.685 9        54.600    20424274.816 9  83634007.02849
        49.300    20424274.25849  20424270.477 7  80149242.525 7        42.700
  22462371.688 9 118040579.871 9        49.400    22462378.340 8  91979694.21549
        38.000    22462377.48449  22462373.766 5  88147199.920 5        36.500
  21985453.500 9 115534420.068 9        48.900    21985461.211 9  90026821.48149
        40.800    21985459.89149  21985457.203 6  86275694.531 6        38.300
  23571361.852 7 123868340.065 7        41.700                    96520800.09247
        26.700    23571365.61747
  24884388.875 7 130768347.860 7        44.000    24884392.426 6 101897421.91847
        25.900    24884391.94547
  21908394.078 9 115129389.668 9        48.400                    89711238.93949
        37.700    21908397.57449
  21993859.766 9 115578528.573 9        52.200    21993867.133 9  90061213.21949
        41.400    21993866.25049  21993864.445 6  86308650.459 6        38.600
  20003033.531 9 105116658.681 9        48.800                    81909107.38549
        45.800    20003036.71149
  20696490.492 9 108760944.184 9        52.300                    84748683.16549
        46.100    20696491.57449
  24806354.227 6 130358312.701 6        40.400    24806360.203 6 101577947.54347
        26.400    24806359.78947  24806355.309 1  97345524.618 1        28.800
  24816612.609 5 130412214.306 5        36.000    24816619.719 2 101619932.16253
        13.900    24816623.23443  24816612.688 1  97385768.007 1        20.100
 17  4  8  0 37 30.0000000  0 11G01G32G08G28G17G14G03G11G22G27G10
  20418282.773 9 107298814.732 9        55.100    20418289.949 9  83609499.00649
        49.500    20418289.73449  20418285.660 7  80125755.673 7        42.700
  22470515.766 8 118083377.326 8        47.200    22470522.332 8  92013042.88249
        38.100    22470521.71149  22470517.879 5  88179159.058 5        36.700
  22002407.711 9 115623512.282 9        48.900    22002414.777 9  90096243.97849
        41.000    22002413.91449  22002410.875 6  86342224.419 6        38.400
  23575761.406 7 123891453.711 7        42.200                    96538810.71147
        28.900    23575764.42647
  24865195.406 7 130667490.194 7        43.000    24865199.059 5 101818831.44346
        23.800    24865197.90246
  21907094.906 8 115122559.897 8        47.500                    89705917.05049
        38.100    21907098.02349
  21978938.125 9 115500115.106 9        51.700    21978945.176 9  90000111.82949
        41.300    21978944.27349  21978942.645 6  86250094.971 6        38.700
  20003578.469 9 105119521.222 9        48.800                    81911337.92849
        45.400    20003581.27049
  20689862.219 9 108726112.786 9        51.300                    84721541.82449
        46.000    20689863.56349
  24828280.039 6 130473534.551 6        40.000    24828286.742 6 101667730.81247
        25.800    24828286.32047  24828282.715 1  97431566.943 1        30.800
  24835939.023 4 130513770.18014        34.200    24835944.941 2 101699066.47054
        14.800    24835945.81644  24835938.199 1  97461605.18111        20.100
 17  4  8  0 38  0.0000000  0 11G01G32G08G28G17G14G03G11G22G27G10
  20412363.680 9 107267709.612 9        54.900    20412371.051 9  83585261.24949
        49.300    20412370.55949  20412366.719 7  80102527.823 7        43.000
  22478764.406 9 118126724.658 9        48.800    22478771.285 8  92046820.02649
        37.700    22478770.74249  22478766.793 5  88211528.818 5        36.000
  22019428.164 9 115712956.391 9        49.100    22019435.625 9  90165940.67649
        41.900    22019434.59849  22019431.266 6  86409017.094 6        38.400
  23580251.766 7 123915054.358 7        42.600                    96557200.83047
        28.500    23580255.10547
  24846028.586 7 130566772.616 7        41.200    24846034.520 6 101740350.24347
        26.200    24846033.46947
  21905903.453 8 115116300.322 8        47.000                    89701039.46849
        38.000    21905906.85249
  21964075.039 9 115422007.624 9        51.900    21964082.254 9  89939248.86149
        41.300    21964081.09849  21964079.297 6  86191767.962 6        38.300
  20004225.328 9 105122921.276 9        49.800                    81913987.32149
        45.400    20004228.38749
  20683307.055 9 108691665.138 9        50.700                    84694699.50749
        46.000    20683308.23449
  24850213.500 6 130588797.961 6        39.200    24850220.152 6 101757546.43546
        23.600    24850220.58246  24850217.035 1  97517640.254 1        30.900
  24855266.953 4 130615345.71814        34.600    24855272.984 3 101778216.36653
        13.900    24855274.26243  24855268.109 1  97537457.00811        22.300
 17  4  8  0 38 30.0000000  0 11G01G32G08G28G17G14G03G11G22G27G10
  20406510.734 9 107236952.017 9        55.400    20406517.852 9  83561294.29249
        49.700    20406517.60549  20406513.648 7  80079559.494 7        42.700
  22487117.516 8 118170620.168 8        47.900    22487123.867 8  92081024.32249
        37.500    22487123.05549  22487119.750 5  88244307.939 5        35.800
  22036515.477 9 115802750.085 9        49.300    22036523.070 9  90235909.78149
        41.700    22036521.87149  22036518.895 5  86476070.824 5        37.900
  23584835.422 7 123939140.815 7        41.600                    96575969.48547
        28.100    23584838.33647
  24826890.875 7 130466197.184 7        43.600    24826894.891 6 101661979.80846
        24.900    24826894.34046
  21904820.500 8 115110611.147 8        47.600                    89696606.34749
        38.700    21904824.24649
  21949269.547 9 115344206.783 9        51.600    21949277.008 9  89878624.85449
        41.200    21949276.14549  21949274.223 6  86133669.953 6        38.900
  20004974.578 9 105126859.011 9        50.000                    81917055.68549
        45.200    20004977.49249
  20676825.000 9 108657601.062 9        51.900                    84668156.07949
        46.100    20676825.87549
  24872155.922 7 130704100.437 7        41.000    24872160.734 6 101847392.54046
        23.600    24872161.23446  24872158.625 1  97603742.693 1        30.000
  24874601.672 3 130716939.31913        33.700    24874606.078 5 101857380.07153
        13.900    24874606.16843  24874601.129 1  97613322.35711        24.200
 17  4  8  0 39  0.0000000  0 11G01G32G08G28G17G14G03G11G22G27G10
  20400724.023 9 107206542.836 9        54.400    20400731.121 9  83537598.82449
        49.500    20400730.75049  20400726.848 7  80056851.334 7        43.000
  22495574.633 8 118215062.195 8        47.700    22495580.855 8  92115654.46949
        37.700    22495580.23849  22495576.641 5  88277495.166 5        36.700
  22053668.766 9 115892891.127 9        49.700    22053675.879 9  90306149.55649
        41.600    22053674.84849  22053671.926 5  86543383.932 5        37.900
  23589510.992 7 123963711.745 7        42.800                    96595115.63747
        28.200    23589514.29347
  24807778.578 7 130365765.868 7        41.200    24807782.277 5 101583721.63846
        22.200    24807781.56346
  21903846.570 9 115105492.515 9        48.300                    89692617.81849
        38.100    21903849.89149
  21934523.438 9 115266713.505 9        51.600    21934530.590 9  89818240.49049
        42.100    21934529.54349  21934528.090 6  86075801.604 6        38.600
  20005826.242 9 105131334.940 9        49.600                    81920543.41549
        45.500    20005829.00049
  20670415.750 9 108623920.313 9        50.800                    84641911.34149
        46.100    20670416.87949
  24894103.711 6 130819439.954 6        40.400    24894110.746 6 101937267.53047
        26.900    24894110.14547  24894105.836 1  97689872.949 1        28.900
  24893934.984 3                        32.400

 17  4  8  0 39 30.0000000  0 11G01G32G08G28G17G14G03G11G22G27G10
  20395003.836 9 107176482.774 9        55.700    20395010.902 9  83514175.40449
        49.700    20395010.75449  20395006.617 7  80034403.889 7        42.900
  22504135.383 8 118260049.091 8        47.900    22504141.402 8  92150709.19749
        37.100    22504140.63749  22504137.387 5  88311089.280 5        36.200
  22070887.555 9 115983376.943 9        49.600    22070895.301 9  90376657.97949
        41.300    22070894.05949  22070891.313 6  86610954.505 6        38.000
  23594279.258 7 123988765.623 7        42.100                    96614638.14447
        27.900    23594282.57847
  24788695.805 7 130265481.010 7        42.900    24788700.445 6 101505577.57647
        25.700    24788699.06647
  21902981.336 9 115100944.539 9        48.100                    89689073.95449
        38.200    21902985.00449
  21919835.531 9 115189528.623 9        51.900    21919842.664 9  89758096.43449
        41.600    21919841.62549  21919840.289 6  86018163.559 6        39.400
  20006780.563 9 105136349.507 9        50.800                    81924450.87149
        45.400    20006783.15649
  20664079.445 9 108590622.857 9        52.300                    84615965.28149
        46.300    20664080.45749
  24916058.375 6 130934814.239 6        40.900    24916065.090 6 102027169.48946
        24.500    24916064.76646  24916061.805 2  97776029.034 2        31.400
  24913273.313 1 130920174.81611        30.100    24913281.316 5 102015745.42255
        16.300    24913280.64545  24913276.484 1  97765089.09211        25.700
 17  4  8  0 40  0.0000000  0 11G01G32G08G28G17G14G03G11G22G27G10
  20389350.414 9 107146773.209 9        54.600    20389356.996 9  83491025.08749
        49.600    20389356.83649  20389352.938 7  80012218.169 7        43.000
  22512799.422 8 118305579.461 8        47.600    22512805.824 8  92186187.41249
        37.200    22512805.01649  22512801.887 5  88345089.237 5        36.400
  22088171.555 9 116074205.920 9        48.400    22088178.863 9  90447433.79749
        40.600    22088177.65649  22088174.621 6  86678781.337 6        38.300
  23599137.578 7 124014301.435 7        42.900                    96634536.13947
        26.900    23599141.32447
  24769639.648 7 130165345.206 7        41.700    24769645.086 6 101427549.67147
        25.600    24769644.94947
  21902224.828 9 115096967.725 9        48.800                    89685975.13949
        37.700    21902228.21949
  21905206.844 9 115112653.300 9        52.000    21905213.551 9  89698193.59449
        41.600    21905212.82449  21905211.313 6  85960756.674 6        38.900
  20007837.172 9 105141903.339 9        51.200                    81928778.52949
        45.400    20007840.07849
  20657816.000 9 108557708.900 9        51.300                    84590318.04449
        46.600    20657817.32849
  24938020.008 6 131050221.351 6        40.900    24938026.293 5 102117097.16046
        24.200    24938025.21146  24938022.836 1  97862209.665 1        30.600
  24932615.945 3 131021814.45613        32.300    24932622.453 5 102094945.15355
        16.300    24932622.23445  24932616.961 1  97840988.79211        24.800
 17  4  8  0 40 30.0000000  0 11G01G32G08G28G17G14G03G11G22G27G10
  20383763.648 9 107117414.788 9        54.000    20383770.789 9  83468148.39649
        49.800    20383770.44549  20383766.488 7  79990294.675 7        43.100
  22521566.758 9 118351651.597 9        48.000    22521572.973 8  92222087.78949
        37.700    22521572.12949  22521568.766 5  88379493.762 5        35.400
  22105520.453 9 116165375.393 9        48.700    22105528.117 9  90518474.93549
        40.900    22105527.04349  22105523.773 6  86746862.423 6        38.300
  23604089.180 7 124040317.654 7        42.300                    96654808.51647
        27.500    23604091.94147
  24750613.672 7 130065360.673 7        41.800    24750617.984 6 101349639.66946
        23.500    24750617.73446
  21901576.289 8 115093562.129 8        47.200                    89683321.44649
        38.300    21901579.81349
  21890636.766 9 115036088.327 9        51.700    21890643.766 9  89638532.59149
        41.900    21890642.87949  21890641.543 6  85903581.545 6        39.300
  20008997.141 9 105147996.585 9        51.100                    81933526.50749
        45.400    20008999.91849
  20651625.992 9 108525178.802 9        50.900                    84564969.91949
        46.300    20651626.87949
  24959986.938 6 131165659.096 6        40.800    24959993.254 6 102207048.66746
        24.900    24959991.89146  24959990.277 2  97948413.177 2        31.500
  24951960.477 3 131123466.75113        33.200    24951966.648 5 102174154.71555
        16.900    24951966.14845  24951962.051 1  97916897.92911        24.000
 17  4  8  0 41  0.0000000  0 11G01G32G08G28G17G14G03G11G22G27G10
  20378243.961 9 107088408.310 9        55.900    20378251.070 9  83445545.94549
        49.700    20378250.87949  20378246.977 7  79968633.995 7        43.200
  22530436.664 8 118398263.654 8        47.900    22530443.238 8  92258408.87049
        37.600    22530442.67649  22530439.078 5  88414301.468 5        35.500
  22122934.063 9 116256883.080 9        49.100    22122941.199 9  90589779.62549
        40.700    22122940.49249  22122936.984 6  86815196.089 6        38.100
  23609131.109 7 124066812.717 7        41.700                    96675454.00947
        27.200    23609133.87547
  24731616.828 7 129965529.753 7        43.500    24731621.051 6 101271849.34147
        26.700    24731621.15647
  21901037.367 8 115090728.000 8        47.600                    89681113.04249
        38.100    21901040.75849
  21876126.219 9 114959834.415 9        52.000    21876133.309 9  89579113.96549
        41.800    21876132.28949  21876130.836 6  85846638.705 6        38.600
  20010259.234 9 105154629.334 9        51.400                    81938694.88149
        44.900    20010261.99649
  20645508.680 9 108493032.296 9        51.700                    84539920.70449
        46.400    20645509.53149
  24981958.961 6 131281125.258 6        39.000    24981966.410 6 102297022.27947
        25.600    24981965.08247  24981961.715 1  98034637.870 1        27.900
  24971305.531 3 131225130.29713        32.200    24971311.777 5 102253373.02155
        15.600    24971311.43845  24971306.867 1  97992815.51411        23.500
 17  4  8  0 41 30.0000000  0 11G01G32G08G28G17G14G03G11G22G27G10
  20372791.359 9 107059754.705 9        54.000    20372798.379 9  83423218.45849
        49.800    20372797.92649  20372793.965 7  79947236.820 7        43.300
  22539409.352 8 118445414.096 8        47.800    22539415.711 8  92295149.47849
        37.400    22539414.99649  22539411.691 5  88449511.218 5        35.900
  22140411.422 9 116348726.903 9        49.600    22140418.738 9  90661346.23749
        40.800    22140417.58649  22140414.488 6  86883780.758 6        38.500
  23614262.852 7 124093785.431 7        41.700                    96696471.70447
        27.200    23614266.57847
  24712649.563 7 129865854.853 7        43.200    24712653.973 6 101194180.57547
        25.800    24712654.02347
  21900606.680 8 115088465.036 8        47.200                    89679349.69649
        38.100    21900610.26649
  21861675.109 9 114883892.603 9        52.800    21861681.832 9  89519938.53549
        41.900    21861680.84449  21861679.688 6  85789928.915 6        39.400
  20011623.930 9 105161802.085 9        50.500                    81944284.02749
        45.200    20011626.98049
  20639464.203 9 108461269.344 9        50.800                    84515170.35449
        46.400    20639465.26649
  25003936.773 6 131396617.600 6        40.300    25003943.879 6 102387016.26847
        26.400    25003943.68047  25003939.898 1  98120882.253 1        30.000
  24990653.719 2 131326803.999 2        31.800    24990659.430 4 102332599.25145
        15.600    24990660.28145  24990656.297 1  98068740.690 1        25.600
 17  4  8  0 42  0.0000000  0 11G01G32G08G28G17G14G03G11G22G27G10
  20367406.047 9 107031454.809 9        54.100    20367413.016 9  83401166.59949
        49.900    20367412.64149  20367408.625 7  79926103.780 7        43.200
  22548484.039 8 118493101.071 8        46.900    22548490.375 8  92332308.15449
        36.700    22548489.46549  22548486.102 5  88485121.609 5        35.900
  22157952.211 9 116440904.591 9        48.600    22157959.637 9  90733172.99449
        40.400    22157958.55549  22157954.988 5  86952614.737 5        37.900
  23619487.047 7 124121234.076 7        41.600                    96717860.25347
        27.900    23619490.27747
  24693711.133 7 129766338.208 7        41.100    24693715.848 6 101116635.12947
        25.200    24693715.90247
  21900284.773 8 115086773.594 8        47.300                    89678031.70249
        38.300    21900287.98049
  21847282.703 9 114808263.600 9        51.300    21847290.176 9  89461006.85649
        41.500    21847289.28549  21847287.891 6  85733452.726 6        38.900
  20013092.195 9 105169515.254 9        50.900                    81950294.28949
        45.000    20013094.74649
  20633492.766 9 108429889.747 9        51.000                    84490718.72249
        46.600    20633493.98449
  25025919.555 6 131512133.992 6        40.200    25025924.461 5 102477029.12746
        22.000    25025923.82846  25025922.508 2  98207144.429 2        31.300
  25010003.102 3 131428486.193 3        33.400    25010008.309 3 102411832.12945
        15.600    25010009.74645  25010005.707 1  98144672.110 1        25.100
 17  4  8  0 42 30.0000000  0 11G01G32G08G28G17G14G03G11G22G27G10
  20362088.063 9 107003509.743 9        55.300    20362094.887 9  83379391.21449
        50.000    20362094.69949  20362090.859 7  79905235.705 7        43.400
  22557659.852 8 118541323.184 8        47.900    22557666.309 8  92369883.83849
        37.600    22557665.60949  22557662.363 5  88521131.637 5        35.000
  22175555.898 9 116533413.700 9        48.000    22175563.527 8  90805258.00949
        40.400    22175562.55149  22175559.281 5  87021696.210 5        37.500
  23624800.617 7 124149157.833 7        41.800                    96739618.98847
        28.200    23624804.23847
  24674805.492 7 129666982.528 7        42.800    24674809.363 6 101039215.14447
        25.500    24674809.20347
  21900071.156 8 115085653.921 8        47.300                    89677159.24049
        38.200    21900075.00849
  21832950.672 9 114732948.590 9        51.500    21832957.797 9  89402319.84549
        42.000    21832957.04749  21832955.480 6  85677211.012 6        38.900
  20014662.641 9 105177769.638 9        51.400                    81956726.27449
        45.000    20014665.56349
  20627594.359 9 108398893.920 9        51.000                    84466566.13249
        46.400    20627595.51249
  25047905.234 6 131627672.605 6        39.100    25047911.594 6 102567059.19346
        24.100    25047911.37946  25047907.715 1  98293423.254 1        28.100
  25029353.648 3 131530176.056 3        33.400    25029360.906 3 102491070.90845
        15.600    25029360.17245  25029354.957 1  98220609.332 1        22.000
 17  4  8  0 43  0.0000000  0 11G01G32G08G28G17G14G03G11G22G27G10
  20356837.906 9 106975920.079 9        54.600    20356844.961 9  83357892.77349
        50.000    20356844.71949  20356840.938 7  79884633.037 7        43.000
  22566937.945 9 118590078.371 9        48.200    22566943.656 8  92407874.90649
        37.200    22566942.84449  22566939.598 5  88557539.741 5        35.400
  22193222.555 9 116626252.021 9        48.200    22193229.711 8  90877599.54349
        40.400    22193228.78549  22193225.922 5  87091023.513 5        37.500
  23630204.266 7 124177554.571 7        42.100                    96761746.33647
        26.300    23630207.46147
  24655929.008 7 129567789.869 7        43.000    24655934.684 7 100961922.15047
        27.600    24655935.05947
  21899967.594 8 115085105.834 8        47.300                    89676732.16449
        38.400    21899971.07049
  21818679.188 9 114657948.068 9        52.300    21818686.199 9  89343877.89549
        42.200    21818684.99649  21818683.313 6  85621204.155 6        39.200
  20016336.102 9 105186564.616 9        51.500                    81963579.49849
        45.400    20016339.00849
  20621769.281 9 108368281.299 9        52.000                    84442712.15249
        46.500    20621770.27749
  25069895.180 6 131743230.983 6        40.300    25069902.004 5 102657104.59946
        22.900    25069901.32846  25069897.781 1  98379716.831 1        29.500
  25048707.094 5 131631871.885 5        35.000    25048713.133 5 102570314.42245
        16.300    25048712.78545  25048706.578 1  98296551.057 1        22.500
 17  4  8  0 43 30.0000000  0 11G01G32G08G28G17G14G03G11G22G27G10
  20351655.656 9 106948686.896 9        55.300    20351663.141 9  83336672.11349
        49.900    20351662.48449  20351658.820 7  79864296.569 7        43.200
  22576316.523 8 118639365.026 8        47.900    22576323.023 8  92446280.09349
        36.500    22576322.43049  22576319.066 5  88594344.719 5        35.500
  22210951.297 9 116719417.581 9        48.600    22210958.465 8  90950196.07049
        40.200    22210957.42649  22210954.504 5  87160595.183 5        37.000
  23635697.359 7 124206422.977 7        41.600                    96784241.16247
        27.000    23635701.27747
  24637085.375 7 129468762.524 7        43.900    24637089.777 6 100884757.98547
        27.300    24637089.68047
  21899971.672 8 115085129.520 8        47.000                    89676750.63349
        37.600    21899974.74249
  21804467.031 9 114583263.083 9        53.400    21804473.852 9  89285681.80149
        42.600    21804473.12549  21804471.027 6  85565432.896 6        38.300
  20018112.961 9 105195901.244 9        51.500                    81970854.79149
        45.200    20018115.95749
  20616016.750 9 108338051.982 9        52.100                    84419156.84649
        46.300    20616017.31649
  25091888.727 6 131858806.919 6        40.400    25091894.992 6 102747163.84246
        22.900    25091893.87946  25091891.273 1  98466023.603 1        28.500
  25068058.563 3 131733572.551 3        32.600    25068065.629 3 102649561.69745
        16.300    25068066.34845  25068060.723 1  98372496.398 1        23.200
 17  4  8  0 44  0.0000000  0 11G01G32G08G28G17G14G03G11G22G27G10
  20346541.461 9 106921811.118 9        54.500    20346548.383 9  83315729.94549
        49.900    20346548.21549  20346544.313 7  79844226.995 7        43.300
  22585796.375 8 118689181.527 8        47.700    22585802.875 8  92485098.13749
        36.800    22585802.35249  22585798.988 5  88631545.348 5        35.500
  22228742.336 9 116812907.520 9        48.600    22228749.477 8  91023045.37949
        40.500    22228748.11749  22228745.078 5  87230409.095 5        37.100
  23641280.141 7 124235761.944 7        41.600                    96807102.68947
        26.200    23641283.91447
  24618271.969 7 129369903.258 7        43.200    24618276.668 6 100807724.76247
        25.600    24618276.92647
  21900085.063 8 115085725.126 8        47.300                    89677214.75249
        37.700    21900088.39849
  21790314.688 9 114508894.565 9        51.900    21790321.828 9  89227732.31749
        42.600    21790321.19149  21790319.211 6  85509897.971 6        39.300
  20019992.742 9 105205779.617 9        50.900                    81978552.22149
        44.700    20019995.77749
  20610337.242 9 108308206.197 9        52.500                    84395900.39249
        46.500    20610338.09449
  25113885.383 7 131974398.714 7        41.400    25113891.027 5 102837235.25846
        21.500    25113890.62546  25113888.309 2  98552342.092 2        31.100
  25087414.250 5 131835276.953 5        36.300    25087416.527 2 102728811.84143
        13.900    25087418.75443  25087414.535 1  98448444.376 1        23.300
 17  4  8  0 44 30.0000000  0 11G01G32G08G28G17G14G03G11G22G27G10
  20341495.313 9 106895293.546 9        55.300    20341502.566 9  83295066.90349
        49.900    20341502.30949  20341498.523 7  79824424.912 7        42.700
  22595376.633 9 118739525.957 9        48.100    22595383.426 8  92524327.56349
        36.300    22595382.45749  22595379.035 5  88669140.208 5        35.600
  22246593.891 9 116906719.793 9        48.400    22246600.875 8  91096145.85449
        39.900    22246599.98449  22246596.301 5  87300463.724 5        36.900
  23646952.805 7 124265569.619 7        41.600                    96830329.44547
        27.000    23646956.12947
  24599493.125 7 129271214.184 7        44.100    24599496.824 6 100730824.22647
        26.700    24599497.48047
  21900307.008 8 115086892.437 8        46.800                    89678124.35049
        37.500    21900310.92649
  21776223.555 9 114434843.242 9        52.500    21776231.051 9  89170030.00649
        42.700    21776230.10549  21776228.359 6  85454599.928 6        38.700
  20021975.539 9 105216199.786 9        50.800                    81986671.83549
        45.300    20021978.44949
  20604730.578 9 108278743.668 9        52.500                    84372942.58449
        46.800    20604731.98849
  25135883.203 6 132090003.935 6        39.800    25135890.129 5 102927317.36946
        20.100    25135888.28546  25135886.672 1  98638670.631 1        30.800
  25106768.203 2                        31.900

 17  4  8  0 45  0.0000000  0 11G01G32G08G28G17G14G03G11G22G27G10
  20336517.805 9 106869135.179 9        54.200    20336524.727 9  83274683.75949
        50.000    20336524.30149  20336520.516 7  79804891.069 7        43.200
  22605056.953 9 118790396.611 9        48.500    22605063.574 8  92563967.03749
        36.900    22605062.69149  22605058.973 5  88707128.033 5        35.500
  22264506.203 8 117000852.180 8        47.900    22264514.156 8  91169495.74349
        40.000    22264513.16449  22264509.719 5  87370757.380 5        37.100
  23652714.625 7 124295844.715 7        42.200                    96853920.41147
        26.700    23652717.20747
  24580746.313 7 129172697.967 7        44.500    24580750.180 6 100654058.36047
        28.600    24580751.22747
  21900637.773 8 115088631.474 8        47.000                    89679479.45349
        37.900    21900641.70349
  21762192.664 9 114361110.056 9        52.600    21762199.699 9  89112575.59249
        42.200    21762198.92249  21762197.410 6  85399539.448 6        39.000
  20024061.461 9 105227162.318 9        51.600                    81995214.06649
        45.000    20024064.81649
  20599197.148 9 108249664.664 9        51.800                    84350283.62349
        46.800    20599198.36349
  25157884.500 7 132205620.599 7        41.200    25157891.977 6 103017408.22047
        26.700    25157890.84847  25157886.895 1  98725007.764 1        22.500
  25126120.445 2 132038691.70912        31.500    25126128.063 2 102887316.74153
        13.900    25126128.26643  25126123.172 1  98600344.95111        26.100
 17  4  8  0 45 30.0000000  0 11G01G32G08G28G17G14G03G11G22G27G10
  20331608.148 9 106843336.841 9        54.500    20331615.254 9  83254581.15549
        50.000    20331615.06349  20331610.988 7  79785626.074 7        43.500
  22614837.344 9 118841791.675 9        48.600    22614843.625 8  92604015.13949
        36.500    22614843.02049  22614839.422 5  88745507.475 5        35.000
  22282479.617 9 117095302.503 9        48.400    22282487.262 9  91243093.37849
        40.400    22282486.17249  22282483.078 5  87441288.446 5        37.500
  23658563.586 7 124326585.466 7        41.000                    96877874.24147
        27.000    23658566.86747
  24562030.859 7 129074356.643 7        42.200    24562036.406 6 100577428.74947
        25.000    24562036.41447
  21901077.734 8 115090942.006 8        46.900                    89681279.87549
        38.300    21901080.86749
  21748222.172 9 114287695.830 9        52.900    21748229.340 9  89055369.70349
        42.500    21748228.46149  21748226.480 6  85344717.142 6        38.600
  20026250.898 9 105238667.506 9        50.900                    82004179.14149
        45.000    20026253.76249
  20593736.750 9 108220968.479 9        52.500                    84327922.96449
        46.800    20593737.41449
  25179886.617 6 132321246.533 6        38.400    25179894.004 5 103107506.36245
        19.600    25179892.97745  25179890.547 1  98811351.901 1        28.100
  25145476.250 5 132140399.63115        35.800    25145482.535 5 102966569.72455
        16.300    25145482.04345  25145477.828 1  98676295.62111        25.600
 17  4  8  0 46  0.0000000  0 11G01G32G08G28G17G14G03G11G22G27G10
  20326767.875 9 106817899.565 9        55.600    20326774.855 9  83234759.91249
        50.000    20326774.57449  20326770.500 7  79766630.706 7        43.400
  22624716.859 9 118893709.476 9        48.300    22624723.449 8  92644470.57049
        36.700    22624722.56649  22624719.145 5  88784277.263 5        35.100
  22300513.125 9 117190068.251 9        48.400    22300520.293 8  91316936.81549
        39.600    22300519.16849  22300516.422 5  87512055.068 5        37.300
  23664501.445 7 124357790.562 7        41.300                    96902189.86247
        27.000    23664505.14147
  24543352.742 7 128976192.805 7        44.900    24543357.141 6 100500937.46847
        28.100    24543356.73447
  21901626.477 8 115093824.488 8        47.100                    89683525.97149
        37.800    21901629.69949
  21734312.969 9 114214601.500 9        52.800    21734319.898 9  88998413.09949
        43.000    21734319.33649  21734317.121 6  85290133.723 6        39.200
  20028543.992 9 105250715.537 9        50.300                    82013567.21249
        45.300    20028547.07049
  20588348.773 9 108192655.700 9        51.700                    84305861.06849
        46.800    20588349.82449
  25201892.531 6 132436879.855 6        40.300    25201898.332 5 103197610.24346
        21.100    25201897.01246  25201896.043 2  98897701.329 2        31.400
  25164830.398 3 132242106.31513        33.100    25164837.168 6 103045821.59755
        16.900    25164836.69145  25164831.711 1  98752245.39811        25.200
 17  4  8  0 46 30.0000000  0 10G01G32G08G28G17G14G03G11G22G27
  20321995.906 9 106792823.673 9        55.400    20322002.891 9  83215220.25249
        50.100    20322002.21149  20321998.250 7  79747905.201 7        43.500
  22634695.664 9 118946147.611 9        48.700    22634701.695 8  92685331.45849
        36.700    22634701.35249  22634698.047 5  88823435.604 5        35.900
  22318606.203 9 117285146.878 9        48.500    22318613.742 8  91391024.06149
        39.300    22318612.31649  22318609.453 5  87583055.335 5        36.800
  23670528.664 7 124389457.844 7        42.500                    96926865.66947
        27.700    23670531.59047
  24524707.031 8 128878208.795 8        45.000    24524710.508 6 100424586.28447
        28.600    24524710.12947
  21902283.453 8 115097277.921 8        47.100                    89686216.97249
        38.300    21902287.08249
  21720464.266 9 114141827.319 9        53.000    21720471.563 9  88941705.95549
        42.800    21720470.85249  21720469.285 6  85235789.380 6        40.000
  20030939.555 9 105263305.650 9        51.500                    82023377.68349
        44.900    20030942.64149
  20583033.570 9 108164725.376 9        51.300                    84284097.18049
        46.700    20583035.23049
  25223897.977 7 132552517.668 7        41.200    25223904.465 6 103287717.64247
        25.600    25223904.16847  25223899.684 1  98984054.328 1        28.900
 17  4  8  0 47  0.0000000  0 11G01G32G08G28G17G14G03G11G22G27G10
  20317293.242 9 106768110.736 9        55.700    20317300.004 9  83195963.41749
        50.100    20317299.82849  20317295.930 7  79729450.736 7        43.200
  22644772.977 9 118999104.899 9        48.500    22644779.023 8  92726596.88749
        35.900    22644778.28149  22644774.977 4  88862981.634 4        34.900
  22336758.266 9 117380536.506 9        48.300    22336765.949 8  91465353.63449
        39.400    22336765.07049  22336761.566 5  87654287.851 5        36.600
  23676641.969 7 124421586.575 7        41.400                    96951901.05047
        27.600    23676644.57047
  24506095.859 7 128780407.059 7        44.300    24506099.688 6 100348377.14347
        26.600    24506098.48447
  21903049.438 8 115101303.102 8        47.000                    89689353.48849
        38.100    21903052.92249
  21706677.250 9 114069374.816 9        52.700    21706683.859 9  88885249.47649
        42.500    21706683.12549  21706681.906 6  85181685.252 6        40.300
  20033438.867 9 105276439.364 9        50.300                    82033611.74849
        44.800    20033441.37549
  20577791.656 9 108137178.288 9        50.800                    84262631.92549
        46.900    20577793.10949
  25245902.555 5 132668158.814 5        37.100    25245909.719 5 103377827.66045
        19.600    25245909.04745  25245906.910 1  99070409.690 1        28.100
  25203536.820 3 132445545.51513        32.900    25203543.406 5 103204357.19215
        35.900
 17  4  8  0 47 30.0000000  0 11G01G32G08G28G17G14G03G11G22G27G10
  20312659.359 9 106743761.038 9        54.400    20312666.691 9  83176989.62249
        50.100    20312666.29349  20312662.566 7  79711267.519 7        43.200
  22654948.711 8 119052578.916 8        47.800    22654955.602 8  92768264.94949
        36.000    22654954.72349  22654951.359 5  88902913.530 5        35.900
  22354969.492 9 117476234.654 9        48.500    22354976.809 8  91539923.61649
        39.600    22354975.94949  22354972.734 5  87725750.739 5        37.000
  23682843.438 7 124454174.282 7        41.600                    96977294.06647
        27.000    23682846.48047
  24487520.523 7 128682789.946 7        44.700    24487523.824 6 100272311.89447
        27.000    24487523.39547
  21903924.023 8 115105899.307 8        47.500                    89692934.95649
        37.700    21903927.26649
  21692951.195 9 113997244.200 9        53.000    21692957.945 9  88829043.80649
        42.600    21692957.24649  21692955.973 6  85127821.496 6        40.100
  20036041.352 9 105290116.061 9        50.500                    82044268.91049
        45.000    20036044.21149
  20572622.766 9 108110013.981 9        50.900                    84241464.93949
        47.000    20572623.87549
  25267908.891 6 132783800.437 6        40.100    25267916.160 6 103467937.96546
        21.800    25267915.39546  25267911.262 1  99156765.503 1        28.900
  25222889.344 5 132547240.46715        35.700    25222895.301 5 103283538.09455
        16.300    25222895.48045  25222891.027 1  98980041.01611        26.000
 17  4  8  0 48  0.0000000  0  9G01G32G08G28G17G14G03G11G22
  20308095.281 9 106719775.990 9        54.300    20308102.715 9  83158299.96849
        50.200    20308102.05949  20308098.395 7  79693356.607 7        43.200
  22665222.531 9 119106568.291 9        48.400    22665229.105 8  92810334.59049
        36.500    22665228.75049  22665224.625 5  88943230.269 5        35.000
  22373238.570 9 117572239.205 9        48.000    22373245.520 8  91614732.33149
        39.400    22373244.30949  22373240.859 5  87797442.436 5        37.100
  23689131.977 7 124487219.810 7        42.200                    97003043.81147
        26.800    23689134.85947
  24468979.750 7 128585360.167 7        44.800    24468982.949 6 100196392.59947
        26.400    24468982.85247
  21904907.375 8 115111066.861 8        47.200                    89696961.63449
        37.600    21904911.11349
  21679286.688 9 113925436.817 9        52.600    21679293.305 9  88773090.01749
        42.700    21679292.37949  21679291.102 6  85074199.116 6        39.500
  20038747.516 9 105304336.298 9        50.400                    82055349.61449
        45.500    20038750.56349
  20567526.250 9 108083232.674 9        51.000                    84220596.39149
        47.000    20567527.36349
 17  4  8  0 48 30.0000000  0  9G01G32G08G28G17G14G03G11G22
  20303600.813 9 106696156.857 9        56.000    20303607.711 9  83139895.44949
        50.300    20303607.60949  20303603.887 7  79675718.939 7        43.700
  22675594.305 9 119161071.539 9        48.000    22675600.785 8  92852804.66049
        36.200    22675600.03949  22675596.379 4  88983930.758 4        34.800
  22391565.242 8 117668547.937 8        47.700    22391571.883 8  91689778.09249
        38.600    22391570.93049  22391567.715 5  87869361.289 5        36.500
  23695507.172 7 124520722.000 7        41.600                    97029149.42247
        26.000    23695509.53947
  24450475.297 7 128488120.362 7        44.400    24450479.215 6 100120621.26547
        27.200    24450479.71947
  21905999.406 8 115116806.081 8        47.000                    89701433.76749
        38.100    21906003.19149
  21665683.938 9 113853953.836 9        53.300    21665690.629 9  88717388.99949
        43.000    21665689.59849  21665688.262 6  85020818.978 6        39.500
  20041556.961 9 105319100.845 9        50.200                    82066854.44749
        45.400    20041560.00049
  20562502.813 9 108056834.584 9        50.900                    84200026.45749
        47.100    20562503.75449
 17  4  8  0 49  0.0000000  0  9G01G32G08G28G17G14G03G11G22
  20299175.953 9 106672903.468 9        56.200    20299183.184 9  83121775.92649
        50.300    20299182.96949  20299178.895 7  79658354.399 7        43.000
  22686063.070 8 119216085.686 8        47.600    22686069.688 8  92895672.82549
        35.900    22686068.83649  22686065.469 5  89025012.745 5        35.200
  22409949.102 9 117765157.597 9        48.100    22409956.707 8  91765058.33549
        38.900    22409955.59449  22409952.262 5  87941504.862 5        36.800
  23701968.516 6 124554678.419 6        40.700                    97055608.94747
        26.600    23701971.60247
  24432006.391 7 128391072.460 7        42.500    24432012.039 6 100044999.52347
        26.700    24432012.21147
  21907200.078 8 115123115.418 8        46.800                    89706350.13549
        37.600    21907203.56349
  21652143.117 9 113782795.059 9        52.900    21652149.836 9  88661940.60949
        43.100    21652148.72349  21652147.625 6  84967680.941 6        40.100
  20044470.008 9 105334408.607 9        49.900                    82078782.57149
        45.200    20044473.19549
  20557552.070 9 108030818.196 9        51.900                    84179753.94849
        47.200    20557553.01249
 17  4  8  0 49 30.0000000  0  9G01G32G08G28G17G14G03G11G22
  20294820.773 9 106650017.015 9        54.100    20294827.906 9  83103942.32849
        50.200    20294827.78149  20294823.766 7  79641263.870 7        43.200
  22696628.836 8 119271609.166 8        47.200    22696634.750 8  92938937.87149
        36.400    22696634.03549  22696630.961 5  89066475.082 5        35.900
  22428389.977 8 117862066.426 8        47.300    22428397.867 8  91840571.70249
        38.300    22428396.59849  22428393.852 5  88013871.830 5        36.500
  23708516.125 7 124589087.446 7        41.300                    97082421.16647
        26.100    23708519.30947
  24413577.492 7 128294218.763 7        43.900    24413581.461 6  99969529.15447
        28.300    24413580.78547
  21908509.211 8 115129994.941 8        47.000                    89711710.81449
        37.700    21908512.47749
  21638663.805 9 113711961.513 9        52.200    21638670.680 9  88606745.64749
        43.100    21638669.66049  21638668.793 6  84914785.773 6        39.800
  20047486.359 9 105350259.819 9        49.300                    82091134.16249
        45.300    20047489.45349
  20552674.031 9 108005184.316 9        51.000                    84159779.50749
        47.200    20552675.47749
 17  4  8  0 50  0.0000000  0  9G01G32G08G28G17G14G03G11G22
  20290535.250 9 106627498.420 9        55.900    20290542.766 9  83086395.37049
        50.200    20290542.67249  20290538.480 7  79624448.033 7        43.000
  22707291.211 8 119327640.033 8        47.500    22707297.934 8  92982598.28749
        35.300    22707296.93449  22707293.684 5  89108316.315 5        35.500
  22446888.047 8 117959272.037 8        47.600    22446895.246 8  91916316.32649
        38.800    22446894.41049  22446891.664 5  88086460.414 5        37.500
  23715150.266 7 124623947.731 7        41.700                    97109585.00047
        26.800    23715153.06347
  24395183.813 7 128197561.629 7        44.100    24395187.301 6  99894211.91747
        27.600    24395187.39147
  21909926.758 8 115137444.812 8        47.300                    89717515.91349
        37.600    21909930.37949
  21625246.695 9 113641454.047 9        52.100    21625253.070 9  88551804.78749
        43.400    21625252.45749  21625250.949 6  84862134.124 6        40.200
  20050606.422 9 105366655.021 9        49.400                    82103909.63349
        45.500    20050609.18049
  20547868.797 9 107979932.838 9        52.600                    84140103.03849
        47.200    20547869.32849
 17  4  8  0 50 30.0000000  0  9G01G32G08G28G17G14G03G11G22
  20286320.516 9 106605348.267 9        56.100    20286327.789 9  83069135.51249
        50.200    20286327.49649  20286323.598 7  79607907.339 7        43.200
  22718049.508 8 119384176.138 8        47.000    22718055.848 8  93026652.40149
        35.000    22718055.02749  22718051.664 4  89150534.831 4        34.400
  22465441.859 8 118056771.648 8        47.900    22465448.816 8  91992290.04249
        38.000    22465447.77049  22465444.496 5  88159268.555 5        35.800
  23721869.570 7 124659256.921 7        42.600                    97137098.65147
        25.300    23721872.00847
  24376828.602 7 128101103.914 7        43.700    24376831.855 6  99819050.03847
        27.500    24376831.74247
  21911452.930 8 115145464.588 8        47.200                    89723765.09749
        37.900    21911456.74249
  21611891.695 9 113571273.212 9        51.600    21611898.711 9  88497118.42449
        43.000    21611897.59449  21611896.375 6  84809726.363 6        39.600
  20053829.797 9 105383593.871 9        48.800                    82117108.74249
        44.900    20053832.27349
  20543136.391 9 107955063.026 9        51.100                    84120723.96549
        47.200    20543137.14549
 17  4  8  0 51  0.0000000  0 10G01G32G08G28G17G14G03G11G22G23
  20282175.859 9 106583567.781 9        56.500    20282183.148 9  83052163.71049
        50.200    20282182.92649  20282179.086 7  79591642.686 7        43.100
  22728904.141 8 119441215.802 8        47.200    22728910.086 8  93071098.88849
        35.200    22728909.45349  22728905.855 4  89193129.389 4        34.900
  22484050.820 8 118154563.048 8        47.300    22484058.242 8  92068491.12949
        38.700    22484057.32849  22484053.527 5  88232294.609 5        35.600
  23728673.484 7 124695013.856 7        42.000                    97164961.20847
        26.500    23728676.20347
  24358511.414 7 128004848.012 7        43.100    24358515.609 6  99744045.46647
        27.600    24358515.74247
  21913087.141 8 115154054.068 8        46.900                    89730458.19749
        38.100    21913090.99249
  21598599.109 9 113501420.099 9        52.600    21598605.703 9  88442687.43149
        43.100    21598604.89549  21598603.152 6  84757563.334 6        39.700
  20057156.609 9 105401076.731 9        49.000                    82130731.74649
        45.000    20057159.30549
  20538476.547 9 107930575.220 9        51.800                    84101642.56049
        47.400    20538477.73449
  25369628.969 6 133318298.74016        38.500                   103884392.77555
        19.300    25369630.69945
 17  4  8  0 51 30.0000000  0 10G01G32G08G28G17G14G03G11G22G23
  20278101.516 9 106562157.655 9        54.700    20278108.797 9  83035480.49349
        50.200    20278108.31649  20278104.535 7  79575654.607 7        43.100
  22739853.305 8 119498756.886 8        46.300    22739859.805 8  93115936.10349
        35.600    22739859.48049  22739855.883 4  89236098.376 4        34.800
  22502714.828 8 118252644.216 8        47.400    22502722.324 8  92144917.99949
        38.300    22502721.08649  22502718.051 5  88305537.037 5        36.100
  23735562.664 7 124731216.489 7        41.400                    97193171.01947
        27.700    23735566.88747
  24340233.633 7 127908796.338 7        43.600    24340237.586 6  99669200.00847
        28.600    24340237.44547
  21914830.172 8 115163212.821 8        46.900                    89737594.89949
        37.800    21914833.63749
  21585368.781 9 113431895.243 9        52.100    21585375.734 9  88388512.22849
        43.700    21585375.09849  21585373.180 6  84705645.428 6        39.400
  20060586.719 9 105419103.541 9        49.700                    82144778.60949
        45.700    20060590.13749
  20533889.008 9 107906469.010 9        53.000                    84082858.50249
        47.500    20533890.21549
  25349162.141 5 133210749.186 5        36.600                   103800587.95945
        19.900    25349164.52045
 17  4  8  0 52  0.0000000  0 10G01G32G08G28G17G14G03G11G22G23
  20274098.078 9 106541118.839 9        54.400    20274105.242 9  83019086.60749
        50.300    20274104.98449  20274101.023 7  79559943.808 7        43.600
  22750898.023 8 119556797.506 8        47.000    22750904.570 8  93161162.55949
        35.400    22750903.74649  22750899.621 4  89279440.400 4        34.500
  22521433.789 8 118351012.521 8        47.300    22521440.926 8  92221568.61549
        37.700    22521439.98049  22521436.828 5  88378993.867 5        36.300
  23742536.250 7 124767863.064 7        41.800                    97221726.79047
        26.800    23742539.16047
  24321994.773 7 127812951.104 7        42.600    24321999.168 7  99594515.43047
        27.900    24321998.93847
  21916681.352 8 115172940.301 8        47.100                    89745174.76949
        38.000    21916684.72749
  21572201.430 9 113362699.494 9        52.100    21572208.117 9  88334593.48149
        44.100    21572207.27349  21572205.762 6  84653973.296 6        39.800
  20064120.773 9 105437674.247 9        49.600                    82159249.27749
        45.000    20064123.57449
  20529374.359 9 107882744.591 9        51.200                    84064371.94949
        47.300    20529375.38749
  25328690.641 5 133103169.690 5        37.800                   103716759.80345
        17.400    25328691.84845
 17  4  8  0 52 30.0000000  0 10G01G32G08G28G17G14G03G11G22G23
  20270165.391 9 106520452.211 9        54.500    20270172.438 9  83002982.74849
        50.300    20270172.23049  20270168.098 7  79544510.936 7        43.600
  22762037.703 8 119615335.681 8        47.300    22762044.234 8  93206776.72049
        35.200    22762043.70349  22762039.813 5  89323153.979 5        35.100
  22540206.938 8 118449665.292 8        47.100    22540214.141 8  92298440.89849
        38.200    22540212.98849  22540209.539 5  88452663.130 5        36.600
  23749595.227 7 124804952.477 7        42.300                    97250627.63947
        25.600    23749598.03147
  24303795.156 7 127717314.757 7        44.100    24303799.430 6  99519993.59347
        28.100    24303798.69547
  21918640.813 8 115183236.465 8        47.400                    89753197.76449
        37.500    21918644.15649
  21559096.445 9 113293833.668 9        52.300    21559103.215 9  88280931.81749
        44.000    21559102.43449  21559100.750 6  84602547.539 6        40.000
  20067758.016 9 105456789.188 9        49.100                    82174144.03749
        45.000    20067760.67649
  20524932.297 9 107859401.398 9        51.100                    84046182.45549
        47.500    20524933.35249
  25308213.125 5 132995562.275 5        36.200                   103632909.81545
        16.300    25308215.09045
 17  4  8  0 53  0.0000000  0 10G01G32G08G28G17G14G03G11G22G23
  20266303.391 9 106500158.193 9        55.500    20266310.734 9  82987169.23049
        50.200    20266310.37949  20266306.598 7  79529356.319 7        43.500
  22773271.195 8 119674368.937 8        46.500    22773278.086 8  93252776.65949
        35.400    22773277.20749  22773273.723 5  89367237.251 5        35.200
  22559033.672 8 118548600.291 8        47.300    22559040.527 8  92375533.08849
        38.000    22559039.60949  22559036.219 5  88526543.155 5        36.200
  23756735.359 7 124842481.822 7        41.200                    97279871.27646
        24.700    23756739.37146
  24285637.313 7 127621889.919 7        43.500    24285640.867 6  99445636.58547
        28.300    24285640.42247
  21920708.484 8 115194100.448 8        47.000                    89761663.20649
        37.700    21920711.73049
  21546055.117 9 113225298.071 9        52.500    21546061.477 9  88227527.46349
        43.900    21546060.87549  21546059.016 6  84551368.366 6        39.600
  20071499.055 9 105476447.805 9        48.700                    82189462.43749
        45.200    20071501.75849
  20520562.969 9 107836438.682 9        53.400                    84028289.43449
        47.500    20520563.88749
  25287732.133 5 132887928.665 5        37.600                   103549039.47746
        20.400    25287733.36746
 17  4  8  0 53 30.0000000  0 10G01G32G08G28G17G14G03G11G22G23
  20262512.617 9 106480237.880 9        55.600    20262519.977 9  82971646.91149
        50.400    20262519.39549  20262515.438 7  79514480.757 7        43.400
  22784599.086 8 119733895.493 8        47.000    22784605.457 8  93299160.98249
        35.900    22784605.14849  22784601.375 4  89411688.893 4        34.700
  22577913.570 8 118647814.878 8        47.200    22577920.285 8  92452843.15549
        38.400    22577919.10549  22577916.359 5  88600631.964 5        36.300
  23763961.188 7 124880449.450 7        42.100                    97309456.43547
        25.500    23763964.06647
  24267518.898 7 127526679.101 7        43.200    24267523.363 6  99371446.32347
        28.500    24267523.56347
  21922883.438 8 115205532.219 8        46.900                    89770571.09149
        37.700    21922886.78149
  21533075.758 9 113157093.639 9        52.300    21533082.602 9  88174381.16449
        43.600    21533081.87949  21533079.957 6  84500436.493 6        39.700
  20075343.430 9 105496650.178 9        49.200                    82205204.53749
        45.400    20075346.31649
  20516265.492 9 107813857.132 9        52.700                    84010693.42649
        47.500    20516266.57449
  25267246.086 6 132780271.507 6        40.000                   103465150.83946
        22.800    25267247.52046
 17  4  8  0 54  0.0000000  0 10G01G32G08G28G17G14G03G11G22G23
  20258793.477 9 106460692.273 9        54.800    20258800.113 9  82956416.56749
        50.400    20258799.87949  20258796.035 7  79499885.014 7        43.100
  22796019.867 8 119793913.441 8        46.400    22796026.340 8  93345928.21849
        34.800    22796025.46949  22796022.398 4  89456507.485 4        34.600
  22596846.227 8 118747307.188 8        46.800    22596853.813 8  92530369.62549
        37.200    22596852.71549  22596849.855 5  88674928.156 5        36.200
  23771269.180 7 124918854.094 7        42.000                    97339382.11447
        26.400    23771271.75847
  24249442.055 7 127431684.428 7        44.000    24249446.750 7  99297424.52948
        30.300    24249446.92648
  21925166.727 8 115217531.284 8        46.900                    89779921.02349
        37.200    21925170.15249
  21520160.055 9 113089221.258 9        52.700    21520166.898 9  88121493.61049
        44.100    21520166.09449  21520163.996 6  84449752.589 6        40.100
  20079291.430 9 105517396.602 9        50.100                    82221370.57549
        44.900    20079294.43449
  20512041.156 9 107791656.544 9        51.100                    83993394.27049
        47.500    20512041.71549
  25246754.773 6 132672592.917 6        39.600                   103381245.40146
        21.100    25246756.82846
 17  4  8  0 54 30.0000000  0 10G01G32G08G28G17G14G03G11G22G23
  20255145.477 9 106441521.964 9        54.300    20255152.965 9  82941478.66849
        50.500    20255152.30149  20255148.578 7  79485569.524 7        43.200
  22807533.758 8 119854420.482 8        46.700    22807540.230 8  93393076.56549
        35.100    22807539.19149  22807536.004 4  89501691.312 4        34.200
  22615831.422 8 118847074.409 8        46.800    22615838.637 8  92608110.31149
        37.500    22615837.69149  22615834.012 5  88749429.645 5        35.600
  23778659.125 6 124957693.482 6        40.900                    97369646.56247
        25.700    23778662.64847
  24231406.703 7 127336908.746 7        42.600    24231410.902 6  99223573.37147
        28.500    24231411.10547
  21927558.016 8 115230097.203 8        47.100                    89789712.66249
        37.300    21927561.59049
  21507307.648 9 113021681.380 9        52.600    21507314.508 9  88068865.15049
        44.300    21507313.95349  21507312.266 6  84399316.982 6        40.400
  20083342.984 9 105538686.661 9        49.100                    82237960.22549
        45.700    20083345.80149
  20507888.773 9 107769836.418 9        51.200                    83976391.58349
        47.500    20507889.97349
  25226259.969 6 132564894.950 6        39.000                   103297324.91246
        22.000    25226263.22346
 17  4  8  0 55  0.0000000  0 10G01G32G08G28G17G14G03G11G22G23
  20251569.063 9 106422727.857 9        55.300    20251575.941 9  82926833.90849
        50.500    20251575.50449  20251571.660 7  79471534.970 7        43.400
  22819141.063 8 119915414.621 8        47.000    22819147.625 8  93440604.46349
        34.700    22819146.64149  22819142.629 4  89547238.892 4        34.800
  22634868.055 8 118947114.244 8        46.800    22634875.836 8  92686063.40749
        37.600    22634874.73049  22634870.930 5  88824134.712 5        36.000
  23786133.094 7 124996965.879 7        41.600                    97400248.41347
        27.100    23786136.71547
  24213414.773 8 127242354.339 8        45.500    24213417.938 6  99149894.61147
        29.600    24213417.18847
  21930056.703 8 115243229.275 8        46.800                    89799945.44249
        36.800    21930060.60949
  21494518.594 9 112954474.833 9        52.300    21494525.574 9  88016496.42249
        44.100    21494524.77749  21494523.328 6  84349130.289 6        40.000
  20087497.766 9 105560520.389 9        49.000                    82254973.51349
        45.100    20087500.52749
  20503808.953 9 107748396.674 9        53.200                    83959685.28549
        47.600    20503809.72749
  25205763.352 6 132457179.857 6        38.200                   103213391.04146
        20.900    25205764.84846
 17  4  8  0 55 30.0000000  0 10G01G32G08G28G17G14G03G11G22G23
  20248064.305 9 106404310.637 9        55.000    20248071.582 9  82912482.82249
        50.600    20248071.30149  20248067.520 7  79457781.852 7        43.800
  22830839.688 8 119976893.545 8        46.700    22830846.559 8  93488510.11949
        35.200    22830845.88349  22830841.875 4  89593148.482 4        34.600
  22653956.352 8 119047424.053 8        46.500    22653964.051 8  92764226.88249
        37.700    22653962.81649  22653959.660 5  88899041.374 5        36.000
  23793688.859 7 125036669.090 7        41.400                    97431185.98946
        24.700    23793692.08246
  24195463.203 7 127148023.798 7        44.500    24195467.152 6  99076390.30047
        29.400    24195466.84447
  21932663.602 8 115256927.128 8        46.800                    89810619.09749
        37.500    21932666.88349
  21481793.039 9 112887602.094 9        53.200    21481800.238 9  87964387.80349
        43.800    21481799.14149  21481797.926 6  84299192.866 6        40.300
  20091755.805 9 105582897.487 9        50.500                    82272410.20949
        45.400    20091758.88349
  20499801.422 9 107727336.499 9        52.900                    83943274.76049
        47.700    20499802.00049
  25185263.109 6 132349449.451 6        38.600                   103129445.35645
        19.600    25185264.84445
 17  4  8  0 56  0.0000000  0 10G01G32G08G28G17G14G03G11G22G23
  20244631.742 9 106386271.339 9        54.500    20244639.020 9  82898426.23249
        50.500    20244638.62949  20244634.727 7  79444310.949 7        43.400
  22842630.813 8 120038855.464 8        46.300    22842637.270 8  93536792.13049
        35.400    22842636.57049  22842633.027 4  89639418.750 4        34.700
  22673095.875 8 119148001.663 8        47.200    22673102.680 8  92842599.04249
        36.900    22673101.37149  22673098.395 4  88974148.014 4        34.700
  23801325.555 7 125076801.643 7        41.600                    97462458.08247
        26.000    23801329.31647
  24177555.875 7 127053919.387 7        44.300    24177559.516 6  99003062.18747
        29.400    24177558.99247
  21935377.711 8 115271190.445 8        47.000                    89821733.37949
        37.500    21935380.69949
  21469131.344 9 112821064.109 9        52.400    21469138.160 9  87912540.03549
        43.600    21469136.92249  21469135.879 6  84249505.431 6        39.900
  20096117.367 9 105605817.953 9        50.300                    82290270.31249
        45.400    20096120.12549
  20495866.016 9 107706656.489 9        51.200                    83927160.46849
        47.600    20495867.42249
  25164760.109 6 132241706.195 6        39.900                   103045489.53546
        22.000    25164761.43446
 17  4  8  0 56 30.0000000  0 10G01G32G08G28G17G14G03G11G22G23
  20241270.805 9 106368610.553 9        55.100    20241278.027 9  82884664.57649
        50.600    20241277.61349  20241273.711 7  79431122.699 7        43.100
  22854513.406 8 120101297.933 8        46.700    22854519.438 7  93585448.60849
        34.700    22854518.27049  22854515.547 5  89686047.862 5        35.200
  22692285.750 8 119248844.305 8        47.300    22692293.090 8  92921177.73149
        37.300    22692291.99249  22692288.547 5  89049452.593 5        36.000
  23809043.703 7 125117361.426 7        42.200                    97494063.08347
        26.200    23809046.60947
  24159691.094 7 126960043.837 7        43.000    24159695.656 6  98929912.41847
        28.600    24159695.32047
  21938199.359 8 115286018.180 8        47.200                    89833287.46849
        37.100    21938202.54749
  21456533.398 9 112754861.287 9        52.700    21456539.844 9  87860953.43449
        43.900    21456539.29349  21456537.781 6  84200068.272 6        40.300
  20100582.570 9 105629281.552 9        50.200                    82308553.62649
        45.300    20100585.22349
  20492002.914 9 107686355.676 9        52.500                    83911341.66149
        47.600    20492003.99249
  25144254.102 5 132133952.166 5        37.900                   102961525.32846
        20.600    25144256.83246
 17  4  8  0 57  0.0000000  0 10G01G32G08G28G17G14G03G11G22G23
  20237982.234 9 106351329.178 9        55.600    20237989.582 9  82871198.56949
        50.500    20237988.98049  20237985.020 7  79418217.778 7        43.400
  22866486.367 8 120164218.938 8        46.600    22866493.184 7  93634477.96649
        34.600    22866491.95349  22866489.117 4  89733034.323 4        34.400
  22711525.508 8 119349949.895 8        47.100    22711532.633 8  92999961.29949
        36.700    22711531.56349  22711528.582 5  89124953.517 5        36.400
  23816843.047 7 125158346.703 7        41.600                    97525999.63147
        26.200    23816845.98447
  24141872.344 7 126866399.235 7        43.700    24141875.805 7  98856942.61147
        29.800    24141876.19147
  21941128.227 8 115301410.086 8        47.400                    89845281.16249
        36.900    21941131.62549
  21443999.273 9 112688994.411 9        52.900    21444006.309 9  87809628.61249
        43.900    21444005.39849  21444004.063 6  84150881.983 6        40.600
  20105150.664 9 105653288.169 9        49.900                    82327260.07449
        45.700    20105153.64849
  20488212.164 9 107666434.251 9        53.100                    83895818.47449
        47.800    20488213.11749
  25123748.055 6 132026189.620 6        38.500                   102877554.50645
        19.600    25123750.12145
 17  4  8  0 57 30.0000000  0 10G01G32G08G28G17G14G03G11G22G23
  20234766.172 9 106334428.327 9        55.800    20234773.457 9  82858029.08349
        50.500    20234773.14549  20234769.246 7  79405597.015 7        43.200
  22878550.836 8 120227616.628 8        45.800    22878557.715 8  93683878.75849
        35.000    22878556.73449  22878552.898 3  89780376.760 3        33.800
  22730814.852 8 119451316.074 8        46.400    22730822.063 8  93078947.91949
        36.700    22730820.77349  22730818.086 5  89200649.016 5        35.500
  23824722.492 6 125199755.364 6        40.500                    97558266.10447
        25.100    23824726.11747
  24124096.406 7 126772988.467 7        43.400    24124100.820 6  98784155.02747
        29.300    24124100.66047
  21944164.508 8 115317365.899 8        47.100                    89857714.27649
        37.900    21944167.98849
  21431529.234 9 112623464.398 9        53.400    21431536.340 9  87758566.27049
        43.900    21431535.35249  21431534.309 6  84101947.246 6        40.600
  20109822.539 9 105677838.170 9        50.500                    82346389.94149
        45.000    20109825.47349
  20484493.273 9 107646892.263 9        52.600                    83880590.95849
        47.900    20484494.37949
  25103241.250 6 131918420.865 6        39.700                   102793578.85146
        21.300    25103242.37146
 17  4  8  0 58  0.0000000  0 10G01G32G08G28G17G14G03G11G22G23
  20231622.594 9 106317908.504 9        54.200    20231629.676 9  82845156.49149
        50.500    20231629.35249  20231625.336 7  79393260.787 7        43.200
  22890705.742 8 120291488.505 8        46.500    22890711.805 7  93733649.04249
        34.000    22890711.00849  22890707.293 4  89828073.294 4        34.300
  22750152.961 8 119552940.152 8        46.400    22750160.563 8  93158135.50649
        36.200    22750159.23449  22750156.488 5  89276537.120 5        35.900
  23832682.258 6 125241585.290 6        40.600                    97590860.84547
        26.000    23832685.84447
  24106366.188 7 126679813.917 7        44.400    24106369.938 6  98711551.49047
        29.600    24106369.09847
  21947308.086 8 115333884.482 8        47.000                    89870585.91049
        37.300    21947311.29349
  21419123.492 9 112558271.661 9        52.700    21419130.684 9  87707766.74849
        44.100    21419129.54749  21419128.680 6  84053264.381 6        40.800
  20114597.500 9 105702930.855 9        49.600                    82365942.68549
        44.900    20114600.31349
  20480846.734 9 107627729.112 9        51.100                    83865658.63649
        47.900    20480847.59049
  25082732.523 6 131810648.022 6        38.900                   102709600.04646
        21.700    25082733.62146
 17  4  8  0 58 30.0000000  0 10G01G32G08G28G17G14G03G11G22G23
  20228551.617 9 106301770.625 9        55.900    20228558.691 9  82832581.52249
        50.700    20228558.68849  20228554.609 7  79381209.777 7        43.400
  22902949.453 8 120355832.520 8        45.300    22902956.156 7  93783787.24249
        34.100    22902955.28949  22902952.102 4  89876122.397 4        34.800
  22769539.773 8 119654819.496 8        45.900    22769547.582 8  93237521.98749
        36.700    22769546.64549  22769543.082 5  89352615.844 5        35.200
  23840723.172 7 125283834.953 7        41.600                    97623782.65647
        25.800    23840726.00047
  24088680.719 7 126586878.222 7        43.900    24088684.746 6  98639134.06947
        29.000    24088683.62947
  21950558.289 8 115350965.234 8        47.200                    89883895.58949
        37.500    21950561.66049
  21406782.391 9 112493416.898 9        52.700    21406789.180 9  87657230.58449
        44.300    21406788.38349  21406786.934 6  84004833.893 6        40.600
  20119475.633 9 105728566.177 9        50.300                    82385918.25649
        45.100    20119478.59849
  20477272.055 9 107608944.426 9        53.000                    83851021.21849
        47.800    20477272.97749
  25062223.711 6 131702873.044 6        38.600                   102625619.55945
        19.600    25062224.57445
 17  4  8  0 59  0.0000000  0 10G01G32G08G28G17G14G03G11G22G23
  20225553.563 9 106286015.172 9        54.200    20225560.621 9  82820304.54949
        50.500    20225560.37149  20225556.293 7  79369444.340 7        43.600
  22915283.477 8 120420646.212 8        46.800    22915289.539 7  93834291.41948
        33.900    22915288.73048  22915285.895 4  89924522.214 4        34.600
  22788975.430 8 119756951.522 8        46.400    22788982.785 8  93317105.38149
        36.400    22788981.68449  22788978.703 5  89428883.260 5        35.500
  23848841.672 6 125326501.746 6        40.800                    97657029.46847
        25.400    23848845.05947
  24071041.797 7 126494183.536 7        44.300    24071045.586 6  98566904.46148
        30.700    24071045.48448
  21953915.469 9 115368607.469 9        48.000                    89897642.79349
        36.700    21953919.06349
  21394505.234 9 112428900.462 9        52.200    21394512.316 9  87606958.04349
        44.600    21394511.52749  21394509.727 6  83956656.047 6        40.300
  20124457.188 9 105754743.242 9        49.400                    82406315.95949
        45.500    20124460.15249
  20473769.289 9 107590537.531 9        51.300                    83836678.19249
        47.900    20473770.19949
  25041714.688 6 131595098.323 6        38.800                   102541639.27446
        20.100    25041715.60246
 17  4  8  0 59 30.0000000  0 10G01G32G08G28G17G14G03G11G22G23
  20222628.297 9 106270643.367 9        54.300    20222635.707 9  82808326.51449
        50.600    20222635.13349  20222631.234 7  79357965.391 7        43.200
  22927706.102 8 120485927.762 8        45.800    22927712.207 8  93885160.17149
        34.400    22927711.63349  22927708.445 4  89973271.418 4        34.800
  22808458.398 8 119859334.258 8        46.400    22808465.059 8  93396884.13849
        36.100    22808463.66449  22808460.980 5  89505337.904 5        35.400
  23857040.117 6 125369583.995 6        40.400                    97690600.05047
        25.500    23857043.94947
  24053448.484 8 126401732.664 8        45.400    24053452.820 7  98494864.86047
        29.800    24053452.43847
  21957379.570 8 115386810.968 8        47.200                    89911827.34349
        37.100    21957383.16049
  21382292.703 9 112364723.402 9        53.700    21382299.004 9  87556949.95649
        44.600    21382298.30149  21382296.145 6  83908731.630 6        40.700
  20129541.828 9 105781462.472 9        49.800                    82427136.13649
        45.000    20129544.34849
  20470338.859 9 107572509.293 9        51.200                    83822630.21249
        47.900    20470339.43049
  25021206.602 6 131487325.923 6        40.000                   102457660.76446
        21.100    25021207.67646
 17  4  8  1  0  0.0000000  0 10G01G32G08G28G17G14G03G11G22G23
  20219776.344 9 106255655.934 9        56.100    20219783.176 9  82796648.00049
        50.600    20219782.94949  20219778.992 7  79346773.477 7        44.100
  22940217.016 8 120551674.896 8        46.800    22940223.703 8  93936391.70849
        34.000    22940223.09449  22940218.910 3  90022368.311 3        33.700
  22827987.633 8 119961964.843 8        45.700    22827995.145 8  93476856.02549
        35.700    22827993.79349  22827990.699 5  89581977.618 5        35.000
  23865317.227 7 125413079.582 7        41.800                    97724492.70047
        25.300    23865320.14847
  24035902.219 7 126309527.933 7        44.000    24035906.516 7  98423017.03948
        30.200    24035906.35548
  21960950.289 8 115405574.943 8        47.000                    89926448.62849
        37.500    21960953.78949
  21370144.703 9 112300886.265 9        52.900    21370151.590 9  87507206.74049
        44.700    21370150.66849  21370149.102 6  83861061.042 6        40.600
  20134729.188 9 105808723.759 9        49.600                    82448378.68949
        45.100    20134732.35249
  20466979.828 9 107554858.826 9        53.500                    83808876.60849
        47.900    20466980.77349
  25000699.031 6 131379558.388 6        39.800                   102373686.00546
        22.000    25000699.00046
 17  4  8  1  0 30.0000000  0 10G01G32G08G28G17G14G03G11G22G23
  20216997.438 9 106241053.343 9        54.100    20217004.672 9  82785269.36049
        50.600    20217004.46949  20217000.566 7  79335868.954 7        43.500
  22952816.500 8 120617885.116 8        45.600    22952822.805 8  93987984.06149
        34.200    22952822.50449  22952818.379 4  90071811.011 4        34.200
  22847565.016 8 120064841.349 8        45.600    22847572.582 8  93557019.51249
        35.500    22847571.62149  22847567.762 4  89658800.966 4        34.900
  23873672.609 6 125456986.333 6        40.300                    97758705.75647
        25.800    23873675.85947
  24018404.109 8 126217571.676 8        45.200    24018407.809 6  98351362.81248
        30.400    24018406.87148
  21964627.281 8 115424898.160 8        47.900                    89941505.68249
        37.800    21964631.09849
  21358061.563 9 112237389.378 9        52.800    21358068.742 9  87457728.65649
        44.700    21358067.71549  21358066.383 7  83813644.549 7        41.000
  20140019.430 9 105836526.251 9        49.300                    82470042.96049
        44.900    20140023.02349
  20463692.805 9 107537585.541 9        51.300                    83795416.90849
        48.000    20463693.67649
  24980192.477 6 131271797.367 6        38.400                   102289716.38346
        20.400    24980193.88746
 17  4  8  1  1  0.0000000  0 10G01G32G08G28G17G14G03G11G22G23
  20214292.281 9 106226836.577 9        54.300    20214299.277 9  82774191.35749
        50.600    20214299.04749  20214295.090 7  79325252.536 7        43.500
  22965503.766 8 120684556.350 8        46.400    22965509.820 7  94039935.66749
        34.000    22965509.32849  22965506.258 4  90121597.959 4        34.400
  22867187.719 8 120167960.617 8        45.800    22867195.074 8  93637372.17349
        35.700    22867194.07849  22867190.746 5  89735805.610 5        35.800
  23882104.930 6 125501302.478 6        40.500                    97793237.78247
        25.800    23882108.90647
  24000953.164 8 126125866.628 8        45.100    24000957.441 7  98279904.34548
        31.400    24000957.38348
  21968410.508 9 115444780.274 9        48.700                    89956998.24049
        36.900    21968414.44949
  21346043.492 9 112174233.552 9        52.900    21346050.551 9  87408516.33849
        44.700    21346049.53549  21346048.027 6  83766482.745 6        40.800
  20145413.797 9 105864870.165 9        49.900                    82492129.12549
        45.100    20145416.46149
  20460477.578 9 107520689.148 9        51.500                    83782250.89349
        48.100    20460478.94949
  24959687.625 6 131164045.295 6        39.000                   102205753.77546
        22.500    24959690.18846
 17  4  8  1  1 30.0000000  0 10G01G32G08G28G17G14G03G11G22G23
  20211660.508 9 106213006.441 9        55.800    20211667.242 9  82763414.63049
        50.800    20211666.81649  20211663.031 7  79314924.837 7        42.900
  22978278.234 8 120751686.363 8        46.200    22978284.121 7  94092244.78148
        33.600    22978283.32048  22978280.602 4  90171727.508 4        34.700
  22886856.133 8 120271320.568 8        45.800    22886863.359 7  93717912.39049
        35.200    22886862.10549  22886859.832 5  89812989.975 5        35.200
  23890616.172 7 125546025.952 7        41.400                    97828087.21047
        25.300    23890618.84847
  23983549.984 7 126034414.924 7        43.800    23983554.914 7  98208643.29748
        30.200    23983554.53548
  21972300.391 9 115465220.516 9        48.400                    89972925.70749
        36.900    21972304.15649
  21334090.336 9 112111419.370 9        51.400    21334097.055 9  87359570.22949
        45.200    21334096.37549  21334094.633 6  83719576.064 6        40.400
  20150910.125 9 105893755.228 9        49.300                    82514636.96249
        45.300    20150913.51649
  20457334.281 9 107504169.588 9        53.000                    83769378.51149
        48.100    20457335.19549
  24939184.398 6 131056304.509 6        38.100                   102121799.88746
        22.500    24939187.06646
 17  4  8  1  2  0.0000000  0 10G01G32G08G28G17G14G03G11G22G23
  20209102.219 9 106199563.803 9        56.100    20209109.223 9  82752939.84749
        50.700    20209108.98449  20209104.969 7  79304886.504 7        43.400
  22991139.867 8 120819273.023 8        46.200    22991145.676 7  94144909.71049
        34.000    22991145.05949  22991141.344 3  90222198.064 3        33.800
  22906570.500 8 120374918.599 8        45.800    22906577.512 7  93798638.13549
        34.800    22906576.53149  22906573.141 5  89890352.130 5        35.000
  23899203.898 7 125591154.736 7        41.500                    97863252.48446
        24.800    23899206.46546
  23966196.234 7 125943219.789 7        44.400    23966200.313 7  98137582.15548
        30.200    23966200.29348
  21976296.477 8 115486218.287 8        47.100                    89989287.61249
        37.400    21976299.77749
  21322202.289 9 112048947.551 9        51.700    21322209.457 9  87310890.90249
        44.600    21322208.48849  21322206.625 6  83672925.042 6        40.900
  20156509.734 9 105923180.868 9        49.700                    82537566.02649
        45.700    20156512.86349
  20454262.227 9 107488026.982 9        53.800                    83756799.86949
        48.200    20454262.98849
  24918684.688 6 130948576.851 6        39.200                   102037856.30646
        21.300    24918687.10546
 17  4  8  1  2 30.0000000  0 10G01G32G08G28G17G14G03G11G22G23
  20206618.070 9 106186508.918 9        56.600    20206625.266 9  82742767.20449
        50.700    20206624.92649  20206620.910 7  79295137.726 7        43.700
  23004086.984 8 120887313.568 8        45.900    23004093.930 7  94197928.31549
        34.100    23004093.33249  23004089.027 3  90273007.570 3        33.200
  22926329.039 8 120478752.007 8        45.300    22926336.516 8  93879547.27649
        35.000    22926335.61749  22926332.051 5  89967890.066 5        35.000
  23907867.781 6 125636686.312 6        39.800                    97898731.61646
        23.000    23907870.68846
  23948891.664 8 125852283.324 8        45.400    23948895.813 7  98066722.57848
        30.600    23948895.51648
  21980397.813 9 115507772.330 9        48.900                    90006082.97549
        37.800    21980401.40249
  21310379.461 9 111986818.170 9        51.200    21310386.402 9  87262478.40749
        44.500    21310385.31649  21310383.398 6  83626529.737 6        40.800
  20162212.141 9 105953146.095 9        49.500                    82560915.55049
        45.300    20162215.12149
  20451261.844 9 107472260.007 9        53.500                    83744513.91049
        48.200    20451262.88749
  24898188.617 6 130840864.386 6        39.200                   101953924.47046
        22.000    24898189.54746
 17  4  8  1  3  0.0000000  0 10G01G32G08G28G17G14G03G11G22G23
  20204207.836 9 106173843.207 9        57.000    20204214.648 9  82732897.82549
        50.600    20204214.68849  20204210.613 7  79285679.562 7        43.600
  23017120.750 8 120955806.306 8        46.700    23017127.461 7  94251299.28048
        33.600    23017126.65648  23017123.410 4  90324154.758 4        34.300
  22946132.477 8 120582818.717 8        45.700    22946139.754 7  93960638.20449
        34.900    22946138.40649  22946135.543 5  90045602.211 5        35.000
  23916608.680 6 125682618.895 6        40.300                    97934523.18446
        23.800    23916611.51646
  23931636.633 7 125761607.840 7        44.500    23931640.852 7  97996066.36548
        30.500    23931641.03948
  21984604.789 9 115529881.987 9        48.300                    90023311.28249
        37.500    21984608.58649
  21298622.047 9 111925032.414 9        52.500    21298628.859 9  87214333.67049
        44.900    21298628.00849  21298626.324 6  83580391.028 6        40.600
  20168016.617 9 105983651.697 9        49.300                    82584686.14349
        45.300    20168019.71149
  20448332.977 9 107456869.259 9        53.900                    83732521.13149
        48.200    20448334.16049
  24877695.008 6 130733169.878 6        39.600                   101870006.67346
        21.800    24877696.90246
 17  4  8  1  3 30.0000000  0 10G01G32G08G28G17G14G03G11G22G23
  20201871.609 9 106161567.130 9        56.600    20201878.980 9  82723332.04749
        50.800    20201878.52049  20201874.617 7  79276512.366 7        43.700
  23030240.281 8 121024748.754 8        45.500    23030246.445 7  94305020.67148
        32.600    23030245.52748  23030242.809 4  90375637.748 4        34.100
  22965979.609 8 120687116.143 8        45.400    22965987.008 7  94041908.91549
        35.000    22965985.91449  22965982.934 5  90123486.642 5        35.000
  23925425.844 6 125728950.030 6        40.900                    97970625.33647
        25.300    23925429.80147
  23914432.289 8 125671196.015 8        45.100    23914436.219 7  97925615.60548
        31.100    23914436.49248
  21988917.695 9 115552546.400 9        48.100                    90040971.87249
        36.700    21988921.14849
  21286930.172 9 111863590.666 9        52.700    21286936.969 9  87166456.99849
        45.000    21286936.14549  21286934.457 6  83534509.221 6        40.600
  20173924.289 9 106014696.800 9        49.300                    82608877.12849
        45.400    20173927.63749
  20445475.797 9 107441854.059 9        54.100                    83720820.97549
        48.500    20445476.92649
  24857205.281 6 130625495.523 6        39.800                   101786104.63046
        23.200    24857207.44946
 17  4  8  1  4  0.0000000  0 10G01G32G08G28G17G14G03G11G22G23
  20199610.172 9 106149681.378 9        56.600    20199617.270 9  82714070.42449
        50.700    20199616.93049  20199612.855 7  79267636.648 7        43.800
  23043444.570 8 121094138.492 8        45.300    23043450.699 7  94359090.58948
        32.200    23043449.67248  23043447.129 4  90427454.749 4        34.700
  22985870.406 8 120791641.446 8        46.000    22985877.949 7  94123357.19649
        35.300    22985876.53949  22985873.383 4  90201541.240 4        34.400
  23934316.969 6 125775677.580 6        40.900                    98007036.39946
        24.100    23934321.31646
  23897277.938 7 125581050.152 7        43.900    23897282.008 7  97855372.09448
        30.700    23897281.63748
  21993336.078 8 115575764.697 8        47.900                    90059064.04749
        37.100    21993339.83249
  21275303.734 9 111802493.292 9        52.200    21275310.402 9  87118848.66949
        45.200    21275309.53549  21275308.086 6  83488884.566 6        40.800
  20179934.953 9 106046280.818 9        49.300                    82633488.05049
        45.300    20179937.59849
  20442689.820 9 107427213.729 9        53.700                    83709412.92949
        48.400    20442691.00449
  24836718.992 6 130517843.204 6        38.800                   101702219.70146
        20.100    24836720.73846
 17  4  8  1  4 30.0000000  0 10G01G32G08G28G17G14G03G11G22G23
  20197422.820 9 106138186.763 9        56.200    20197429.980 9  82705113.57949
        50.800    20197429.67649  20197425.660 7  79259053.004 7        43.500
  23056733.656 8 121163973.280 8        45.600    23056739.691 7  94413507.30148
        32.300    23056739.08648  23056735.840 3  90479604.091 3        33.800
  23005803.523 8 120896392.337 8        45.400    23005811.152 7  94204981.25549
        34.700    23005810.14149  23005806.164 4  90279764.311 4        34.500
  23943284.570 6 125822799.949 6        40.400                    98043755.09846
        23.200    23943288.21146
  23880175.391 7 125491172.913 7        44.800    23880178.797 7  97785337.89148
        31.200    23880178.38748
  21997860.195 9 115599536.235 9        48.800                    90077587.32649
        37.300    21997862.89149
  21263742.852 9 111741741.049 9        51.800    21263749.676 9  87071509.25949
        45.600    21263748.83249  21263747.555 6  83443517.642 6        40.800
  20186047.445 9 106078403.745 9        49.500                    82658518.90149
        45.100    20186050.62949
  20439975.070 9 107412948.090 9        52.800                    83698296.85349
        48.500    20439976.04349
  24816238.188 6 130410215.071 6        39.200                   101618353.51346
        20.600    24816239.39846
 17  4  8  1  5  0.0000000  0 10G01G32G08G28G17G14G03G11G22G23
  20195309.984 9 106127084.076 9        54.200    20195316.652 9  82696462.13849
        50.800    20195316.73449  20195312.598 7  79250762.038 7        43.600
  23070107.141 8 121234250.730 8        45.400    23070113.566 7  94468268.95348
        33.000    23070112.63748  23070108.570 3  90532084.013 3        32.600
  23025779.242 8 121001366.233 8        45.500    23025786.555 7  94286779.08849
        35.000    23025785.35949  23025782.496 5  90358153.892 5        35.500
  23952326.547 6 125870314.766 6        40.100                    98080779.64546
        22.800    23952329.99646
  23863123.453 7 125401566.896 7        44.700    23863127.395 7  97715515.02248
        30.800    23863127.46548
  22002488.438 9 115623859.960 9        48.700                    90096540.88649
        36.800    22002491.58249
  21252247.898 9 111681334.300 9        53.100    21252254.711 9  87024439.08149
        45.200    21252253.93449  21252252.016 6  83398408.725 6        40.800
  20192263.016 9 106111064.704 9        49.700                    82683968.99049
        45.000    20192265.66849
  20437331.820 9 107399057.153 9        51.500                    83687472.74649
        48.500    20437332.84049
  24795761.891 6 130302613.515 6        38.300                   101534508.19546
        22.500    24795765.00846
 17  4  8  1  5 30.0000000  0 10G01G32G08G28G17G14G03G11G22G23
  20193271.859 9 106116373.829 9        54.300    20193278.895 9  82688116.48249
        50.600    20193278.68049  20193274.660 7  79242764.126 7        44.000
  23083563.750 8 121304968.504 8        46.000    23083570.457 7  94523373.70748
        32.600    23083569.77748  23083566.121 3  90584892.742 3        33.500
  23045797.078 7 121106560.533 7        44.900    23045804.773 7  94368748.67248
        33.900    23045803.35248  23045800.902 4  90436708.059 4        34.500
  23961442.055 6 125918219.324 6        40.000                    98118107.83546
        22.500    23961445.60246
  23846123.586 8 125312234.759 8        45.100    23846128.352 7  97645905.56248
        30.200    23846127.82048
  22007221.578 9 115648734.582 9        48.300                    90115923.71549
        36.900    22007225.35549
  21240818.750 9 111621273.650 9        53.200    21240825.551 9  86977638.57549
        45.300    21240824.66449  21240823.215 7  83353558.242 7        41.300
  20198580.438 9 106144263.235 9        49.300                    82709837.97349
        45.300    20198583.25449
  20434759.609 9 107385540.187 9        51.500                    83676940.04749
        48.500    20434760.54749
  24775292.094 6 130195040.629 6        40.800                   101450685.18746
        21.800    24775294.63346
 17  4  8  1  6  0.0000000  0 10G01G32G08G28G17G14G03G11G22G23
  20191308.664 9 106106056.973 9        56.900    20191316.320 9  82680077.37749
        50.700    20191315.91049  20191312.070 7  79235059.975 7        43.400
  23097104.688 8 121376124.362 8        45.800    23097111.098 7  94578819.83348
        32.000    23097109.82448  23097106.871 3  90638028.614 3        33.700
  23065856.633 7 121211973.077 7        44.200    23065864.449 7  94450888.30048
        33.900    23065863.23448  23065859.785 3  90515425.200 3        33.900
  23970632.078 6 125966511.795 6        39.900                    98155738.32446
        22.900    23970634.93046
  23829177.273 8 125223178.633 8        46.000    23829180.922 7  97576511.19348
        31.500    23829180.57848
  22012060.055 9 115674159.631 9        48.600                    90135735.43549
        36.900    22012063.77749
  21229455.484 9 111561559.698 9        53.400    21229462.414 9  86931108.23749
        45.400    21229461.67649  21229460.398 6  83308966.664 6        40.500
  20204999.906 9 106177999.071 9        50.500                    82736125.63749
        44.900    20205002.92249
  20432258.719 9 107372397.076 9        53.800                    83666698.66849
        48.500    20432259.60249
  24754826.742 7 130087498.866 7        41.000                   101366886.38546
        23.600    24754829.48046
 17  4  8  1  6 30.0000000  0 10G01G32G08G28G17G14G03G11G22G23
  20189420.484 9 106096134.209 9        57.500    20189427.688 9  82672345.34849
        50.800    20189427.40649  20189423.445 7  79227650.118 7        43.400
  23110728.023 8 121447715.992 8        45.800    23110734.316 7  94634605.52048
        32.500    23110733.50848  23110730.434 4  90691489.881 4        34.600
  23085956.883 7 121317601.118 7        44.500    23085965.074 7  94533195.84349
        35.000    23085963.89549  23085960.273 4  90594303.276 4        34.000
  23979895.547 6 126015189.904 6        40.300                    98193669.29347
        25.800    23979897.83247
  23812283.234 8 125134400.926 8        45.400    23812287.352 7  97507333.74648
        30.800    23812286.97348
  22017003.063 9 115700133.718 9        48.800                    90155974.99049
        37.500    22017006.06349
  21218158.414 9 111502192.981 9        54.100    21218165.176 9  86884848.46849
        45.500    21218164.55549  21218163.043 6  83264634.388 6        40.800
  20211521.891 9 106212271.618 9        50.700                    82762831.51049
        45.000    20211525.22749
  20429828.414 9 107359627.144 9        54.400                    83656748.07049
        48.500    20429829.14849
  24734369.625 7 129979990.117 7        41.400                   101283113.33646
        23.300    24734371.00046
 17  4  8  1  7  0.0000000  0 11G01G32G08G28G17G14G03G11G22G31G23
  20187607.352 9 106086606.356 9        54.900    20187614.426 9  82664921.04949
        50.800    20187614.04749  20187610.090 7  79220535.161 7        43.900
  23124433.984 8 121519741.066 8        45.800    23124440.492 7  94690728.94448
        32.600    23124439.77048  23124436.461 3  90745274.828 3        33.500
  23106097.563 8 121423442.392 8        45.500    23106105.043 7  94615669.55848
        33.800    23106103.94148  23106101.141 5  90673340.582 5        35.200
  23989231.531 6 126064251.419 6        40.200                    98231899.01947
        26.200    23989235.46947
  23795442.875 8 125045904.592 8        45.000    23795446.801 7  97438375.56648
        31.100    23795446.02748
  22022049.781 9 115726656.110 9        48.200                    90176641.79749
        36.500    22022053.11349
  21206927.391 9 111443174.087 9        54.300    21206934.230 9  86838859.72249
        45.800    21206933.61349  21206932.047 7  83220561.849 7        41.200
  20218145.641 9 106247080.485 9        50.000                    82789955.29149
        45.500    20218148.88349
  20427469.680 9 107347230.312 9        51.500                    83647088.20849
        48.400    20427470.44149
  24932482.258 6 131021075.41616        39.800    24932487.902 5 102094360.61856
        21.500    24932487.00446
  24713918.164 7 129872516.861 7        41.700                   101199367.95946
        22.500    24713920.48846
 17  4  8  1  7 30.0000000  0 11G01G32G08G28G17G14G03G11G22G31G23
  20185869.453 9 106077473.978 9        55.500    20185876.734 9  82657804.90649
        50.700    20185876.21549  20185872.141 7  79213715.526 7        43.300
  23138221.914 8 121592197.051 8        46.000    23138228.688 7  94747188.15848
        33.100    23138228.09048  23138224.258 3  90799381.570 3        33.100
  23126279.523 8 121529493.908 8        45.400    23126286.566 7  94698307.10048
        33.600    23126285.02048  23126282.160 5  90752534.886 5        35.100
  23998639.555 6 126113694.468 6        39.500                    98270426.07046
        23.500    23998643.30946
  23778656.727 8 124957692.133 8        45.400    23778661.293 7  97369638.57048
        31.000    23778660.17248
  22027200.523 8 115753725.755 8        47.700                    90197735.02149
        36.500    22027204.37149
  21195762.859 9 111384503.367 9        52.900    21195769.625 9  86793142.28849
        45.500    21195768.50449  21195767.109 7  83176749.311 7        41.000
  20224871.633 9 106282425.190 9        50.400                    82817496.61849
        44.900    20224874.85549
  20425181.352 9 107335206.145 9        51.900                    83637718.73349
        48.600    20425182.21549
  24917499.086 6 130942340.711 6        38.300    24917504.824 5 102033008.94446
        21.300    24917504.41046
  24693472.273 6 129765081.309 6        38.700                   101115651.88346
        22.000    24693475.49646
 17  4  8  1  8  0.0000000  0 11G01G32G08G28G17G14G03G11G22G31G23
  20184207.125 9 106068737.857 9        57.300    20184214.625 9  82650997.54349
        50.600    20184214.01249  20184210.344 7  79207191.804 7        43.300
  23152091.570 7 121665081.707 7        44.900    23152098.109 7  94803981.40148
        31.800    23152097.26248  23152093.547 3  90853808.433 3        33.400
  23146499.109 7 121635753.555 7        44.600    23146506.801 7  94781106.81749
        34.100    23146505.84049  23146502.332 4  90831884.607 4        34.400
  24008120.164 6 126163516.604 6        38.800                    98309248.50146
        24.500    24008124.61746
  23761924.797 8 124869765.715 8        45.000    23761928.758 7  97301124.50848
        30.800    23761928.30548
  22032456.055 8 115781341.877 8        47.600                    90219254.08249
        36.500    22032459.54349
  21184664.547 9 111326181.414 9        53.400    21184671.223 9  86747696.61949
        45.600    21184670.41849  21184669.082 6  83133197.215 6        40.300
  20231699.609 9 106318305.240 9        51.300                    82845455.09249
        45.100    20231702.93049
  20422964.094 9 107323554.237 9        53.100                    83628639.32849
        48.500    20422965.21949
  24902554.094 6 130863799.147 6        40.000    24902558.723 5 101971807.71945
        19.900    24902557.92245
  24673036.211 6 129657685.468 6        39.700                   101031966.86246
        22.300    24673039.28146
 17  4  8  1  8 30.0000000  0 11G01G32G08G28G17G14G03G11G22G31G23
  20182619.961 9 106060398.612 9        57.300    20182627.355 9  82644499.42449
        50.700    20182626.92649  20182623.023 7  79200964.442 7        43.300
  23166042.625 7 121738392.546 7        44.800    23166048.102 7  94861106.71648
        32.500    23166047.81348  23166044.801 4  90908553.536 4        34.600
  23166758.516 7 121742218.498 7        43.900    23166766.324 7  94864066.49048
        33.100    23166765.24248  23166761.852 4  90911387.647 4        34.600
  24017673.094 7 126213715.359 7        41.300                    98348364.38346
        22.900    24017676.14546
  23745248.086 8 124782128.304 8        46.000    23745252.305 6  97232835.60648
        31.500    23745251.23048
  22037815.141 8 115809503.042 8        47.500                    90241197.85149
        37.100    22037818.46149
  21173632.680 9 111268208.636 9        53.900    21173639.500 9  86702523.03849
        45.700    21173638.66449  21173637.152 6  83089905.864 6        40.400
  20238629.172 9 106354720.171 9        50.900                    82873830.35849
        45.200    20238631.93449
  20420817.539 9 107312274.376 9        54.400                    83619849.82749
        48.700    20420818.57049
  24887645.188 6 130785453.593 6        39.500    24887649.895 5 101910759.25745
        19.900    24887649.64145
  24652609.688 7 129550331.586 7        42.800                   100948314.50446
        21.300    24652609.79746
 17  4  8  1  9  0.0000000  0 11G01G32G08G28G17G14G03G11G22G31G23
  20181108.898 9 106052457.117 9        56.700    20181116.055 9  82638311.25249
        50.700    20181115.76249  20181111.742 7  79195034.105 7        43.300
  23180073.445 8 121812127.326 8        45.300    23180079.988 7  94918562.39448
        32.300    23180079.24648  23180076.469 4  90963615.210 4        34.200
  23187057.047 7 121848886.679 7        43.400    23187064.164 7  94947184.54448
        32.200    23187062.73848  23187060.461 4  90991042.442 4        34.700
  24027296.977 6 126264288.610 6        39.700                    98387772.11746
        24.300    24027300.10246
  23728626.703 8 124694781.772 8        46.300    23728630.066 6  97164773.36748
        31.600    23728629.50448
  22043277.508 8 115838208.626 8        47.200                    90263565.84549
        36.600    22043280.86349
  21162667.414 9 111210585.694 9        53.700    21162674.027 9  86657622.04949
        45.400    21162672.82449  21162671.375 6  83046875.745 6        40.900
  20245660.313 9 106391669.449 9        50.000                    82902621.99749
        44.900    20245662.98849
  20418741.977 9 107301365.862 9        54.600                    83611349.69349
        48.700    20418742.85549
  24872774.477 6 130707307.283 6        40.600    24872778.520 5 101849866.01346
        21.100    24872778.04746
  24632187.336 7 129443021.971 7        41.000                   100864696.58546
        22.500    24632189.49646
 17  4  8  1  9 30.0000000  0 12G01G32G08G19G28G17G14G03G11G22G31G23
  20179673.438 9 106044914.027 9        57.500    20179680.336 9  82632433.51649
        50.800    20179680.16449  20179676.203 7  79189401.279 7        43.700
  23194184.984 8 121886283.613 8        45.100    23194191.391 7  94976346.51648
        32.900    23194190.49648  23194187.250 4  91018991.654 4        34.000
  23207393.797 7 121955754.990 7        43.900    23207401.164 7  95030458.55048
        32.400    23207399.99248  23207396.836 3  91070846.679 3        33.700
  25099603.078 5 131899301.18415        36.300                   102778688.71255
        18.300    25099604.82445
  24036991.305 6 126315233.934 6        40.300                    98427469.77646
        23.300    24036994.66046
  23712060.992 8 124607728.944 8        46.200    23712064.895 7  97096939.97648
        32.100    23712063.84848
  22048843.430 8 115867457.344 8        47.600                    90286357.04749
        37.200    22048846.90249
  21151768.789 9 111153313.007 9        53.500    21151775.648 9  86612993.98949
        45.800    21151774.61749  21151773.402 7  83004107.197 7        41.300
  20252792.680 9 106429152.147 9        50.500                    82931829.28749
        44.700    20252795.58249
  20416736.320 9 107290828.344 9        53.900                    83603138.63649
        48.900    20416737.55149
  24857943.172 7 130629363.436 7        41.100    24857946.672 5 101789130.53946
        21.100    24857945.92646
  24611775.031 6 129335758.638 6        39.200                   100781114.78746
        21.300    24611778.31346
 17  4  8  1 10  0.0000000  0 12G01G32G08G19G28G17G14G03G11G22G31G23
  20178314.188 9 106037769.820 9        54.400    20178321.223 9  82626866.60249
        50.700    20178320.62549  20178316.840 7  79184066.320 7        43.400
  23208375.953 7 121960858.781 7        44.400    23208382.461 7  95034457.02348
        32.400    23208381.52048  23208377.977 3  91074680.895 3        33.200
  23227768.148 7 122062821.020 7        44.100    23227775.160 7  95113886.61448
        33.800    23227774.47748  23227770.855 3  91150798.577 3        33.800
  25079027.805 6 131791174.676 6        38.300                   102694434.21546
        23.500    25079029.44546
  24046756.070 6 126366549.194 6        38.900                    98467455.64746
        23.000    24046759.89846
  23695551.602 8 124520972.589 8        45.500    23695556.004 7  97029337.64048
        31.000    23695554.96948
  22054512.867 8 115897247.775 8        46.600                    90309570.38049
        36.400    22054515.72749
  21140936.688 9 111096390.848 9        52.700    21140943.367 9  86568639.07349
        45.700    21140942.26649  21140941.105 6  82961600.404 6        40.700
  20260026.813 9 106467167.679 9        51.200                    82961451.77449
        45.200    20260030.10549
  20414801.609 9 107280661.424 9        51.600                    83595216.36749
        48.700    20414802.62149
  24843149.563 6 130551624.887 6        40.700    24843154.008 6 101728555.04746
        22.000    24843153.43046
  24591373.438 7 129228543.998 7        41.200                   100697570.89846
        22.200    24591375.00446
 17  4  8  1 10 30.0000000  0 12G01G32G08G19G28G17G14G03G11G22G31G23
  20177030.375 9 106031025.225 9        56.900    20177037.605 9  82621611.06949
        50.700    20177037.27049  20177033.313 7  79179029.766 7        43.500
  23222646.570 7 122035850.463 7        44.100    23222652.957 7  95092892.10348
        32.100    23222651.98048  23222648.266 3  91130681.182 3        33.200
  23248178.750 7 122170082.194 7        43.900    23248186.680 7  95197466.73848
        32.800    23248185.48048  23248182.031 3  91230896.199 3        33.200
  25058485.820 5 131683229.142 5        36.700                   102610320.93845
        19.900    25058487.18445
  24056591.469 6 126418232.125 6        39.800                    98507728.05246
        24.600    24056595.26246
  23679099.906 8 124434514.985 8        47.200    23679103.609 7  96961968.08048
        31.200    23679102.39148
  22060283.906 8 115927578.888 8        46.800                    90333205.01749
        36.700    22060287.44949
  21130171.633 9 111039819.731 9        52.900    21130178.102 9  86524557.68349
        45.700    21130177.33649  21130175.828 7  82919355.745 7        41.300
  20267362.031 9 106505715.354 9        51.200                    82991488.91549
        44.800    20267365.38349
  20412937.578 9 107270864.539 9        53.000                    83587582.43749
        48.700    20412938.61349
  24828395.477 6 130474094.894 6        39.000    24828400.938 6 101668142.11046
        22.200    24828400.57846
  24570980.266 6 129121379.833 6        40.700                   100614066.35046
        24.600    24570982.44146
 17  4  8  1 11  0.0000000  0 12G01G32G08G19G28G17G14G03G11G22G31G23
  20175823.156 9 106024681.144 9        56.900    20175830.234 9  82616667.62849
        50.800    20175829.95749  20175825.941 7  79174292.305 7        44.100
  23236995.477 7 122111256.479 7        44.100    23237002.043 7  95151650.03448
        32.100    23237000.92648  23236997.680 3  91186990.877 3        33.500
  23268627.305 8 122277536.245 8        45.100    23268633.836 7  95281197.16148
        32.700    23268633.05948  23268630.195 3  91311137.863 3        33.700
  25037978.859 5 131575467.577 5        35.000                   102526350.88545
        19.900    25037981.22745
  24066496.289 6 126470280.182 6        38.500                    98548284.98946
        22.800    24066498.76646
  23662704.094 8 124348358.455 8        46.000    23662708.461 7  96894833.11148
        32.900    23662707.64848
  22066158.633 8 115958449.714 8        47.200                    90357260.20949
        36.900    22066162.48849
  21119473.297 9 110983600.340 9        53.300    21119480.227 9  86480750.37249
        45.900    21119479.31349  21119477.863 6  82877373.747 6        40.900
  20274798.758 9 106544794.716 9        51.400                    83021940.35549
        44.800    20274801.97749
  20411143.711 9 107261437.634 9        54.400                    83580236.80149
        49.000    20411144.76249
  24813683.375 6 130396776.983 6        40.300    24813687.566 5 101607894.37846
        21.500    24813686.93446
  24550597.328 6 129014269.178 6        40.600                   100530603.55047
        26.000    24550600.85247
 17  4  8  1 11 30.0000000  0 12G01G32G08G19G28G17G14G03G11G22G31G23
  20174692.266 9 106018738.081 9        57.300    20174699.574 9  82612036.66749
        50.900    20174699.37149  20174695.117 7  79169854.303 7        43.900
  23251422.984 7 122187074.199 7        44.900    23251429.625 7  95210728.77748
        31.200    23251429.14548  23251425.543 3  91243607.996 3        33.100
  23289110.609 7 122385180.471 7        43.700    23289118.129 7  95365075.77848
        32.100    23289116.78948  23289114.691 4  91391521.521 4        34.200
  25017508.492 3 131467892.685 3        33.700                   102442526.24645
        18.600    25017509.87945
  24076469.641 6 126522691.055 6        39.000                    98589124.60546
        23.000    24076473.02346
  23646367.203 8 124262505.731 8        46.000    23646371.590 7  96827934.87548
        32.100    23646370.71548
  22072135.813 8 115989859.119 8        46.500                    90381735.07149
        37.100    22072139.12149
  21108841.922 9 110927732.951 9        53.400    21108848.938 9  86437217.35549
        46.100    21108848.15649  21108846.410 7  82835654.602 7        41.200
  20282336.344 9 106584405.051 9        51.500                    83052805.54849
        44.800    20282339.84849
  20409419.961 9 107252379.964 9        53.800                    83573178.87849
        49.000    20409421.25049
  24799010.914 7 130319673.803 7        41.000    24799015.086 5 101547814.02146
        21.800    24799013.67646
  24530226.633 7 128907213.605 7        41.100                   100447183.63746
        22.800    24530228.51646
 17  4  8  1 12  0.0000000  0 12G01G32G08G19G28G17G14G03G11G22G31G23
  20173638.055 9 106013196.658 9        56.800    20173644.973 9  82607718.67449
        50.700    20173644.75049  20173640.617 7  79165716.227 7        43.200
  23265928.836 7 122263301.157 7        44.700    23265935.340 7  95270126.38748
        32.800    23265934.87548  23265931.273 3  91300530.709 3        33.500
  23309630.469 7 122493012.375 7        43.800    23309637.969 7  95449100.61548
        33.200    23309637.56648  23309632.945 3  91472045.338 3        33.000
  24997074.789 5 131360506.540 5        36.400                   102358848.77746
        21.100    24997076.08246
  24086511.680 6 126575462.333 6        39.400                    98630245.07246
        24.200    24086515.50446
  23630088.383 8 124176959.121 8        47.300    23630091.910 7  96761275.18848
        33.100    23630091.87148
  22078214.930 8 116021805.828 8        46.200                    90406628.62249
        36.500    22078217.97349
  21098278.188 9 110872217.963 9        53.500    21098284.949 9  86393958.93149
        46.000    21098284.13749  21098282.391 6  82794198.610 6        40.900
  20289974.859 9 106624545.441 9        51.500                    83084083.77149
        44.600    20289978.04349
  20407766.664 9 107243690.956 9        53.700                    83566408.22749
        48.700    20407767.58249
  24784380.047 6 130242788.532 6        40.600    24784384.711 5 101487903.36746
        22.300    24784383.43446
  24509864.719 6 128800215.288 6        39.200                   100363808.32846
        22.800    24509867.82446
 17  4  8  1 12 30.0000000  0 12G01G32G08G19G28G17G14G03G11G22G31G23
  20172660.172 9 106008057.736 9        57.400    20172667.324 9  82603714.32149
        50.800    20172667.18449  20172662.875 7  79161878.717 7        43.900
  23280511.609 7 122339935.108 7        44.800    23280517.770 7  95329841.15548
        32.600    23280517.71548  23280513.879 3  91357757.357 3        32.600
  23330185.352 7 122601029.360 7        43.900    23330192.676 7  95533269.67248
        31.900    23330191.94948  23330188.738 3  91552707.355 3        33.400
  24976675.938 5 131253312.681 5        37.200                   102275321.09846
        21.500    24976677.84846
  24096621.836 6 126628591.628 6        40.500                    98671644.50346
        24.800    24096625.46546
  23613868.086 8 124091721.345 8        47.200    23613872.215 7  96694856.13148
        33.700    23613872.20748
  22084396.180 8 116054288.679 8        46.600                    90431939.94149
        36.100    22084399.64849
  21087780.867 9 110817056.046 9        54.600    21087788.145 9  86350975.63349
        46.100    21087787.10949  21087785.598 7  82753006.279 7        41.400
  20297714.266 9 106665215.582 9        52.100                    83115774.77849
        44.800    20297717.31349
  20406183.250 9 107235370.543 9        54.800                    83559924.79449
        48.900    20406184.02749
  24769792.008 6 130166124.562 6        40.300    24769795.660 5 101428165.23446
        21.800    24769795.35946
  24489514.711 5 128693276.949 5        37.600                   100280479.79346
        22.300    24489517.62946
 17  4  8  1 13  0.0000000  0 12G01G32G08G19G28G17G14G03G11G22G31G23
  20171758.789 9 106003321.817 9        57.200    20171766.016 9  82600023.99249
        50.800    20171765.64149  20171761.566 7  79158342.155 7        43.800
  23295171.805 8 122416973.418 8        45.000    23295178.355 7  95389871.01148
        30.700    23295177.97748  23295174.145 3  91415285.972 3        33.000
  23350774.820 7 122709229.038 7        44.600    23350782.066 7  95617581.11948
        31.600    23350780.76248  23350778.484 3  91633505.810 3        33.400
  24956314.602 5 131146313.506 5        36.800                   102191945.09646
        22.800    24956316.48446
  24106800.258 6 126682076.781 6        39.800                    98713321.24246
        22.800    24106802.35546
  23597706.547 8 124006794.815 8        47.200    23597710.953 7  96628679.60248
        32.800    23597710.63748
  22090679.250 8 116087306.158 8        46.200                    90457667.84649
        36.200    22090682.85949
  21077351.266 9 110762247.454 9        53.700    21077358.063 9  86308267.64749
        45.900    21077356.98049  21077355.703 7  82712077.794 7        41.600
  20305554.313 9 106706414.937 9        51.600                    83147878.16549
        45.100    20305557.17249
  20404669.859 9 107227418.048 9        54.100                    83553728.04549
        49.000    20404671.01649
  24755244.984 6 130089684.915 6        39.700    24755249.020 5 101368601.84546
        21.100    24755249.08246
  24469177.828 6 128586400.423 6        39.200                   100197199.39946
        21.300    24469179.94946
 17  4  8  1 13 30.0000000  0 12G01G32G08G19G28G17G14G03G11G22G31G23
  20170934.414 9 105998989.697 9        56.800    20170941.574 9  82596648.31249
        50.800    20170941.21549  20170937.375 7  79155107.130 7        43.400
  23309907.906 7 122494413.761 7        44.600    23309914.547 7  95450214.13648
        31.600    23309913.81648  23309910.684 3  91473114.794 3        32.800
  23371398.906 8 122817608.415 8        45.100    23371406.383 7  95702032.56448
        32.200    23371405.50848  23371402.293 3  91714438.431 3        33.500
  24935990.914 5 131039512.096 5        37.200                   102108723.20046
        21.700    24935992.14846
  24117044.469 6 126735915.364 6        40.200                    98755273.35346
        22.900    24117048.34846
  23581606.500 8 123922181.974 8        47.800    23581609.555 7  96562747.53448
        33.000    23581609.20348
  22097063.828 8 116120857.522 8        46.500                    90483811.76949
        37.500    22097067.44549
  21066989.109 9 110707792.721 9        54.100    21066995.938 9  86265835.39849
        46.300    21066995.13349  21066993.328 6  82671413.569 6        40.800
  20313494.586 9 106748142.092 9        52.000                    83180392.82649
        44.800    20313497.97349
  20403226.727 9 107219833.262 9        54.300                    83547817.82549
        48.900    20403227.58649
  24740742.422 6 130013473.012 6        40.300    24740746.633 6 101309215.94546
        22.000    24740745.55146
  24448852.883 7 128479588.078 7        42.000                   100113969.02346
        22.200    24448853.30546
 17  4  8  1 14  0.0000000  0 12G01G32G08G19G28G17G14G03G11G22G31G23
  20170187.016 9 105995061.905 9        56.200    20170194.148 9  82593587.69249
        50.600    20170193.78149  20170189.883 7  79152174.032 7        43.400
  23324720.453 8 122572253.632 8        45.500    23324726.770 7  95510868.57948
        30.700    23324726.14548  23324722.898 3  91531241.975 3        33.500
  23392056.844 8 122926165.605 8        46.400    23392064.230 7  95786622.57648
        32.800    23392063.59448  23392059.383 3  91795503.872 3        32.600
  24915705.555 5 130932910.795 5        37.100                   102025657.33846
        21.500    24915707.27346
  24127357.070 6 126790105.040 6        39.700                    98797499.10246
        23.200    24127359.62146
  23565564.711 8 123837885.309 8        47.700    23565568.391 7  96497061.80448
        33.900    23565568.27748
  22103549.867 8 116154941.353 8        46.300                    90510370.60249
        36.800    22103553.80949
  21056694.031 9 110653692.188 9        54.500    21056700.988 9  86223679.13649
        46.600    21056700.17249  21056698.074 7  82631013.818 7        41.100
  20321535.477 9 106790396.925 9        51.900                    83213318.66749
        44.900    20321538.79749
  20401853.141 9 107212615.884 9        53.800                    83542193.89949
        48.900    20401854.08249
  24726283.484 6 129937491.835 6        38.300    24726288.809 6 101250009.86846
        22.500    24726287.93846
  24428540.383 7 128372842.271 7        43.100                   100030790.43546
        23.500    24428540.52046
 17  4  8  1 14 30.0000000  0 12G01G32G08G19G28G17G14G03G11G22G31G23
  20169516.273 9 105991538.931 9        53.900    20169523.543 9  82590842.51649
        50.600    20169523.26249  20169519.422 7  79149543.244 7        43.600
  23339607.984 8 122650490.344 8        45.100    23339615.094 7  95571832.24148
        30.700    23339614.04748  23339610.914 3  91589665.472 3        33.900
  23412748.094 8 123034897.400 8        45.800    23412754.891 7  95871348.65048
        32.100    23412753.78548  23412750.984 3  91876699.692 3        33.200
  24895458.602 6 130826512.505 6        38.100                   101942749.47146
        21.300    24895459.61746
  24137734.711 6 126844643.135 6        39.500                    98839996.29046
        24.800    24137738.96546
  23549584.359 9 123753907.725 9        48.100    23549588.375 7  96431624.74048
        33.800    23549588.12948
  22110136.953 8 116189555.993 8        46.200                    90537343.05049
        36.200    22110140.21549
  21046466.500 9 110599946.142 9        54.100    21046473.320 9  86181799.11349
        46.500    21046472.72349  21046470.625 6  82590878.790 6        40.800
  20329676.781 9 106833178.399 9        52.200                    83246654.87149
        44.900    20329679.60549
  20400549.555 9 107205764.843 9        51.700                    83536855.43449
        48.700    20400550.64149
  24711869.227 6 129861744.121 6        40.500    24711874.035 5 101190985.66846
        22.500    24711872.95346
  24408239.539 7 128266164.843 7        42.800                    99947665.18246
        24.200    24408240.55146
 17  4  8  1 15  0.0000000  0 12G01G32G08G19G28G17G14G03G11G22G31G23
  20168923.211 9 105988421.675 9        55.900    20168930.738 9  82588413.48849
        50.800    20168930.35949  20168926.520 7  79147215.422 7        43.700
  23354571.188 8 122729121.674 8        45.400    23354577.742 7  95633103.40148
        30.200    23354577.31348  23354573.715 3  91648383.670 3        32.700
  23433471.148 8 123143801.671 8        45.100    23433479.137 7  95956209.11748
        31.500    23433477.96148  23433475.336 3  91958024.307 3        33.300
  24875251.195 6 130720319.978 6        38.500                   101860001.98746
        21.700    24875251.92646
  24148178.836 6 126899527.436 6        39.400                    98882763.26646
        22.800    24148182.78946
  23533665.031 8 123670251.303 8        47.200    23533669.273 7  96366437.92048
        33.200    23533668.40248
  22116824.797 8 116224700.458 8        46.200                    90564728.34549
        36.800    22116827.98449
  21036306.609 9 110546555.147 9        54.500    21036313.313 9  86140195.75149
        46.400    21036312.66849  21036310.867 7  82551008.901 7        41.000
  20337917.797 9 106876485.950 9        51.400                    83280401.00649
        44.900    20337921.06649
  20399315.359 9 107199279.951 9        54.700                    83531802.27249
        48.800    20399316.39849
  24697499.617 6 129786233.306 6        40.900    24697505.367 6 101132146.05046
        22.200    24697503.89546
  24387952.477 7 128159558.298 7        42.100                    99864595.16746
        24.100    24387954.44546
 17  4  8  1 15 30.0000000  0 12G01G32G08G19G28G17G14G03G11G22G31G23
  20168407.609 9 105985710.683 9        56.300    20168414.648 9  82586301.02349
        50.900    20168414.54749  20168410.648 7  79145190.982 7        43.700
  23369609.383 8 122808145.132 8        46.000    23369615.609 7  95694680.11948
        30.000    23369614.84848  23369611.426 3  91707394.688 3        32.400
  23454227.953 8 123252875.860 8        45.000    23454235.121 7  96041201.98648
        31.400    23454234.45748  23454231.125 3  92039475.792 3        33.400
  24855082.680 6 130614336.020 6        38.100                   101777417.08546
        21.300    24855084.38746
  24158688.914 6 126954755.629 6        39.700                    98925798.20946
        22.500    24158692.29746
  23517807.578 9 123586918.601 9        48.300    23517811.031 7  96301503.34049
        34.200    23517810.92249
  22123612.867 8 116260373.689 8        47.100                    90592525.67349
        36.800    22123616.21949
  21026214.234 9 110493519.662 9        53.800    21026221.336 9  86098869.39849
        46.500    21026220.19149  21026218.742 6  82511404.487 6        40.900
  20346258.914 9 106920318.636 9        51.900                    83314556.34149
        44.600    20346262.05149
  20398150.945 9 107193160.738 9        54.400                    83527034.05449
        48.800    20398152.25049
  24683177.156 7 129710962.742 7        41.800    24683181.082 5 101073493.70246
        22.600    24683180.31646
  24367679.969 7 128053024.483 7        42.700                    99781581.83047
        25.800    24367681.28147
 17  4  8  1 16  0.0000000  0 12G01G32G08G19G28G17G14G03G11G22G31G23
  20167969.016 9 105983406.644 9        56.000    20167976.488 9  82584505.66749
        50.800    20167976.14849  20167972.367 7  79143470.430 7        43.700
  23384720.914 8 122887558.249 8        46.100    23384727.570 7  95756560.46948
        30.900    23384726.63748  23384723.215 3  91766696.694 3        32.600
  23475015.086 7 123362117.109 7        44.600    23475023.195 7  96126325.01648
        31.000    23475022.43048  23475018.746 3  92121052.045 3        32.900
  24834954.938 6 130508563.427 6        39.500                   101694996.95846
        21.300    24834956.13346
  24169263.336 6 127010325.218 6        39.300                    98969099.17146
        22.900    24169266.91446
  23502011.609 8 123503911.994 8        47.100    23502015.902 7  96236822.88749
        34.100    23502015.32849
  22130501.570 8 116296574.093 8        46.800                    90620733.78849
        36.200    22130504.99249
  21016189.531 9 110440840.047 9        55.200    21016196.320 9  86057820.35949
        46.600    21016195.48849  21016193.859 7  82472065.826 7        41.400
  20354699.719 9 106964675.600 9        52.100                    83349120.20449
        44.900    20354702.53549
  20397056.164 9 107187406.950 9        53.800                    83522550.59349
        48.900    20397057.02349
  24668900.094 7 129635935.358 7        41.800    24668903.813 5 101015030.83146
        21.100    24668902.00046
  24347421.969 7 127946566.143 7        41.300                    99698627.29546
        24.700    24347424.03146
 17  4  8  1 16 30.0000000  0 12G01G32G08G19G28G17G14G03G11G22G31G23
  20167607.734 9 105981509.823 9        54.200    20167615.004 9  82583027.62149
        50.700    20167614.64149  20167610.742 7  79142053.971 7        43.600
  23399906.836 8 122967358.138 8        45.200    23399912.859 7  95818742.20548
        31.200    23399912.24648  23399908.414 3  91826287.531 3        32.800
  23495833.758 8 123471522.817 8        45.000    23495842.215 7  96211576.20248
        30.600    23495841.14848  23495837.523 3  92202751.107 3        32.700
  24814866.570 5 130403004.466 5        36.400                   101612743.21746
        22.000    24814869.23846
  24179902.148 6 127066233.246 6        39.400                    99012663.85946
        22.600    24179905.41846
  23486278.789 9 123421234.569 9        48.100    23486282.625 7  96172398.90949
        34.200    23486282.31349
  22137489.984 8 116333300.088 8        46.800                    90649351.44449
        36.300    22137493.71149
  21006232.508 9 110388516.354 9        54.300    21006239.605 9  86017048.65949
        46.400    21006238.77049  21006236.852 6  82432992.949 6        40.900
  20363240.117 9 107009555.763 9        51.600                    83384091.75249
        44.700    20363243.21149
  20396030.641 9 107182017.342 9        51.800                    83518350.90049
        48.800    20396031.26649
  24654668.445 6 129561153.732 6        39.400    24654673.016 5 100956759.39146
        20.600    24654671.64146
  24327177.375 6 127840185.024 6        40.800                    99615732.92147
        25.400    24327179.68047
 17  4  8  1 17  0.0000000  0 12G01G32G08G19G28G17G14G03G11G22G31G23
  20167324.492 9 105980021.270 9        56.500    20167331.953 9  82581867.71349
        50.700    20167331.61349  20167327.711 7  79140942.389 7        43.400
  23415164.852 7 123047542.808 7        44.700    23415171.570 7  95881223.76448
        30.900    23415170.86348  23415167.383 3  91886165.673 3        32.700
  23516684.328 7 123581091.020 7        43.700    23516692.273 7  96296954.02648
        30.200    23516691.38748  23516688.758 3  92284571.510 3        33.300
  24794821.922 5 130297662.570 5        37.900                   101530658.58546
        22.500    24794823.11346
  24190605.406 6 127122478.120 6        39.900                    99056491.02147
        25.000    24190608.80147
  23470609.000 8 123338888.139 8        47.900    23470612.605 7  96108232.88449
        34.600    23470612.15649
  22144579.305 8 116370550.759 8        47.400                    90678377.95049
        36.800    22144582.24249
  20996343.609 9 110336549.423 9        54.300    20996350.414 9  85976554.96049
        46.800    20996349.51649  20996347.594 7  82394186.482 7        41.300
  20371879.828 9 107054958.903 9        51.500                    83419470.82349
        44.700    20371882.93049
  20395073.938 9 107176992.360 9        54.600                    83514435.33449
        48.800    20395075.18449
  24640484.953 6 129486621.593 6        39.800    24640490.664 6 100898682.37946
        22.500    24640490.25846
  24306949.289 7 127733883.722 7        41.700                    99532900.74346
        23.600    24306950.78546
 17  4  8  1 17 30.0000000  0 12G01G32G08G19G28G17G14G03G11G22G31G23
  20167119.359 9 105978941.422 9        57.100    20167126.332 9  82581026.26749
        50.900    20167126.02749  20167122.125 7  79140136.003 7        43.400
  23430496.758 7 123128109.541 7        44.400    23430503.035 7  95944003.03148
        30.400    23430502.34448  23430498.453 3  91946329.140 3        33.000
  23537565.727 7 123690818.660 7        43.600    23537572.969 7  96382456.07948
        31.700    23537572.15648  23537569.063 4  92366510.950 4        34.400
  24774817.633 5 130192540.404 5        37.400                   101448745.13046
        22.600    24774818.79346
  24201372.547 6 127179056.708 6        40.600                    99100578.22447
        26.200    24201375.84847
  23455002.055 9 123256875.282 9        48.100    23455006.051 7  96044326.77748
        33.800    23455005.35248
  22151766.891 8 116408324.362 8        46.800                    90707811.93249
        36.600    22151769.83649
  20986522.617 9 110284939.446 9        54.600    20986529.254 9  85936339.40149
        46.900    20986528.27049  20986526.586 6  82355646.572 6        40.900
  20380619.328 9 107100883.840 9        51.200                    83455256.48049
        45.200    20380622.31649
  20394187.219 9 107172331.304 9        55.100                    83510803.33849
        48.800    20394187.59849
  24626350.719 6 129412342.401 6        40.400    24626355.398 6 100840802.48746
        23.800    24626354.66846
  24286736.313 7 127627664.446 7        42.100                    99450132.48147
        25.200    24286738.19147
 17  4  8  1 18  0.0000000  0 12G01G32G08G19G28G17G14G03G11G22G31G23
  20166991.422 9 105978270.768 9        54.600    20166998.469 9  82580503.67649
        50.800    20166998.37149  20166994.355 7  79139635.182 7        43.000
  23445899.859 7 123209055.738 7        43.700    23445906.629 7  96007077.98948
        30.200    23445905.68848  23445902.027 3  92006775.979 3        32.200
  23558476.203 7 123800703.276 7        43.000    23558483.520 7  96468080.42648
        30.800    23558482.64148  23558478.547 3  92448567.630 3        32.800
  24754855.367 5 130087640.467 5        35.500                   101367004.98646
        20.900    24754856.58646
  24212201.313 6 127235966.603 6        39.100                    99144923.59046
        22.200    24212204.84446
  23439459.703 9 123175198.523 9        48.100    23439463.324 7  95980682.53349
        34.700    23439462.95349
  22159054.344 8 116446619.523 8        47.000                    90737652.31449
        36.500    22159058.06649
  20976769.523 9 110233686.666 9        54.100    20976776.574 9  85896402.17449
        47.000    20976775.75849  20976774.012 7  82317373.403 7        41.400
  20389457.516 9 107147329.566 9        51.800                    83491447.94949
        44.700    20389460.72749
  20393369.180 9 107168033.337 9        51.600                    83507454.28549
        48.800    20393369.98049
  24612265.922 7 129338318.660 7        42.600    24612270.027 6 100783121.69747
        26.200    24612269.33247
  24266539.109 7 127521529.253 7        42.500                    99367429.73446
        24.700    24266541.84446
 17  4  8  1 18 30.0000000  0 12G01G32G08G19G28G17G14G03G11G22G31G23
  20166942.000 9 105978009.900 9        55.800    20166949.000 9  82580300.39849
        50.600    20166948.87149  20166945.031 7  79139440.381 7        43.800
  23461375.406 7 123290378.918 7        43.200    23461381.793 7  96070446.69948
        30.400    23461380.97348  23461377.609 3  92067504.318 3        32.400
  23579415.320 7 123910742.453 7        42.700    23579422.633 7  96553825.24448
        30.700    23579421.44948  23579419.113 3  92530739.745 3        32.700
  24734937.000 6 129982965.647 6        38.500                   101285440.19146
        22.800    24734937.83646
  24223093.703 6 127293205.481 6        38.800                    99189525.28146
        21.800    24223096.57846
  23423981.344 8 123093860.584 8        47.600    23423985.609 7  95917302.32349
        34.100    23423985.13349
  22166440.922 8 116485435.064 8        47.300                    90767898.19649
        36.600    22166443.85949
  20967084.656 9 110182791.468 9        53.300    20967091.219 9  85856743.58849
        46.900    20967090.56349  20967088.703 7  82279367.266 7        41.700
  20398394.906 9 107194295.154 9        51.300                    83528044.50749
        44.700    20398397.77349
  20392620.336 9 107164098.160 9        52.900                    83504387.91949
        48.800    20392621.48849
  24598228.328 7 129264553.661 7        41.400    24598232.059 5 100725642.48446
        21.800    24598230.86746
  24246358.773 6 127415480.091 6        40.500                    99284794.01946
        23.000    24246361.29746
 17  4  8  1 19  0.0000000  0 12G01G32G08G19G28G17G14G03G11G22G31G23
  20166970.633 9 105978159.693 9        55.500    20166977.875 9  82580417.11849
        50.800    20166977.56649  20166973.605 7  79139552.235 7        43.100
  23476922.070 7 123372076.790 7        44.100    23476928.664 7  96134107.37048
        30.600    23476927.84048  23476924.066 2  92128512.463 2        31.800
  23600384.375 7 124020933.540 7        41.800    23600391.371 7  96639688.42148
        30.800    23600390.41848  23600387.617 3  92613025.275 3        33.700
  24715060.211 5 129878518.818 5        36.900                   101204053.02746
        21.800    24715061.34046
  24234048.102 6 127350771.035 6        39.100                    99234381.58646
        21.500    24234051.09046
  23408567.891 8 123012863.616 8        47.300    23408571.781 7  95854187.82248
        33.300    23408571.49648
  22173925.703 8 116524769.749 8        47.500                    90798548.61449
        36.700    22173929.14549
  20957467.922 9 110132254.455 9        54.600    20957474.449 9  85817364.10449
        46.900    20957473.75849  20957472.133 6  82241628.593 6        40.900
  20407430.852 9 107241780.147 9        51.100                    83565045.79149
        44.400    20407434.20349
  20391940.617 9 107160525.370 9        53.400                    83501603.92549
        49.000    20391941.68849
  24584240.523 6 129191050.566 6        39.800    24584244.750 5 100668367.33846
        21.700    24584243.57846
  24226195.141 7 127309519.528 7        42.000                    99202227.34746
        24.600    24226197.30546
 17  4  8  1 19 30.0000000  0 12G01G32G08G19G28G17G14G03G11G22G31G23
  20167077.203 9 105978720.419 9        56.700    20167084.309 9  82580854.04849
        50.800    20167084.13349  20167080.234 7  79139970.956 7        43.600
  23492539.367 7 123454146.520 7        43.600    23492545.410 7  96198057.79348
        30.800    23492544.77048  23492540.938 3  92189798.299 3        32.300
  23621381.539 7 124131273.885 7        42.000    23621388.730 7  96725667.87848
        30.400    23621387.87148  23621384.012 3  92695422.260 3        32.600
  24695229.102 5 129774302.790 5        35.800                   101122845.81745
        19.000    24695230.79345
  24245063.836 6 127408660.166 6        39.900                    99279490.00046
        24.000    24245067.65646
  23393220.055 8 122932210.334 8        47.600    23393224.254 7  95791341.09948
        33.500    23393223.95348
  22181509.039 8 116564621.673 8        46.300                    90829602.05349
        36.100    22181512.91449
  20947919.031 9 110082075.684 9        54.600    20947925.840 9  85778263.77049
        46.800    20947924.86349  20947923.121 7  82204157.436 7        41.400
  20416565.602 9 107289783.288 9        51.000                    83602450.82849
        44.500    20416568.74649
  20391329.367 9 107157314.279 9        54.100                    83499101.77749
        48.900    20391330.70349
  24570303.578 6 129117812.284 6        39.900    24570308.520 5 100611298.54846
        22.000    24570306.90646
  24206048.055 6 127203649.854 6        40.400                    99119731.51446
        24.100    24206050.95746
 17  4  8  1 20  0.0000000  0 12G01G32G08G19G28G17G14G03G11G22G31G23
  20167262.297 9 105979692.626 9        54.300    20167269.852 9  82581611.61249
        50.800    20167269.37949  20167265.539 7  79140696.953 7        43.900
  23508226.773 7 123536585.632 7        43.000    23508233.316 7  96262296.06048
        30.400    23508232.59448  23508228.762 2  92251359.970 2        31.900
  23642407.219 7 124241760.843 7        43.800    23642413.941 7  96811761.59548
        30.700    23642413.03948  23642408.945 2  92777928.758 2        31.800
  24675442.797 6 129670320.371 6        39.400                   101041820.54746
        22.000    24675443.94946
  24256140.945 6 127466870.808 6        39.500                    99324848.91246
        22.600    24256145.09046
  23377938.320 8 122851902.988 8        47.400    23377942.230 7  95728763.97448
        33.600    23377941.73848
  22189191.156 8 116604989.347 8        47.000                    90861057.39049
        36.100    22189194.79749
  20938438.414 9 110032255.489 9        54.300    20938445.488 9  85739442.84649
        47.000    20938444.84449  20938443.215 7  82166954.048 7        41.500
  20425798.484 9 107338303.493 9        50.900                    83640258.77649
        44.100    20425801.72349
  20390787.055 9 107154464.125 9        51.600                    83496880.88149
        48.900    20390787.96149
  24556417.945 6 129044842.259 6        39.100    24556422.648 5 100554438.80046
        22.300    24556421.48046
  24185920.531 7 127097873.065 7        42.000                    99037308.07847
        27.000    24185922.85247
 17  4  8  1 20 30.0000000  0 12G01G32G08G19G28G17G14G03G11G22G31G23
  20167525.742 9 105981077.060 9        54.900    20167532.629 9  82582690.38249
        50.700    20167532.43849  20167528.539 7  79141730.777 7        43.300
  23523984.844 7 123619391.671 7        43.600    23523990.195 7  96326820.24947
        29.600    23523989.47747  23523986.523 3  92313195.645 3        32.300
  23663458.234 7 124352392.145 7        43.900    23663465.527 7  96897967.80447
        29.900    23663464.14547  23663461.516 3  92860543.055 3        32.600
  24655699.836 6 129566574.092 6        38.100                   100960979.25846
        22.200    24655701.27746
  24267278.734 6 127525400.671 6        39.200                    99370456.56946
        22.000    24267282.81646
  23362722.922 8 122771944.336 8        47.300    23362726.926 7  95666458.53849
        34.400    23362725.81349
  22196970.781 8 116645871.426 8        46.800                    90892913.55149
        36.000    22196973.68449
  20929026.219 9 109982794.346 9        54.500    20929033.090 9  85700901.70249
        47.200    20929032.23849  20929030.727 7  82130018.794 7        41.400
  20435130.039 9 107387340.133 9        51.000                    83678469.13949
        44.600    20435133.38749
  20390313.438 9 107151975.116 9        52.200                    83494941.40349
        48.900    20390314.49649
  24542584.320 6 128972143.319 6        40.800    24542588.160 5 100497790.24846
        22.900    24542587.27746
  24165809.352 7 126992191.519 7        41.700                    98954958.82247
        26.500    24165811.30547
 17  4  8  1 21  0.0000000  0 12G01G32G08G19G28G17G14G03G11G22G31G23
  20167867.461 9 105982874.251 9        55.700    20167874.813 9  82584090.78749
        50.600    20167874.53549  20167870.520 7  79143072.838 7        43.400
  23539811.305 7 123702562.176 7        43.200    23539817.957 7  96391628.44048
        30.900    23539816.77048  23539813.523 3  92375303.479 3        32.800
  23684538.375 7 124463164.883 7        43.200    23684546.148 7  96984284.23448
        30.100    23684544.84048  23684542.035 3  92943262.931 3        33.500
  24636003.391 5 129463066.822 5        37.600                   100880324.29446
        22.500    24636004.93046
  24278476.938 6 127584246.645 6        39.900                    99416310.54446
        22.000    24278480.06646
  23347574.148 8 122692336.817 8        46.800    23347578.168 7  95604426.70048
        33.600    23347577.41048
  22204848.031 8 116687266.692 8        46.300                    90925169.60949
        35.800    22204851.66849
  20919682.477 9 109933692.556 9        54.000    20919689.402 9  85662640.58249
        46.900    20919688.65649  20919687.086 6  82093351.884 6        40.600
  20444559.594 9 107436892.253 9        51.300                    83717081.17349
        44.700    20444562.62549
  20389908.422 9 107149846.280 9        53.200                    83493282.56849
        48.900    20389909.37549
  24528801.984 6 128899718.667 6        40.200    24528806.441 6 100441355.47146
        23.200    24528805.30946
  24145718.289 7 126886607.608 7        41.800                    98872685.66747
        27.400    24145719.73047
 17  4  8  1 21 30.0000000  0 12G01G32G08G19G28G17G14G03G11G22G31G23
  20168288.445 9 105985084.684 9        56.200    20168295.758 9  82585813.20349
        50.700    20168295.65649  20168291.578 7  79144723.486 7        43.600
  23555707.008 7 123786094.459 7        43.000    23555713.168 7  96456718.52447
        29.700    23555712.49247  23555709.066 3  92437681.481 3        32.200
  23705644.156 7 124574076.691 7        43.900    23705651.559 7  97070709.00448
        30.200    23705650.66848  23705647.512 3  93026086.665 3        32.900
  24616353.602 6 129359801.555 6        38.300                   100799857.85246
        22.800    24616354.16846
  24289734.758 6 127643406.508 6        38.900                    99462409.16245
        19.900    24289736.97745
  23332492.359 9 122613082.694 9        48.100    23332496.395 7  95542670.24549
        35.000    23332495.82849
  22212822.289 8 116729173.520 8        46.300                    90957824.28249
        35.700    22212825.78549
  20910407.148 9 109884950.385 9        54.700    20910414.016 9  85624659.66949
        47.200    20910413.17649  20910411.199 7  82056953.516 7        41.000
  20454086.734 9 107486958.606 9        51.700                    83756093.91149
        44.600    20454089.98449
  20389571.914 9 107148076.713 9        52.100                    83491903.69349
        48.900    20389572.87149
  24515073.195 6 128827571.305 6        40.400    24515077.668 6 100385136.77747
        26.400    24515076.79747
  24125646.102 7 126781122.961 7        41.500                    98790489.84847
        25.300    24125646.81647
 17  4  8  1 22  0.0000000  0 12G01G32G08G19G28G17G14G03G11G22G31G23
  20168787.500 9 105987708.693 9        56.000    20168794.961 9  82587857.88149
        50.800    20168794.65649  20168790.637 7  79146682.971 7        43.800
  23571670.664 7 123869985.805 7        41.700    23571677.160 7  96522088.41248
        30.000    23571676.24248  23571672.703 2  92500327.622 2        31.500
  23726774.844 7 124685125.008 7        43.700    23726782.652 7  97157240.14047
        28.900    23726781.77347  23726778.152 3  93109012.351 3        32.600
  24596747.938 5 129256780.919 5        37.400                   100719582.06446
        21.100    24596750.43446
  24301051.547 6 127702877.296 6        38.800                    99508750.02046
        22.300    24301055.10546
  23317478.758 8 122534184.523 8        47.200    23317482.320 7  95481191.15949
        35.200    23317482.04749
  22220894.172 8 116771589.806 8        46.400                    90990875.93249
        35.600    22220897.30949
  20901200.164 9 109836567.931 9        53.800    20901207.148 9  85586959.06449
        47.200    20901206.35949  20901204.320 7  82020823.769 7        41.300
  20463712.133 9 107537538.000 9        51.400                    83795506.41749
        44.800    20463715.09449
  20389303.336 9 107146666.324 9        53.200                    83490804.68649
        49.100    20389304.28149
  24501396.844 6 128755704.207 6        39.400    24501401.430 6 100329136.46046
        22.800    24501401.37546
  24105589.781 6 126675740.098 6        39.500                    98708373.31246
        24.700    24105593.38346
 17  4  8  1 22 30.0000000  0 12G01G32G08G19G28G17G14G03G11G22G31G23
  20169366.008 9 105990747.197 9        54.100    20169373.199 9  82590225.54649
        50.700    20169372.98049  20169368.961 7  79148951.982 7        43.600
  23587703.031 7 123954234.007 7        41.800    23587708.820 7  96587736.34847
        29.300    23587708.35247  23587704.574 2  92563240.240 2        31.500
  23747933.773 7 124796307.446 7        43.600    23747940.461 7  97243875.82248
        30.500    23747939.03148  23747936.754 3  93192038.184 3        33.500
  24577190.445 6 129154007.928 6        39.000                   100639499.20246
        22.900    24577192.94946
  24312427.469 6 127762657.030 6        39.200                    99555331.59546
        22.500    24312431.98446
  23302533.242 9 122455644.539 9        48.400    23302536.523 7  95419991.18649
        34.600    23302536.27349
  22229062.367 8 116814514.574 8        45.900                    91024323.81449
        35.400    22229065.94949
  20892062.125 9 109788545.849 9        53.000    20892068.523 9  85549539.26749
        47.100    20892067.77749  20892065.977 7  81984963.131 7        41.300
  20473434.523 9 107588630.183 9        51.500                    83835318.50949
        44.400    20473437.43049
  20389103.133 9 107145614.797 9        51.700                    83489985.31849
        49.000    20389104.00449
  24487774.828 6 128684120.620 6        40.100    24487780.016 6 100273357.02846
        22.600    24487778.82046
  24085557.898 7 126570461.554 7        41.000                    98626338.09546
        23.500    24085559.23046
 17  4  8  1 23  0.0000000  0 12G01G32G08G19G28G17G14G03G11G22G31G23
  20170023.188 9 105994200.600 9        56.400    20170030.336 9  82592916.50749
        50.800    20170030.23849  20170026.340 7  79151530.818 7        43.800
  23603801.688 7 124038836.509 7        43.200    23603808.727 7  96653660.37847
        28.600    23603807.59047  23603804.457 1  92626417.423 1        30.900
  23769115.133 7 124907621.195 7        43.000    23769123.121 7  97330613.79748
        31.100    23769122.09848  23769119.176 3  93275162.067 3        33.400
  24557680.484 5 129051485.207 5        36.100                   100559611.33145
        19.900    24557682.47345
  24323861.977 6 127822743.147 6        39.600                    99602151.94546
        21.100    24323865.80946
  23287656.148 9 122377465.711 9        48.300    23287659.523 7  95359072.60949
        35.000    23287658.84449
  22237327.172 8 116857946.354 8        45.600                    91058166.75649
        35.800    22237330.70349
  20882992.297 9 109740884.362 9        54.300    20882999.434 9  85512400.45049
        47.200    20882998.43049  20882996.918 7  81949371.763 7        41.800
  20483254.117 9 107640233.646 9        51.400                    83875528.99249
        44.300    20483257.38349
  20388971.375 9 107144921.359 9        53.500                    83489444.97649
        49.100    20388972.22349
  24474207.781 6 128612823.430 6        40.000    24474211.773 5 100217800.81346
        22.500    24474211.25846
  24065544.539 7 126465289.129 7        41.600                    98544385.56647
        25.000    24065545.27347
 17  4  8  1 23 30.0000000  0 12G01G32G08G19G28G17G14G03G11G22G31G23
  20170759.180 9 105998069.464 9        55.500    20170766.516 9  82595931.20049
        50.800    20170766.45349  20170762.555 7  79154419.892 7        43.500
  23619968.266 7 124123790.598 7        43.200    23619974.160 7  96719858.36447
        29.100    23619973.69947  23619970.215 2  92689857.177 2        31.500
  23790322.383 7 125019063.932 7        42.800    23790329.563 7  97417452.26448
        30.500    23790328.93048  23790325.305 2  93358382.279 2        31.500
  24538220.547 5 128949215.718 5        37.900                   100479920.89346
        21.300    24538222.50846
  24335353.016 5 127883132.495 5        36.900                    99649208.55745
        17.800    24335356.14145
  23272848.148 8 122299650.080 8        47.300    23272852.273 7  95298437.06349
        35.000    23272851.74249
  22245688.102 8 116901883.337 8        45.700                    91092403.36249
        36.600    22245691.27749
  20873991.203 9 109693583.751 9        53.800    20873998.148 9  85475542.83549
        47.300    20873997.14849  20873995.520 7  81914049.890 7        41.500
  20493170.930 9 107692347.214 9        51.900                    83916136.96049
        44.400    20493174.28549
  20388907.273 9 107144585.311 9        54.600                    83489183.12549
        49.100    20388908.30549
  24460695.391 6 128541815.919 6        39.900    24460699.227 5 100162470.26746
        22.600    24460698.75846
  24045551.508 7 126360225.094 7        42.800                    98462517.52047
        27.300    24045552.39147
 17  4  8  1 24  0.0000000  0 12G01G32G08G19G28G17G14G03G11G22G31G23
  20171574.570 9 106002354.308 9        56.200    20171581.691 9  82599270.03849
        50.700    20171581.33249  20171577.434 7  79157619.613 7        43.400
  23636201.078 7 124209093.835 7        43.000    23636207.457 7  96786328.41347
        29.300    23636206.62947  23636203.031 1  92753557.637 1        30.800
  23811552.977 7 125130632.947 7        41.900    23811560.234 7  97504389.16747
        29.800    23811559.02047  23811555.805 2  93441696.833 2        31.600
  24518806.805 5 128847202.156 5        37.100                   100400429.82246
        22.600    24518810.36746
  24346901.648 6 127943823.091 6        38.700                    99696499.92046
        20.600    24346905.14146
  23258109.570 9 122222200.093 9        48.200    23258114.266 7  95238086.43149
        34.900    23258113.59449
  22254144.734 8 116946323.760 8        45.800                    91127032.27449
        34.900    22254148.67249
  20865059.117 9 109646644.324 9        54.400    20865066.094 9  85438966.66749
        47.300    20865065.11749  20865063.551 7  81878997.724 7        41.500
  20503184.641 9 107744970.162 9        51.900                    83957141.85049
        44.300    20503188.07049
  20388911.352 9 107144606.593 9        54.500                    83489199.71749
        49.100    20388912.32049
  24447238.047 6 128471101.145 6        40.600    24447242.738 5 100107367.83646
        22.000    24447241.83646
  24025578.641 7 126255271.847 7        42.200                    98380735.76747
        26.600    24025581.05147
 17  4  8  1 24 30.0000000  0 12G01G32G08G19G28G17G14G03G11G22G31G23
  20172469.242 9 106007055.336 9        56.400    20172476.477 9  82602933.17149
        50.600    20172476.12949  20172472.406 7  79161130.117 7        44.000
  23652499.797 7 124294743.376 7        43.200    23652505.852 6  96853068.31047
        29.000    23652504.97347  23652501.258 1  92817516.712 1        30.800
  23832807.391 7 125242325.339 7        42.000    23832815.250 7  97591422.21248
        30.700    23832813.70348  23832810.605 3  93525103.495 3        32.500
  24499445.234 6 128745447.307 6        38.700                   100321140.30346
        23.000    24499445.25046
  24358507.273 6 128004811.708 6        38.800                    99744023.50446
        20.400    24358511.63346
  23243441.688 8 122145118.480 8        47.800    23243445.715 7  95178022.83749
        34.600    23243444.46149
  22262696.570 8 116991265.875 8        45.700                    91162052.11049
        34.800    22262700.35549
  20856195.430 9 109600066.065 9        53.400    20856202.102 9  85402671.91649
        47.000    20856201.08249  20856199.457 7  81844215.259 7        41.400
  20513295.453 9 107798101.182 9        51.300                    83998542.64049
        44.100    20513298.50449
  20388983.320 9 107144983.977 9        55.100                    83489493.78549
        49.100    20388984.34049
  24433838.719 6 128400682.022 6        40.000    24433843.398 6 100052495.76946
        22.600    24433842.20746
  24005628.938 7 126150431.461 7        42.400                    98299041.97747
        26.700    24005629.84847
 17  4  8  1 25  0.0000000  0 12G01G32G08G19G28G17G14G03G11G22G31G23
  20173443.219 9 106012173.311 9        54.100    20173450.086 9  82606921.20849
        50.700    20173449.80949  20173445.672 7  79164951.983 7        43.800
  23668863.398 7 124380736.839 7        42.700    23668869.324 6  96920076.21847
        28.500    23668868.75847  23668865.449 2  92881732.628 2        31.200
  23854085.445 7 125354138.925 7        42.100    23854092.766 7  97678549.65247
        28.900    23854091.44547  23854088.113 3  93608600.629 3        33.200
  24480130.016 5 128643953.995 5        36.600                   100242054.64046
        21.300    24480131.22346
  24370169.633 6 128066096.092 6        38.000                    99791777.53346
        20.100    24370173.55546
  23228843.883 8 122068407.451 8        47.700    23228848.156 7  95118248.00849
        34.100    23228847.93449
  22271344.219 8 117036708.644 8        45.800                    91197462.04949
        35.200    22271348.07849
  20847401.094 9 109553849.478 9        54.500    20847407.469 9  85366659.00449
        47.700    20847406.82449  20847405.195 7  81809702.881 7        41.600
  20523502.805 9 107851739.114 9        52.100                    84040338.42349
        44.400    20523505.76649
  20389122.758 9 107145717.103 9        51.900                    83490065.05149
        49.100    20389123.69949
  24420494.930 6 128330561.520 6        40.400    24420500.168 6  99997856.45246
        23.200    24420499.12546
  23985699.414 7 126045706.335 7        41.800                    98217437.98047
        26.700    23985702.12547
 17  4  8  1 25 30.0000000  0 12G01G32G08G19G28G17G14G03G11G22G31G23
  20174496.727 9 106017708.680 9        55.800    20174503.637 9  82611234.47849
        50.800    20174503.47749  20174499.578 7  79169085.536 7        43.600
  23685292.664 7 124467071.600 7        42.500    23685299.656 7  96987350.05647
        28.900    23685298.70747  23685295.633 2  92946203.377 2        31.800
  23875384.688 7 125466071.271 7        41.800    23875392.309 7  97765769.66147
        28.500    23875391.28547  23875387.484 2  93692186.475 2        31.400
  24460867.844 6 128542725.023 6        38.400                   100163174.95146
        23.200    24460869.82046
  24381886.766 5 128127673.434 5        37.800                    99839759.80945
        19.900    24381892.22745
  23214317.211 8 121992069.123 8        47.200    23214321.434 7  95058763.59849
        34.500    23214320.96549
  22280087.148 8 117082650.260 8        46.400                    91233260.72149
        35.900    22280090.39849
  20838674.883 9 109507994.777 9        53.900    20838681.898 9  85330928.07549
        47.700    20838681.05949  20838679.316 7  81775460.741 7        41.400
  20533805.570 9 107905882.810 9        51.800                    84082528.31149
        44.600    20533808.77049
  20389329.820 9 107146805.506 9        51.800                    83490913.16549
        48.900    20389330.75449
  24407208.453 6 128260742.739 6        39.300    24407213.906 6  99943452.24046
        22.300    24407213.00446
  23965794.336 7 125941098.417 7        42.100                    98135925.31547
        25.300    23965795.58647
 17  4  8  1 26  0.0000000  0 12G01G32G08G19G28G17G14G03G11G22G31G23
  20175629.430 9 106023661.913 9        55.400    20175636.309 9  82615873.35549
        50.700    20175635.98449  20175632.086 7  79173531.127 7        43.400
  23701785.555 7 124553745.206 7        42.200    23701792.734 7  97054887.91047
        28.200    23701792.21147  23701788.438 2  93010927.148 2        31.400
  23896707.242 7 125578119.784 7        41.600    23896714.641 7  97853080.20347
        29.200    23896713.52347  23896710.840 3  93775859.061 3        33.000
  24441655.789 6 128441763.513 6        39.100                   100084503.67546
        23.500    24441657.75446
  24393660.742 6 128189541.494 6        39.800                    99887968.71545
        18.600    24393661.95745
  23199861.938 8 121916106.448 8        47.900    23199865.871 7  94999571.90349
        34.600    23199865.12549
  22288923.773 8 117129088.974 8        46.000                    91269446.73249
        35.700    22288927.39549
  20830017.797 9 109462502.262 9        54.000    20830024.672 9  85295479.36149
        47.400    20830023.64849  20830022.082 7  81741489.058 7        41.400
  20544205.063 9 107960531.362 9        52.200                    84125111.59149
        44.300    20544207.90249
  20389604.430 9 107148248.704 9        54.000                    83492037.73549
        49.100    20389605.44949
  24393980.164 6 128191228.836 6        40.800    24393984.809 6  99889285.56946
        22.800    24393984.14146
  23945909.156 6 125836610.019 6        40.800                    98054505.81247
        27.700    23945912.28547
 17  4  8  1 26 30.0000000  0 12G01G32G08G19G28G17G14G03G11G22G31G23
  20176841.867 9 106030033.311 9        56.900    20176848.605 9  82620838.07849
        50.800    20176848.49249  20176844.297 7  79178288.986 7        43.500
  23718343.469 7 124640754.765 7        42.600    23718349.316 6  97122687.55747
        27.900    23718348.73447  23718345.371 1  93075901.817 1        30.800
  23918050.750 7 125690281.343 7        41.400    23918058.148 7  97940478.82247
        29.600    23918057.22347  23918054.480 3  93859616.050 3        32.500
  24422494.141 6 128341071.919 6        38.800                   100006042.68146
        24.300    24422496.99246
  24405488.484 6 128251696.988 6        39.300                    99936401.56645
        19.300    24405492.02345
  23185478.641 8 121840521.913 8        47.500    23185482.594 7  94940674.85249
        35.000    23185482.22749
  22297855.219 8 117176022.827 8        45.700                    91306018.57449
        35.400    22297858.82449
  20821430.117 9 109417371.924 9        53.800    20821436.934 9  85260312.87249
        47.400    20821435.71949  20821434.504 7  81707787.839 7        41.700
  20554699.922 9 108015683.307 9        52.100                    84168087.13249
        44.100    20554703.11349
  20389946.422 9 107150045.441 9        54.100                    83493437.79349
        49.000    20389947.13349
  24380812.125 7 128122022.592 7        42.600    24380815.473 5  99835358.64546
        22.900    24380814.63346
  23926049.805 7 125732243.153 7        41.500                    97973180.98547
        26.400    23926051.55947
 17  4  8  1 27  0.0000000  0 12G01G32G08G19G28G17G14G03G11G22G31G23
  20178134.117 9 106036823.651 9        57.600    20178140.996 9  82626129.24849
        50.800    20178140.71549  20178136.816 7  79183359.693 7        43.600
  23734964.375 7 124728098.040 7        42.400    23734970.043 6  97190747.25447
        27.800    23734969.14547  23734966.133 1  93141125.694 1        30.500
  23939415.219 7 125802554.052 7        42.300    23939422.660 7  98027964.03447
        29.700    23939421.49647  23939418.750 3  93943456.052 3        32.300
  24403386.031 6 128240653.231 6        38.700                    99927794.39146
        23.600    24403387.05146
  24417370.477 5 128314137.996 5        37.800                    99985056.92245
        19.000    24417373.68445
  23171167.750 9 121765317.727 9        48.400    23171171.699 7  94882074.18949
        35.700    23171171.54749
  22306879.898 8 117223450.385 8        45.500                    91342975.11149
        35.100    22306883.78949
  20812910.750 9 109372604.341 9        54.100    20812918.055 9  85225429.04849
        47.600    20812916.94949  20812915.324 7  81674357.514 7        41.600
  20565290.570 9 108071337.699 9        51.400                    84211454.18349
        44.200    20565293.77349
  20390355.688 9 107152196.418 9        53.900                    83495113.88649
        49.100    20390356.57049
  24367701.367 6 128053127.212 6        40.800    24367705.168 5  99781673.91746
        22.300    24367703.71946
  23906212.773 7 125628000.439 7        43.200                    97891952.91547
        26.800    23906214.11747
 17  4  8  1 27 30.0000000  0 12G01G32G08G19G28G17G14G03G11G22G31G23
  20179505.867 9 106044033.273 9        56.800    20179512.832 9  82631747.13649
        50.800    20179512.64149  20179508.738 7  79188743.502 7        43.500
  23751648.156 7 124815772.352 7        42.500    23751654.457 7  97259064.92747
        28.400    23751653.63747  23751650.449 1  93206596.781 1        30.900
  23960801.516 7 125914935.071 7        43.800    23960808.273 7  98115533.65047
        28.100    23960806.61747  23960803.641 2  94027376.931 2        31.300
  24384329.047 6 128140510.207 6        40.500                    99849760.85147
        25.500    24384329.98847
  24429306.375 6 128376861.473 6        39.800                   100033932.30746
        20.400    24429310.93846
  23156930.008 9 121690495.994 9        48.000    23156933.676 7  94823771.53949
        35.600    23156932.94949
  22315999.484 8 117271369.991 8        45.800                    91380315.06049
        35.200    22316002.80549
  20804461.094 9 109328199.662 9        54.100    20804467.563 9  85190828.00849
        47.800    20804467.14849  20804465.227 7  81641198.179 7        42.200
  20575976.672 9 108127493.514 9        52.700                    84255211.95449
        44.200    20575979.72349
  20390832.344 9 107154700.478 9        54.900                    83497065.10449
        49.100    20390833.48449
  24354649.547 7 127984545.932 7        41.300    24354654.945 6  99728233.94646
        22.600    24354653.55546
  23886400.094 7 125523883.923 7        43.300                    97810823.16947
        27.600    23886402.19547
 17  4  8  1 28  0.0000000  0 12G01G32G08G19G28G17G14G03G11G22G31G23
  20180957.727 9 106051662.622 9        57.600    20180964.906 9  82637692.07649
        50.900    20180964.60949  20180960.594 7  79194440.738 7        43.900
  23768394.367 7 124903775.096 7        41.500    23768400.836 7  97327638.48247
        28.000    23768400.14847  23768397.137 2  93272313.100 2        31.300
  23982206.266 7 126027421.723 7        43.700    23982214.363 7  98203185.60548
        30.000    23982212.96548  23982209.340 2  94111376.724 2        31.200
  24365322.914 5 128040645.856 5        35.400                    99771944.49346
        22.000    24365326.85546
  24441296.172 6 128439864.989 6        39.200                   100083025.88145
        18.600    24441298.94545
  23142765.023 8 121616059.000 8        47.300    23142769.160 7  94765768.69649
        35.100    23142768.50849
  22325211.250 8 117319780.046 8        45.800                    91418037.17749
        35.200    22325214.53549
  20796079.703 9 109284158.065 9        54.100    20796086.879 9  85156509.88949
        47.500    20796086.08649  20796084.402 7  81608309.984 7        42.000
  20586757.914 9 108184149.560 9        51.800                    84299359.51649
        44.000    20586761.25049
  20391375.742 9 107157556.922 9        53.400                    83499290.90449
        49.000    20391376.64549
  24341660.398 7 127916281.438 7        42.300    24341664.246 6  99675040.86946
        22.900    24341663.88346
  23866611.750 7 125419895.740 7        44.300                    97729793.41547
        28.700    23866614.34847
 17  4  8  1 28 30.0000000  0 12G01G32G08G19G28G17G14G03G11G22G31G23
  20182489.523 9 106059712.070 9        55.900    20182496.234 9  82643964.37349
        50.600    20182495.91849  20182491.902 7  79200451.680 7        43.500
  23785203.164 7 124992103.617 7        42.900    23785208.906 7  97396465.87447
        26.700    23785208.30947  23785205.234 2  93338272.687 2        31.300
  24003631.344 7 126140011.444 7        43.200    24003639.297 7  98290917.83747
        28.900    24003638.27047  24003634.879 1  94195453.468 1        30.900
  24346374.164 5 127941062.654 5        37.400                    99694347.24246
        24.300    24346378.02346
  24453338.398 6 128503145.920 6        40.500                   100132335.70346
        21.100    24453340.67246
  23128673.984 9 121542009.635 9        48.700    23128677.801 7  94708067.87949
        35.400    23128677.41049
  22334516.609 8 117368678.466 8        45.800                    91456139.85749
        35.200    22334519.43849
  20787768.289 9 109240479.697 9        54.000    20787775.023 9  85122474.79949
        47.500    20787774.15249  20787773.055 7  81575693.032 7        41.900
  20597634.258 9 108241304.227 9        52.500                    84343895.61549
        44.400    20597637.42249
  20391986.000 9 107160765.023 9        53.000                    83501790.72649
        48.800    20391987.40249
  24328730.805 7 127848336.691 7        41.100    24328735.602 6  99622096.92346
        24.800    24328734.80546
  23846847.984 7 125316038.193 7        42.700                    97648865.45547
        28.000    23846850.28147
 17  4  8  1 29  0.0000000  0 12G01G32G08G19G28G17G14G03G11G22G31G23
  20184101.219 9 106068182.045 9        56.500    20184108.504 9  82650564.34849
        50.800    20184108.21949  20184104.145 7  79206776.666 7        43.600
  23802072.539 7 125080755.305 7        42.800    23802078.836 6  97465545.12747
        27.400    23802078.06647  23802074.992 1  93404473.626 1        30.500
  24025075.922 7 126252702.062 7        43.900    24025082.953 7  98378728.69648
        30.100    24025082.01248  24025079.383 3  94279605.527 3        32.300
  24327479.313 5 127841763.957 5        36.800                    99616971.62946
        22.300    24327480.59046
  24465432.047 6 128566700.986 6        40.800                   100181859.16645
        18.600    24465434.25445
  23114657.047 9 121468350.139 9        49.200    23114660.578 7  94650670.88049
        35.700    23114660.25849
  22343914.117 8 117418063.729 8        46.100                    91494621.88849
        35.200    22343917.73449
  20779525.969 9 109197164.807 9        55.500    20779532.523 9  85088722.93449
        48.000    20779531.62549  20779530.113 7  81543347.495 7        41.400
  20608605.344 9 108298956.607 9        52.600                    84388819.54449
        44.300    20608608.35949
  20392663.195 9 107164324.352 9        54.600                    83504564.23649
        49.100    20392664.37949
  24315862.258 6 127780714.754 6        40.600    24315867.113 6  99569404.49446
        22.300    24315866.29346
  23827110.945 7 125212313.313 7        44.000                    97568040.89247
        28.600    23827112.71947
 17  4  8  1 29 30.0000000  0 12G01G32G08G19G28G17G14G03G11G22G31G23
  20185793.266 9 106077073.136 9        57.100    20185800.324 9  82657492.47049
        50.600    20185800.02349  20185796.242 7  79213416.111 7        43.500
  23819003.445 7 125169727.762 7        43.000    23819009.797 6  97534874.31747
        27.400    23819008.83647  23819005.234 1  93470914.101 1        29.900
  24046538.469 7 126365490.879 7        42.900    24046546.063 7  98466616.09147
        28.400    24046545.24647  24046541.914 2  94363830.953 2        31.500
  24308637.617 6 127742752.082 6        38.400                    99539819.54346
        22.200    24308638.49646
  24477577.742 6 128630528.207 6        38.900                   100231594.66545
        17.800    24477580.47345
  23100715.023 9 121395082.782 9        49.100    23100719.047 7  94593579.43749
        35.600    23100718.16049
  22353404.078 8 117467934.144 8        45.500                    91533481.94749
        35.000    22353407.53149
  20771352.438 9 109154213.707 9        55.000    20771359.254 9  85055254.55249
        47.800    20771358.28149  20771356.305 7  81511273.627 7        41.600
  20619670.305 9 108357105.271 9        52.300                    84434130.17649
        44.000    20619673.69949
  20393407.602 9 107168234.509 9        55.500                    83507611.11049
        48.800    20393408.44549
  24303056.414 6 127713418.802 6        40.900    24303061.020 5  99516966.13246
        22.800    24303059.55546
  23807397.742 7 125108723.376 7        43.200                    97487321.47547
        29.100    23807399.38747
 17  4  8  1 30  0.0000000  0 12G01G32G08G19G28G17G14G03G11G22G31G23
  20187565.234 9 106086385.599 9        56.600    20187572.664 9  82664748.93149
        50.800    20187572.44149  20187568.484 7  79220370.220 7        43.500
  23835995.086 7 125259018.191 7        43.100    23836001.430 6  97604451.26347
        26.500    23836000.42647  23835997.121 1  93537592.015 1        30.400
  24068020.086 7 126478375.149 7        43.700    24068027.000 6  98554577.84947
        28.200    24068026.30147  24068023.320 3  94448127.645 3        32.700
  24289851.477 6 127644030.275 6        38.700                    99462893.43846
        22.600    24289853.62546
  24489774.852 6 128694624.583 6        38.100                   100281539.84445
        19.600    24489778.85245
  23086847.484 9 121322209.955 9        49.300    23086851.063 7  94536795.42749
        35.100    23086850.43049
  22362986.227 8 117518287.826 8        45.700                    91572718.58449
        35.800    22362989.27349
  20763248.523 9 109111626.456 9        55.000    20763255.148 9  85022069.69449
        48.000    20763254.44549  20763252.582 7  81479471.470 7        42.100
  20630830.180 9 108415749.136 9        51.900                    84479826.68649
        44.000    20630832.85549
  20394218.383 9 107172494.617 9        54.500                    83510930.67549
        49.000    20394219.52749
  24290313.266 7 127646451.582 7        41.900    24290317.605 6  99464783.86546
        22.800    24290316.14546
  23787711.320 7 125005270.349 7        43.200                    97406708.73847
        27.800    23787712.61747
 17  4  8  1 30 30.0000000  0 12G01G32G08G19G28G17G14G03G11G22G31G23
  20189417.938 9 106096119.945 9        56.800    20189425.316 9  82672334.13249
        50.800    20189424.89849  20189421.234 7  79227639.376 7        43.600
  23853046.719 7 125348624.128 7        43.200    23853053.141 7  97674274.07547
        27.700    23853052.28147  23853049.035 2  93604505.523 2        31.100
  24089519.445 7 126591352.383 7        44.100    24089526.977 7  98642612.06147
        29.900    24089525.81347  24089523.008 3  94532493.752 3        32.700
  24271120.797 5 127545600.928 5        37.800                    99386195.24247
        25.100    24271123.59847
  24502023.422 6 128758987.579 6        39.900                   100331692.73746
        24.100    24502028.03146
  23073056.008 9 121249734.195 9        48.900    23073060.457 7  94480320.80449
        35.900    23073059.73449
  22372659.578 8 117569123.116 8        45.200                    91612330.49649
        34.900    22372663.02349
  20755213.656 9 109069403.352 9        54.800    20755220.402 9  84989168.58149
        48.000    20755219.61749  20755217.934 7  81447941.237 7        42.100
  20642083.516 9 108474887.191 9        51.800                    84525908.28549
        44.200    20642087.02349
  20395095.336 9 107177104.107 9        53.900                    83514522.48949
        49.100    20395096.23849
  24277632.695 7 127579816.134 7        42.000    24277636.559 5  99412860.13646
        22.600    24277635.90246
  23768051.578 7 124901956.928 7        42.700                    97326204.78547
        27.900    23768053.47747
 17  4  8  1 31  0.0000000  0 12G01G32G08G19G28G17G14G03G11G22G31G23
  20191350.531 9 106106276.545 9        56.800    20191357.777 9  82680248.36249
        50.700    20191357.22749  20191353.500 7  79235223.843 7        43.400
  23870157.508 7 125438542.891 7        42.500    23870163.953 7  97744340.61147
        27.700    23870163.23447  23870159.809 2  93671652.634 2        31.200
  24111034.383 7 126704419.991 7        43.100    24111041.910 7  98730716.69747
        28.800    24111040.79747  24111038.523 2  94616927.330 2        31.900
  24252446.695 6 127447467.042 6        38.100                    99309727.30346
        23.600    24252447.87946
  24514321.500 6 128823614.202 6        40.100                   100382051.17545
        18.600    24514324.85545
  23059340.258 9 121177658.221 9        48.800    23059344.340 7  94424157.69649
        34.900    23059343.59449
  22382424.430 8 117620438.029 8        45.500                    91652316.13749
        35.000    22382427.76649
  20747248.445 9 109027544.536 9        54.600    20747254.492 9  84956551.32649
        48.200    20747253.45749  20747252.008 7  81416683.041 7        41.900
  20653430.547 9 108534517.599 9        52.400                    84572373.54049
        43.700    20653433.91449
  20396039.016 9 107182062.506 9        53.900                    83518386.18049
        49.000    20396039.96949
  24265016.156 7 127513515.456 7        41.500    24265019.969 5  99361197.28646
        22.500    24265019.40646
  23748418.125 7 124798784.937 7        43.200                    97245811.05047
        29.000    23748419.79747
 17  4  8  1 31 30.0000000  0 12G01G32G08G19G28G17G14G03G11G22G31G23
  20193363.602 9 106116855.672 9        56.300    20193370.680 9  82688491.83649
        50.700    20193370.21549  20193366.609 7  79243123.838 7        43.500
  23887327.875 7 125528771.811 7        42.900    23887333.797 6  97814648.85347
        26.400    23887332.52747  23887329.570 1  93739031.384 1        29.700
  24132567.758 7 126817575.350 7        43.200    24132574.758 7  98818889.70947
        28.900    24132573.70747  24132570.375 2  94701426.483 2        31.200
  24233830.602 6 127349631.560 6        40.100                    99233491.88346
        24.300    24233830.92246
  24526667.570 6 128888502.009 6        38.700                   100432613.14145
        16.900    24526671.25045
  23045700.586 8 121105983.669 8        47.900    23045704.918 7  94368307.39549
        36.300    23045704.00849
  22392280.156 8 117672230.826 8        46.100                    91692674.16749
        35.000    22392284.07449
  20739351.914 9 108986050.068 9        55.000    20739358.633 9  84924217.97049
        48.000    20739357.85549  20739356.168 7  81385696.908 7        42.000
  20664871.492 9 108594639.275 9        52.300                    84619221.59449
        43.900    20664874.91849
  20397048.602 9 107187368.889 9        54.500                    83522521.02249
        49.000    20397049.57849
  24252463.469 7 127447552.314 7        41.100    24252468.059 5  99309797.42846
        22.900    24252467.05146
  23728811.602 7 124695756.553 7        42.700                    97165529.16547
        28.800    23728813.81647
 17  4  8  1 32  0.0000000  0 12G01G32G08G19G28G17G14G03G11G22G31G23
  20195457.266 9 106127857.912 9        56.600    20195464.258 9  82697065.00449
        50.800    20195463.91849  20195460.078 7  79251339.794 7        43.600
  23904555.961 7 125619308.482 7        43.800    23904562.215 6  97885196.93647
        27.100    23904561.34047  23904558.500 1  93806639.945 1        29.900
  24154117.000 7 126930816.045 7        42.100    24154124.461 7  98907129.22247
        29.200    24154123.39847  24154119.719 2  94785989.348 2        31.200
  24215268.742 6 127252097.307 6        39.100                    99157491.14846
        22.300    24215269.78946
  24539065.508 5 128953648.300 5        37.900                   100483376.47045
        16.900    24539067.89145
  23032138.398 9 121034713.141 9        48.900    23032142.875 7  94312771.92149
        36.200    23032142.28149
  22402226.766 8 117724499.736 8        45.700                    91733403.18949
        34.700    22402230.23849
  20731525.375 9 108944920.332 9        54.600    20731532.117 9  84892168.83949
        48.000    20731531.22749  20731529.602 7  81354983.152 7        42.100
  20676405.625 9 108655250.941 9        52.400                    84666451.45849
        43.800    20676408.83649
  20398124.484 9 107193022.957 9        54.100                    83526926.79549
        48.900    20398125.76249
  24239976.547 6 127381929.736 6        40.900    24239981.414 6  99258662.97447
        25.600    24239980.96547
  23709234.656 7 124592874.076 7        43.400                    97085361.03247
        29.300    23709236.61347
 17  4  8  1 32 30.0000000  0 12G01G32G08G19G28G17G14G03G11G22G31G23
  20197631.477 9 106139283.642 9        57.000    20197638.590 9  82705968.17749
        50.700    20197638.07449  20197634.293 7  79259871.994 7        43.400
  23921842.305 7 125710150.318 7        43.400    23921849.441 6  97955982.77447
        27.000    23921848.43047  23921844.770 1  93874476.383 1        30.600
  24175682.133 7 127044139.507 7        41.800    24175688.898 7  98995433.18147
        29.000    24175688.23047  24175684.840 3  94870613.980 3        32.700
  24196766.563 6 127154867.102 6        38.700                    99081727.33046
        23.400    24196768.23846
  24551512.305 6 129019050.179 6        39.400                   100534338.94846
        20.400    24551514.85246
  23018653.219 9 120963849.232 9        49.200    23018657.602 7  94257553.28449
        36.000    23018657.32449
  22412263.391 8 117777242.982 8        45.600                    91774501.82049
        34.600    22412266.70349
  20723767.922 9 108904155.508 9        54.500    20723774.898 9  84860404.04749
        48.300    20723774.23049  20723772.371 7  81324541.902 7        41.300
  20688032.586 9 108716351.699 9        52.300                    84714062.42949
        43.600    20688035.63749
  20399266.766 9 107199024.235 9        54.100                    83531603.11749
        48.800    20399267.61749
  24227553.672 7 127316650.854 7        42.300    24227558.680 6  99207796.29946
        24.700    24227558.33646
  23689684.875 7 124490139.736 7        43.000                    97005308.30047
        29.200    23689686.50847
 17  4  8  1 33  0.0000000  0 12G01G32G08G19G28G17G14G03G11G22G31G23
  20199886.336 9 106151133.172 9        57.300    20199893.625 9  82715201.56849
        50.700    20199893.36349  20199889.348 7  79268720.656 7        43.500
  23939186.484 7 125801294.623 7        42.400    23939193.453 7  98027004.29647
        25.800    23939192.69947  23939189.688 1  93942538.671 1        30.300
  24197260.594 7 127157543.234 7        41.100    24197268.039 7  99083799.72347
        27.300    24197267.08247  24197263.871 2  94955298.571 2        31.100
  24178323.094 6 127057943.970 6        39.300                    99006202.80846
        24.500    24178323.98046
  24564005.680 5 129084704.936 5        37.900                   100585498.46546
        20.400    24564009.15646
  23005245.734 9 120893393.967 9        48.500    23005250.691 7  94202653.08549
        36.300    23005249.85549
  22422390.125 8 117830458.659 8        46.600                    91815968.58949
        34.700    22422393.47349
  20716080.313 9 108863755.645 9        55.100    20716086.895 9  84828923.63749
        48.300    20716086.03149  20716084.285 7  81294373.172 7        41.400
  20699752.859 9 108777939.672 9        51.800                    84762053.05249
        43.900    20699755.68449
  20400474.609 9 107205372.057 9        54.100                    83536549.47849
        48.800    20400475.52349
  24215197.711 7 127251718.405 7        42.200    24215202.449 5  99157199.61446
        21.800    24215200.32446
  23670163.953 7 124387555.722 7        43.800                    96925372.71847
        29.900    23670166.44947
 17  4  8  1 33 30.0000000  0 12G01G32G08G19G28G17G14G03G11G22G31G23
  20202221.852 9 106163406.847 9        56.200    20202229.352 9  82724765.46649
        50.700    20202228.97749  20202224.902 7  79277886.064 7        43.300
  23956587.977 7 125892738.781 7        43.300    23956594.168 6  98098259.47347
        25.800    23956593.37947  23956590.367 1  94010824.864 1        30.100
  24218856.070 6 127271024.895 6        40.400    24218863.984 7  99172227.00247
        27.000    24218862.56647  24218858.121 1  95040041.397 1        29.400
  24159937.695 6 126961330.287 6        38.600                    98930919.43846
        22.500    24159939.37946
  24576546.063 5 129150610.083 5        37.600                   100636853.10845
        18.300    24576549.92245
  22991916.625 9 120823349.752 9        50.000    22991921.590 7  94148073.17549
        36.100    22991920.96549
  22432606.336 8 117884144.786 8        45.700                    91857801.93849
        35.000    22432609.66449
  20708461.898 9 108823720.914 9        54.700    20708468.559 9  84797727.75049
        48.200    20708467.63349  20708466.125 7  81264477.113 7        41.800
  20711564.625 9 108840013.678 9        52.100                    84810422.40349
        43.400    20711567.93049
  20401748.211 9 107212065.630 9        54.200                    83541765.24649
        48.900    20401748.98449
  24202908.125 7 127187135.256 7        42.600    24202912.516 5  99106875.08846
        24.600    24202910.94946
  23650672.008 7 124285124.255 7        43.600                    96845556.00447
        29.600    23650673.86347
 17  4  8  1 34  0.0000000  0 12G01G32G08G19G28G17G14G03G11G22G31G23
  20204638.414 9 106176104.817 9        56.600    20204645.707 9  82734659.98849
        50.700    20204645.23449  20204641.395 7  79287368.307 7        43.900
  23974045.719 7 125984479.977 7        43.000    23974051.555 6  98169746.15047
        26.100    23974050.67247  23974047.832 1  94079332.914 1        30.600
  24240466.172 7 127384581.738 7        42.100    24240473.285 7  99260712.83848
        30.000    24240472.40248  24240469.012 3  95124840.346 3        32.400
  24141612.875 6 126865029.090 6        38.700                    98855879.52346
        22.900    24141614.27746
  24589133.961 5 129216762.72315        36.800                   100688400.59255
        18.300    24589138.13745
  22978667.602 9 120753718.581 9        49.800    22978671.688 7  94093815.13349
        36.300    22978670.75849
  22442911.523 8 117938299.546 8        46.800                    91900000.44849
        34.500    22442915.17249
  20700912.875 9 108784051.239 9        54.800    20700919.840 9  84766816.31749
        48.400    20700918.94949  20700917.320 7  81234853.661 7        41.600
  20723469.461 9 108902572.363 9        51.400                    84859169.42949
        43.600    20723472.39549
  20403087.797 9 107219104.127 9        53.400                    83547249.79049
        48.900    20403088.57049
  24190685.016 7 127122904.196 7        42.400    24190689.914 6  99056824.91046
        24.500    24190688.95746
  23631209.180 7 124182847.394 7        43.300                    96765859.76647
        28.800    23631210.73047
 17  4  8  1 34 30.0000000  0 12G01G32G08G19G28G17G14G03G11G22G31G23
  20207135.594 9 106189227.610 9        56.800    20207142.926 9  82744885.53249
        50.600    20207142.64549  20207138.570 7  79297167.797 7        43.700
  23991559.891 7 126076515.820 7        42.200    23991565.809 7  98241462.40347
        27.000    23991565.40647  23991561.926 2  94148061.004 2        31.000
  24262088.383 7 127498211.006 7        41.300    24262095.480 7  99349255.09947
        27.200    24262094.37147  24262091.977 2  95209693.333 2        31.900
  24123346.336 5 126769043.262 5        36.500                    98781085.36647
        25.400    24123348.35947
  24601769.414 6 129283159.843 6        38.300                   100740138.62345
        17.800    24601772.67245
  22965496.078 9 120684503.110 9        49.300    22965500.090 7  94039880.99449
        36.900    22965500.01249
  22453305.531 8 117992920.929 8        45.700                    91942562.56949
        34.300    22453309.02049
  20693433.641 9 108744746.974 9        55.500    20693440.258 9  84736189.63049
        48.800    20693439.62149  20693437.527 7  81205503.087 7        41.700
  20735465.570 9 108965613.873 9        51.100                    84908292.67049
        43.400    20735468.95749
  20404492.555 9 107226486.704 9        54.200                    83553002.45049
        48.800    20404493.75449
  24178529.922 7 127059028.276 7        42.000    24178534.641 5  99007051.47646
        22.500    24178533.85546
  23611776.961 7 124080727.295 7        43.700                    96686285.66948
        30.200    23611777.85248
 17  4  8  1 35  0.0000000  0 12G01G32G08G19G28G17G14G03G11G22G31G23
  20209713.539 9 106202775.612 9        56.700    20209720.824 9  82755442.41549
        50.700    20209720.35549  20209716.570 7  79307284.806 7        43.900
  24009128.961 7 126168843.763 7        41.600    24009135.570 7  98313406.23747
        28.100    24009135.11747  24009131.340 1  94217007.189 1        30.700
  24283724.875 7 127611910.294 7        41.300    24283730.957 6  99437851.99547
        25.200    24283729.23447  24283726.664 1  95294598.648 1        28.500
  24105142.344 6 126673375.525 6        39.000                    98706539.08447
        25.600    24105143.41847
  24614450.258 5 129349799.236 5        36.100                   100792065.40746
        20.100    24614455.18846
  22952404.078 9 120615705.806 9        48.900    22952408.633 7  93986272.71249
        36.500    22952407.83649
  22463788.258 8 118048007.145 8        45.600                    91985486.89949
        34.600    22463791.53949
  20686023.859 9 108705808.309 9        55.600    20686030.500 9  84705847.81349
        48.700    20686029.73049  20686027.867 7  81176425.509 7        41.400
  20747553.688 9 109029137.299 9        50.600                    84957791.44049
        43.500    20747557.16049
  20405962.617 9 107234213.362 9        53.000                    83559023.22549
        48.900    20405963.76249
  24166443.477 7 126995510.709 7        43.000    24166448.004 5  98957557.27046
        24.300    24166446.23046
  23592374.453 7 123978766.280 7        43.900                    96606835.54447
        29.600    23592375.93047
 17  4  8  1 35 30.0000000  0 12G01G32G08G19G28G17G14G03G11G22G31G23
  20212372.563 9 106216749.123 9        56.500    20212379.719 9  82766330.85849
        50.700    20212379.27049  20212375.371 7  79317719.565 7        43.600
  24026753.656 7 126261461.163 7        41.300    24026760.039 7  98385575.61547
        26.300    24026759.45747  24026755.859 2  94286169.517 2        31.300
  24305373.609 7 127725676.934 7        42.600    24305381.984 7  99526501.34848
        30.400    24305381.04748  24305376.602 2  95379554.328 2        31.000
  24086997.234 5 126578028.980 5        37.100                    98632243.06946
        23.300    24086999.63746
  24627177.695 6 129416677.891 6        38.100                   100844178.60645
        19.900    24627181.37945
  22939392.156 9 120547328.808 9        48.400    22939396.676 7  93932991.93849
        36.400    22939395.94149
  22474358.961 8 118103556.394 8        45.800                    92028772.02348
        33.800    22474362.03948
  20678683.406 9 108667235.332 9        54.800    20678690.402 9  84675790.94649
        48.500    20678689.43049  20678687.684 7  81147621.014 7        41.700
  20759733.320 9 109093141.346 9        50.400                    85007664.71449
        43.600    20759736.62149
  20407498.578 9 107242283.603 9        52.400                    83565311.72249
        48.700    20407499.31349
  24154425.008 7 126932354.041 7        43.700    24154429.543 6  98908344.29947
        25.400    24154428.68447
  23573001.859 7 123876966.334 7        43.600                    96527510.91447
        29.900    23573004.70347
 17  4  8  1 36  0.0000000  0 12G01G32G08G19G28G17G14G03G11G22G31G23
  20215112.859 9 106231148.539 9        56.700    20215119.887 9  82777551.17849
        50.700    20215119.62549  20215115.668 7  79328472.364 7        43.600
  24044433.523 7 126354365.436 7        41.700    24044438.992 6  98457968.56647
        25.400    24044438.67247  24044435.480 2  94355546.073 2        31.100
  24327034.859 6 127839508.741 6        40.000    24327043.172 7  99615201.40147
        28.900    24327042.91047  24327039.637 4  95464558.552 4        34.000
  24068915.984 5 126483006.494 5        37.600                    98558199.60946
        22.300    24068917.31346
  24639949.727 5 129483792.951 5        37.400                   100896476.07045
        18.600    24639951.80545
  22926461.523 9 120479374.298 9        49.400    22926465.254 7  93880040.37249
        37.000    22926464.87149
  22485017.727 8 118159566.756 8        46.200                    92072416.45949
        34.200    22485020.63349
  20671413.023 9 108629028.193 9        55.400    20671419.648 9  84646019.16549
        48.700    20671418.93449  20671417.133 7  81119089.723 7        42.100
  20772003.914 9 109157624.754 9        50.000                    85057911.52149
        43.000    20772007.42249
  20409099.664 9 107250696.644 9        52.300                    83571867.34249
        48.600    20409100.47349
  24142475.469 7 126869561.116 7        41.900    24142480.297 6  98859414.75846
        24.700    24142479.95746
  23553661.383 7 123775329.914 7        44.000                    96448313.70648
        31.000    23553663.04748
 17  4  8  1 36 30.0000000  0 12G01G32G08G19G28G17G14G03G11G22G31G23
  20217933.961 9 106245974.137 9        56.700    20217941.289 9  82789103.58549
        50.800    20217940.90249  20217936.828 7  79339543.428 7        42.900
  24062165.813 6 126447554.076 6        39.900    24062172.164 6  98530583.10247
        25.300    24062171.21547  24062167.617 1  94425135.002 1        29.600
  24348708.766 6 127953403.115 6        40.900    24348715.055 6  99703950.25847
        25.700    24348713.94547  24348712.195 3  95549609.467 3        32.400
  24050896.422 5 126388310.645 5        37.500                    98484410.64347
        25.300    24050898.05947
  24652764.063 3 129551141.910 3        33.500                   100948955.75745
        16.300    24652767.78545
  22913610.602 9 120411844.772 9        49.100    22913614.762 7  93827419.96149
        36.300    22913614.11349
  22495763.242 8 118216036.333 8        46.600                    92116418.73848
        32.800    22495766.64848
  20664212.188 9 108591187.073 9        55.000    20664219.035 9  84616532.58649
        48.600    20664218.14549  20664216.285 7  81090831.753 7        41.700
  20784366.109 9 109222585.522 9        51.300                    85108530.29749
        43.600    20784368.83249
  20410765.523 9 107259451.712 9        53.300                    83578689.47849
        48.600    20410766.66449
  24130596.555 7 126807134.752 7        42.600    24130600.137 6  98810770.83946
        23.200    24130599.16846
  23534352.148 7 123673858.846 7        43.600                    96369245.36048
        31.100    23534353.62548
