     2.11           OBSERVATION DATA    G (GPS)             RINEX VERSION / TYPE
teqc  2016Nov7                          20170408 00:12:23UTCPGM / RUN BY / DATE
ZIMM                                                        MARKER NAME
14001M004                                                   MARKER NUMBER
TRIMBLE NETR9       SWISSTOPO                               OBSERVER / AGENCY
5429R49141          TRIMBLE NETR9       5.10                REC # / TYPE / VERS
99390               TRM29659.00     NONE                    ANT # / TYPE
  4331297.3480   567555.6400  4633133.7280                  APPROX POSITION XYZ
        0.0000        0.0000        0.0000                  ANTENNA: DELTA H/E/N
     1     1                                                WAVELENGTH FACT L1/2
    10    C1    L1    S1    C2    L2    S2    P2    C5    L5# / TYPES OF OBSERV
          S5                                                # / TYPES OF OBSERV
    30.0000                                                 INTERVAL
Linux 2.4.21-27.ELsmp|Opteron|gcc -static|Linux x86_64|=+   COMMENT
     2.11           OBSERVATION DATA    M (MIXED)           COMMENT
NetR9 5.10          Receiver Operator   07-APR-17 00:00:00  COMMENT
L2C CARRIER PHASE MEASUREMENTS: PHASE SHIFTS REMOVED        COMMENT
L2C PHASE MATCHES L2 P PHASE                                COMMENT
GLONASS C/A & P PHASE MATCH: PHASE SHIFTS REMOVED           COMMENT
GIOVE-A if present is mapped to satellite ID 51             COMMENT
GIOVE-B if present is mapped to satellite ID 52             COMMENT
Forced Modulo Decimation to 30 seconds                      COMMENT
teqc edited: all GLONASS satellites excluded                COMMENT
teqc edited: all Galileo satellites excluded                COMMENT
  2017     4     7     0     0    0.0000000     GPS         TIME OF FIRST OBS
                                                            END OF HEADER
 17  4  7  0  0  0.0000000  0 10G01G32G08G28G14G03G22G11G27G10
  21124531.141 9 111010174.961 9        53.000    21124538.211 9  86501471.10149
        45.200    21124537.87949  21124534.039 6  82897226.038 6        40.900
  22170979.125 9 116509288.991 9        48.200    22170986.117 9  90786494.57049
        40.400    22170985.49249  22170981.953 5  87003708.105 5        37.700
  20855955.008 9 109598792.487 9        53.800    20855962.734 9  85401710.35849
        48.200    20855961.69149  20855958.711 7  81843298.203 7        41.600
  23542613.195 7 123717270.301 7        44.100                    96403078.67647
        29.100    23542615.48447
  22372457.453 8 117568070.481 8        47.300                    91611490.59549
        34.700    22372461.21549
  23395260.703 7 122942932.979 7        43.300    23395267.637 7  95799710.66348
        31.200    23395266.74248  23395264.707 4  91808044.584 4        34.100
  21489755.578 9 112929369.000 9        49.200                    87996972.13849
        41.800    21489756.92249
  20293456.750 9 106642848.984 9        50.300                    83098346.11449
        45.300    20293459.37949
  23069990.516 8 121233659.458 8        47.000    23069997.148 8  94467836.12649
        35.000    23069996.38349  23069994.242 5  90531671.977 5        36.300
  23269253.539 7 122280775.498 7        42.800    23269260.203 7  95283768.29448
        31.900    23269259.87548  23269256.184 4  91313596.616 4        34.800
 17  4  7  0  0 30.0000000  0 10G01G32G08G28G14G03G22G11G27G10
  21113727.898 9 110953403.759 9        52.300    21113735.176 9  86457233.79949
        44.600    21113734.83649  21113730.934 7  82854831.956 7        41.100
  22169911.633 8 116503681.286 8        47.400    22169918.656 9  90782124.94149
        39.900    22169917.85549  22169914.313 5  86999520.551 5        37.600
  20866164.930 9 109652445.647 9        53.000    20866172.230 9  85443518.00649
        48.100    20866171.08249  20866168.105 7  81883363.867 7        42.000
  23538937.250 7 123697953.634 7        43.800                    96388026.74247
        27.800    23538939.66047
  22362822.852 8 117517441.791 8        47.600                    91572039.68849
        34.300    22362826.33649
  23376289.977 7 122843241.766 7        43.800    23376297.637 7  95722029.21248
        32.400    23376296.64548  23376294.434 3  91733599.867 3        33.500
  21477304.070 9 112863932.846 9        49.200                    87945982.93549
        41.900    21477305.34449
  20286159.531 9 106604502.156 9        50.000                    83068465.45749
        45.000    20286162.44149
  23089881.953 8 121338192.118 8        46.900    23089889.656 8  94549290.13249
        35.700    23089888.77049  23089885.047 5  90609732.063 5        35.400
  23287252.242 7 122375357.678 7        42.800    23287258.500 7  95357468.68948
        31.100    23287258.23848  23287254.082 4  91384226.136 4        34.100
 17  4  7  0  1  0.0000000  0 10G01G32G08G28G14G03G22G11G27G10
  21102975.961 9 110896903.640 9        52.800    21102983.414 9  86413207.73749
        44.600    21102982.84049  21102979.172 7  82812640.319 7        41.300
  22168959.430 9 116498675.398 9        48.300    22168966.031 9  90778224.24449
        39.600    22168965.39549  22168962.262 5  86995782.384 5        37.900
  20876468.414 9 109706591.529 9        53.600    20876475.840 9  85485709.59849
        48.100    20876474.88349  20876471.906 7  81923797.467 7        41.300
  23535360.453 7 123679158.233 7        43.500                    96373380.94447
        27.900    23535363.57447
  22353278.469 8 117467285.671 8        47.300                    91532956.99849
        35.400    22353282.33649
  23357358.898 7 122743758.075 7        43.700    23357365.930 7  95644509.46848
        32.500    23357365.28948  23357362.902 3  91659310.104 3        33.200
  21464918.047 9 112798845.644 9        49.300                    87895265.64749
        42.000    21464919.47749
  20278948.508 9 106566609.255 9        50.300                    83038938.53549
        45.000    20278951.70749
  23109815.641 8 121442939.539 8        46.500    23109822.469 8  94630911.48149
        34.900    23109821.97749  23109818.316 4  90687952.543 4        34.600
  23305281.055 7 122470097.237 7        44.100    23305286.602 7  95431291.71048
        32.500    23305286.23048  23305282.188 3  91454973.201 3        33.500
 17  4  7  0  1 30.0000000  0 10G01G32G08G28G14G03G22G11G27G10
  21092276.500 9 110840675.731 9        53.000    21092283.410 9  86369393.79049
        44.800    21092283.31649  21092279.473 6  82770651.949 6        40.700
  22168121.453 8 116494271.879 8        47.400    22168128.125 8  90774792.93849
        40.200    22168127.46549  22168124.098 6  86992494.049 6        38.100
  20886866.094 9 109761229.747 9        53.200    20886873.012 9  85528284.81749
        48.100    20886872.34849  20886869.313 7  81964598.724 7        42.000
  23531882.969 7 123660884.453 7        43.800                    96359141.67047
        27.500    23531886.76647
  22343824.531 8 117417604.123 8        46.900                    91494244.10749
        35.500    22343827.88349
  23338467.594 7 122644483.482 7        44.100    23338474.691 7  95567152.64748
        32.400    23338474.00448  23338472.023 3  91585176.473 3        32.800
  21452598.617 9 112734108.201 9        48.900                    87844820.90049
        41.700    21452600.29749
  20271824.484 9 106529171.752 9        50.100                    83009766.45149
        44.900    20271827.11749
  23129788.992 8 121547899.963 8        46.600    23129795.684 8  94712698.82349
        34.600    23129795.31349  23129792.352 5  90766332.089 5        35.600
  23323338.336 7 122564992.428 7        43.700    23323344.980 7  95505236.00348
        31.200    23323344.35548  23323340.898 3  91525836.492 3        33.800
 17  4  7  0  2  0.0000000  0 10G01G32G08G28G14G03G22G11G27G10
  21081628.773 9 110784720.759 9        52.400    21081635.637 9  86325792.51149
        45.200    21081635.28549  21081631.617 6  82728867.395 6        40.900
  22167398.273 8 116490470.871 8        47.600    22167404.863 9  90771831.12049
        40.500    22167404.14149  22167400.832 6  86989655.642 6        38.100
  20897356.625 9 109816358.667 9        53.300    20897363.320 9  85571242.40649
        48.100    20897362.25849  20897359.395 7  82005766.413 7        41.600
  23528504.727 7 123643132.661 7        43.200                    96345309.06947
        28.500    23528507.96947
  22334460.984 8 117368398.839 8        47.400                    91455902.34149
        35.400    22334464.57449
  23319615.586 7 122545419.254 7        43.800    23319623.652 7  95489959.74648
        33.300    23319622.55148  23319620.980 4  91511199.947 4        34.000
  21440346.805 9 112669721.277 9        49.400                    87794649.27549
        42.100    21440347.73849
  20264787.070 9 106492190.739 9        50.200                    82980950.07149
        45.400    20264789.94149
  23149801.961 8 121653071.170 8        45.700    23149808.906 8  94794650.39849
        34.200    23149807.96149  23149806.406 5  90844868.988 5        35.800
  23341425.414 7 122660041.080 7        44.100    23341431.906 7  95579299.87748
        31.900    23341431.44948  23341427.293 3  91596814.366 3        33.600
 17  4  7  0  2 30.0000000  0 10G01G32G08G28G14G03G22G11G27G10
  21071032.938 9 110729039.611 9        52.900    21071040.254 9  86282404.60749
        45.300    21071040.12149  21071036.340 6  82687287.328 6        40.900
  22166789.547 8 116487272.755 8        47.600    22166795.973 9  90769339.08649
        39.900    22166795.28549  22166792.094 6  86987267.449 6        38.000
  20907940.586 9 109871977.293 9        53.100    20907947.727 9  85614581.58149
        47.900    20907946.77049  20907943.555 7  82047299.788 7        41.700
  23525226.578 7 123625903.133 7        43.500                    96331883.47747
        29.100    23525229.98047
  22325188.711 8 117319671.892 8        47.700                    91417933.29949
        35.100    22325192.16049
  23300805.117 7 122446566.861 7        43.900    23300812.418 7  95412931.91548
        33.000    23300811.17248  23300809.836 4  91437381.608 4        34.300
  21428161.047 9 112605685.353 9        49.800                    87744751.15349
        42.200    21428162.04749
  20257836.922 9 106455667.771 9        50.000                    82952490.61749
        45.000    20257839.71949
  23169855.586 8 121758451.185 8        46.000    23169862.426 8  94876764.69749
        34.200    23169862.10949  23169858.680 5  90923561.851 5        35.000
  23359541.688 7 122755241.274 7        43.800    23359547.852 7  95653481.83648
        30.400    23359548.02348  23359544.102 3  91667905.412 3        33.200
 17  4  7  0  3  0.0000000  0 10G01G32G08G28G14G03G22G11G27G10
  21060489.188 9 110673633.125 9        53.000    21060496.480 9  86239230.72949
        45.100    21060496.09849  21060492.082 6  82645912.353 6        40.900
  22166295.734 8 116484677.709 8        47.800    22166302.223 9  90767316.97849
        39.700    22166301.48849  22166298.180 5  86985329.585 5        37.600
  20918617.234 9 109928083.963 9        53.200    20918624.449 9  85658301.06249
        47.900    20918623.23449  20918620.141 7  82089197.623 7        41.500
  23522047.008 7 123609196.323 7        44.600                    96318865.17047
        29.400    23522049.55147
  22316007.398 8 117271425.336 8        46.600                    91380338.59349
        35.000    22316011.24249
  23282034.945 7 122347927.589 7        43.900    23282042.090 7  95336070.15448
        32.400    23282040.98048  23282039.293 4  91363722.436 4        34.400
  21416042.719 9 112542001.514 9        50.200                    87695127.38949
        42.100    21416044.02349
  20250974.430 9 106419604.086 9        50.000                    82924389.04449
        45.000    20250977.52349
  23189948.094 8 121864037.889 8        45.900    23189955.164 8  94959040.03049
        34.300    23189954.51649  23189951.379 4  91002409.061 4        34.700
  23377685.891 7 122850590.972 7        43.300    23377692.160 7  95727780.30348
        30.700    23377691.88748  23377687.672 3  91739108.100 3        33.100
 17  4  7  0  3 30.0000000  0 10G01G32G08G28G14G03G22G11G27G10
  21049998.219 9 110618502.240 9        54.000    21050005.266 9  86196271.59649
        45.000    21050004.78549  21050001.121 7  82604743.183 7        41.400
  22165916.789 9 116482686.047 9        48.000    22165923.539 9  90765765.04549
        40.200    22165922.85249  22165919.371 5  86983842.316 5        37.800
  20929386.930 9 109984677.896 9        53.000    20929393.992 9  85702400.22249
        47.700    20929392.99649  20929389.957 7  82131459.311 7        41.000
  23518967.531 7 123593012.497 7        44.100                    96306254.39647
        28.200    23518970.30147
  22306918.203 8 117223660.846 8        47.300                    91343119.52049
        35.200    22306921.75849
  23263305.023 8 122249502.974 8        45.700    23263312.305 7  95259375.66148
        33.300    23263311.17248  23263309.430 3  91290223.549 3        33.900
  21403991.313 9 112478670.130 9        48.800                    87645778.27549
        41.600    21403992.91049
  20244199.250 9 106384001.147 9        50.000                    82896646.49049
        44.900    20244202.52049
  23210079.523 8 121969829.294 8        45.800    23210085.969 7  95041474.87548
        33.600    23210085.06648  23210082.637 5  91081409.134 5        35.000
  23395858.633 7 122946088.225 7        43.800    23395865.098 7  95802193.73448
        31.200    23395865.25048  23395860.621 3  91810420.977 3        32.500
 17  4  7  0  4  0.0000000  0 10G01G32G08G28G14G03G22G11G27G10
  21039560.047 9 110563647.865 9        53.800    21039567.207 9  86153527.93149
        45.000    21039566.68849  21039562.965 7  82563780.517 7        41.100
  22165652.813 8 116481298.000 8        47.800    22165659.695 9  90764683.45249
        40.600    22165658.88749  22165655.465 6  86982805.792 6        38.000
  20940248.641 9 110041757.677 9        53.000    20940256.137 9  85746877.96349
        47.800    20940255.14149  20940252.223 7  82174083.814 7        42.000
  23515987.695 7 123577352.099 7        43.600                    96294051.48647
        28.500    23515991.02047
  22297921.109 8 117176380.373 8        47.300                    91306277.61149
        35.300    22297924.75849
  23244616.953 8 122151294.384 8        45.600    23244623.664 7  95182849.50048
        33.700    23244622.71148  23244621.320 4  91216885.980 4        34.000
  21392006.500 9 112415692.340 9        49.600                    87596704.67949
        42.100    21392007.93049
  20237512.320 9 106348860.536 9        50.100                    82869264.19149
        45.300    20237515.63749
  23230249.133 8 122075823.388 8        45.700    23230256.043 7  95124067.68549
        34.200    23230255.30149  23230252.750 5  91160560.550 5        35.300
  23414059.172 7 123041731.176 7        44.200    23414065.223 7  95876720.69948
        31.100    23414064.99248  23414060.895 3  91881842.670 3        33.000
 17  4  7  0  4 30.0000000  0 10G01G32G08G28G14G03G22G11G27G10
  21029174.141 9 110509070.852 9        54.000    21029181.711 9  86111000.39349
        45.300    21029181.15649  21029177.313 7  82523024.957 7        41.200
  22165503.313 8 116480513.727 8        47.400    22165510.059 8  90764072.33649
        39.800    22165509.38749  22165506.316 6  86982220.144 6        38.000
  20951202.836 9 110099322.104 9        53.800    20951210.223 9  85791733.34749
        47.800    20951209.25849  20951206.219 7  82217070.219 7        41.700
  23513107.445 7 123562215.656 7        43.500                    96282256.85547
        29.100    23513110.33247
  22289015.953 8 117129585.965 8        46.800                    91269814.44249
        35.700    22289019.96949
  23225969.875 8 122053303.195 8        45.900    23225976.859 8  95106492.71749
        34.000    23225976.14849  23225974.055 4  91143710.747 4        34.400
  21380089.570 9 112353068.862 9        49.600                    87547907.16849
        41.900    21380090.68449
  20230913.742 9 106314183.516 9        50.300                    82842243.14149
        45.200    20230916.36349
  23250457.258 8 122182018.055 8        45.800    23250464.160 8  95206816.77449
        34.000    23250463.44949  23250459.789 4  91239861.766 4        34.200
  23432286.234 7 123137517.758 7        44.400    23432291.895 7  95951359.59747
        29.700    23432291.72747  23432287.805 3  91953371.597 3        33.000
 17  4  7  0  5  0.0000000  0 10G01G32G08G28G14G03G22G11G27G10
  21018841.625 9 110454772.077 9        54.300    21018848.629 9  86068689.65749
        45.500    21018848.29749  21018844.516 7  82482477.169 7        41.100
  22165469.414 9 116480333.430 9        48.000    22165475.875 9  90763931.84749
        39.200    22165475.02749  22165471.840 5  86982085.506 5        37.900
  20962248.953 9 110157369.867 9        53.000    20962256.559 9  85836965.35549
        47.500    20962255.65649  20962252.559 7  82260417.563 7        41.500
  23510326.094 7 123547603.042 7        43.900                    96270870.39047
        28.300    23510329.68847
  22280204.500 8 117083279.380 8        47.300                    91233731.39149
        35.800    22280208.03549
  23207364.469 8 121955530.767 8        46.000    23207371.645 8  95030306.42749
        34.400    23207370.88749  23207368.496 4  91070698.875 4        34.000
  21368240.164 9 112290799.871 9        49.100                    87499385.87649
        42.000    21368241.31349
  20224403.211 9 106279971.572 9        50.200                    82815584.47949
        45.300    20224406.28149
  23270703.742 8 122288411.293 8        45.900    23270710.180 8  95289720.58448
        33.800    23270709.98448  23270706.613 4  91319311.272 4        34.600
  23450541.297 7 123233446.121 7        44.100    23450547.758 7  96026108.97248
        30.000    23450547.34848  23450543.543 3  92025006.394 3        33.300
 17  4  7  0  5 30.0000000  0 10G01G32G08G28G14G03G22G11G27G10
  21008561.938 9 110400752.807 9        53.500    21008569.215 9  86026596.72849
        45.200    21008568.99249  21008565.504 7  82442138.106 7        41.200
  22165549.805 9 116480757.619 9        48.200    22165556.652 9  90764262.39749
        39.900    22165555.65649  22165552.406 6  86982402.281 6        38.100
  20973386.984 9 110215900.615 9        53.400    20973394.098 9  85882573.72349
        47.500    20973393.14849  20973390.051 7  82304125.578 7        41.200
  23507645.539 7 123533514.997 7        44.200                    96259892.69247
        28.900    23507648.75047
  22271485.555 8 117037463.035 8        47.400                    91198030.35749
        35.000    22271489.26649
  23188800.211 8 121857978.892 8        46.100    23188808.398 8  94954291.98948
        33.800    23188807.44948  23188805.117 3  90997851.689 3        33.600
  21356458.789 9 112228887.266 9        50.200                    87451142.30049
        42.300    21356459.54749
  20217981.750 9 106246226.393 9        49.800                    82789289.53449
        45.000    20217984.44149
  23290987.094 8 122395001.423 8        45.600    23290993.723 8  95372777.82148
        32.700    23290992.85548  23290990.543 4  91398907.776 4        34.800
  23468822.773 7 123329514.664 7        43.500    23468828.711 7  96100967.56048
        30.000    23468828.57848  23468824.418 3  92096745.861 3        33.500
 17  4  7  0  6  0.0000000  0 10G01G32G08G28G14G03G22G11G27G10
  20998335.727 9 110347013.517 9        53.700    20998342.773 9  85984721.95849
        45.300    20998342.45349  20998338.613 7  82402008.126 7        41.200
  22165745.758 9 116481785.943 9        48.000    22165752.172 9  90765063.68849
        39.300    22165751.27349  22165748.145 5  86983170.182 5        37.900
  20984616.508 9 110274911.951 9        52.900    20984623.723 9  85928556.57049
        47.500    20984622.48849  20984619.566 7  82348192.478 7        41.800
  23505064.500 7 123519951.391 7        44.600                    96249323.63647
        28.900    23505067.37947
  22262860.672 8 116992138.127 8        47.300                    91162712.25649
        35.800    22262864.66449
  23170279.445 8 121760648.498 8        46.000    23170286.395 7  94878450.13648
        33.400    23170285.75048  23170283.945 4  90925169.915 4        34.900
  21344744.922 9 112167330.929 9        49.100                    87403176.33849
        42.000    21344745.99249
  20211648.992 9 106212948.677 9        49.900                    82763358.84849
        45.000    20211652.04749
  23311306.898 8 122501785.902 8        45.800    23311314.195 8  95455986.50248
        33.700    23311313.36748  23311311.227 5  91478649.413 5        35.300
  23487129.883 7 123425721.007 7        43.200    23487136.457 7  96175933.51748
        30.500    23487135.96548  23487131.457 3  92168588.257 3        32.700
 17  4  7  0  6 30.0000000  0 10G01G32G08G28G14G03G22G11G27G10
  20988162.852 9 110293555.087 9        53.800    20988170.109 9  85943066.03349
        45.500    20988169.73849  20988166.074 7  82362087.867 7        41.800
  22166056.156 8 116483418.536 8        47.600    22166062.785 9  90766335.84049
        39.400    22166062.03149  22166058.551 6  86984389.331 6        38.000
  20995937.273 9 110334402.614 9        53.000    20995944.457 9  85974912.92949
        47.300    20995943.41449  20995940.492 7  82392617.312 7        41.400
  23502583.250 7 123506912.587 7        43.400                    96239163.53147
        28.300    23502585.92247
  22254329.883 8 116947306.543 8        46.500                    91127778.57349
        36.000    22254333.41049
  23151800.430 8 121663540.966 8        46.300    23151807.289 7  94802781.92849
        34.200    23151806.18049  23151804.609 5  90852654.562 5        35.100
  21333099.203 9 112106131.480 9        50.000                    87355488.46349
        42.600    21333100.57849
  20205405.320 9 106180139.938 9        49.800                    82737793.58949
        45.100    20205408.40249
  23331664.617 8 122608762.675 8        45.500    23331672.223 8  95539345.00749
        34.400    23331671.72749  23331667.945 4  91558534.651 4        34.700
  23505462.984 7 123522063.235 7        42.800    23505469.574 7  96251005.36148
        30.600    23505469.31348  23505465.508 3  92240532.102 3        32.800
 17  4  7  0  7  0.0000000  0 10G01G32G08G28G14G03G22G11G27G10
  20978043.648 9 110240378.743 9        53.700    20978050.930 9  85901629.92149
        45.900    20978050.56649  20978046.664 6  82322378.257 6        40.900
  22166481.727 8 116485655.798 8        47.700    22166488.738 9  90768079.16349
        39.400    22166487.96149  22166484.773 5  86986060.018 5        37.500
  21007349.023 9 110394372.139 9        52.500    21007356.090 9  86021642.41049
        47.500    21007355.46149  21007352.422 7  82437399.735 7        41.600
  23500202.203 8 123494399.126 8        45.400                    96229412.76847
        28.500    23500205.00047
  22245892.906 8 116902970.257 8        46.700                    91093230.82049
        36.200    22245896.11749
  23133364.242 8 121566657.964 8        47.300    23133371.273 7  94727288.68548
        33.700    23133370.06648  23133368.500 4  90780306.884 4        34.500
  21321521.266 9 112045289.269 9        49.600                    87308078.94849
        43.100    21321522.84849
  20199252.195 9 106147802.090 9        49.900                    82712595.27149
        45.100    20199255.40249
  23352057.680 8 122715930.022 8        46.200    23352064.211 8  95622852.02448
        33.600    23352063.69548  23352059.973 4  91638562.237 4        34.300
  23523821.844 7 123618539.790 7        43.100    23523828.668 7  96326181.87547
        29.600    23523828.16047  23523823.824 3  92312576.259 3        32.600
 17  4  7  0  7 30.0000000  0 10G01G32G08G28G14G03G22G11G27G10
  20967978.266 9 110187485.106 9        53.800    20967985.863 9  85860414.11249
        45.700    20967985.64549  20967981.863 7  82282879.777 7        41.400
  22167022.594 8 116488497.488 8        47.600    22167029.520 9  90770293.47349
        40.200    22167028.78949  22167025.480 6  86988182.068 6        38.300
  21018851.555 9 110454818.391 9        52.700    21018859.191 9  86068743.37449
        47.200    21018858.30149  21018854.973 7  82482538.163 7        41.400
  23497920.805 7 123482410.744 7        44.300                    96220071.16748
        30.100    23497923.50448
  22237550.836 9 116859130.870 9        48.500                    91059070.27849
        37.300    22237554.15249
  23114970.992 8 121470000.615 8        46.600    23114978.023 8  94651971.28049
        35.200    23114977.27749  23114975.652 4  90708127.711 4        34.400
  21310011.375 9 111984806.007 9        49.300                    87260949.14649
        42.600    21310012.64549
  20193188.031 9 106115935.942 9        50.200                    82687764.50149
        45.100    20193191.41449
  23372486.141 8 122823285.621 8        45.000    23372493.113 7  95706505.74648
        32.000    23372492.26648  23372490.418 5  91718730.379 5        35.200
  23542206.359 7 123715148.495 7        43.800    23542212.203 7  96401461.38748
        30.900    23542211.81648  23542207.895 3  92384719.128 3        33.200
 17  4  7  0  8  0.0000000  0 10G01G32G08G28G14G03G22G11G27G10
  20957967.125 9 110134875.302 9        53.800    20957974.555 9  85819419.46549
        45.600    20957974.24249  20957970.281 7  82243593.239 7        41.400
  22167678.602 8 116491943.879 8        47.800    22167685.637 9  90772978.98249
        40.100    22167685.06349  22167681.988 5  86990755.676 5        37.700
  21030444.797 9 110515740.501 9        52.500    21030452.395 9  86116215.13549
        47.300    21030451.49249  21030448.336 7  82528031.933 7        41.400
  23495739.398 8 123470948.012 8        45.200                    96211139.16147
        28.900    23495742.65647
  22229302.797 9 116815790.406 9        49.100                    91025298.49149
        36.200    22229306.80949
  23096620.664 8 121373570.538 8        47.500    23096627.734 8  94576830.97449
        35.200    23096627.07849  23096624.980 4  90636118.246 4        34.200
  21298570.602 9 111924682.210 9        49.900                    87214099.43949
        42.600    21298571.34449
  20187214.672 9 106084543.134 9        49.900                    82663302.57849
        45.200    20187217.37149
  23392950.836 7 122930827.614 7        44.900    23392958.145 7  95790304.70748
        32.800    23392957.22748  23392955.027 5  91799037.680 5        35.300
  23560615.094 7 123811887.657 7        42.900    23560621.277 7  96476842.54048
        30.000    23560620.97748  23560617.055 3  92456959.384 3        33.300
 17  4  7  0  8 30.0000000  0 10G01G32G08G28G14G03G22G11G27G10
  20948009.820 9 110082550.044 9        53.400    20948016.813 9  85778646.53549
        45.700    20948016.58249  20948012.742 6  82204519.178 6        40.900
  22168449.172 8 116495994.726 8        47.700    22168455.711 9  90776135.48649
        39.900    22168454.79749  22168451.668 6  86993780.654 6        38.100
  21042128.164 9 110577136.676 9        52.700    21042135.543 9  86164056.30949
        47.500    21042134.41849  21042131.262 6  82573879.721 6        40.700
  23493658.258 7 123460010.784 7        44.100                    96202616.64447
        28.800    23493660.61347
  22221150.945 8 116772950.069 8        47.600                    90991916.42549
        36.200    22221154.41049
  23078313.969 8 121277368.800 8        46.900    23078321.828 7  94501868.59649
        35.200    23078320.77749  23078318.680 4  90564279.295 4        34.500
  21287197.711 9 111864918.030 9        49.400                    87167529.95449
        42.600    21287198.76249
  20181330.641 9 106053624.733 9        49.800                    82639210.31949
        45.300    20181333.57449
  23413450.398 7 123038553.767 7        44.700    23413458.148 8  95874247.14149
        34.500    23413457.84849  23413454.184 4  91879482.527 4        34.200
  23579048.047 7 123908755.139 7        42.300    23579054.699 7  96552323.70447
        29.700    23579054.63347  23579049.887 3  92529295.491 3        32.100
 17  4  7  0  9  0.0000000  0 10G01G32G08G28G14G03G22G11G27G10
  20938106.992 9 110030510.299 9        53.100    20938114.770 9  85738096.09349
        45.700    20938114.21549  20938110.492 7  82165658.340 7        41.600
  22169335.531 8 116500650.116 8        47.900    22169341.648 8  90779763.07549
        40.000    22169340.68449  22169337.320 5  86997257.100 5        37.300
  21053901.258 9 110639005.846 9        53.300    21053908.488 9  86212266.04349
        47.200    21053907.41849  21053904.496 7  82620080.710 7        41.500
  23491676.961 7 123449599.329 7        44.000                    96194503.81147
        28.600    23491679.75047
  22213093.563 9 116730611.809 9        48.200                    90958925.57349
        36.400    22213097.72349
  23060051.547 8 121181396.846 8        46.600    23060058.938 7  94427085.26049
        34.900    23060057.56649  23060056.000 4  90492611.937 4        34.700
  21275893.477 9 111805513.704 9        49.800                    87121240.88349
        42.600    21275895.06649
  20175537.836 9 106023182.401 9        50.500                    82615489.01649
        45.400    20175540.87149
  23433985.313 8 123146461.975 8        45.700    23433991.715 7  95958331.44548
        33.800    23433991.30948  23433987.820 3  91960063.349 3        33.800
  23597505.453 7 124005749.248 7        42.800    23597512.148 7  96627903.50247
        29.700    23597511.37547  23597507.625 2  92601726.139 2        31.900
 17  4  7  0  9 30.0000000  0 10G01G32G08G28G14G03G22G11G27G10
  20928259.039 9 109978756.912 9        53.000    20928265.766 9  85697768.77549
        46.000    20928265.74249  20928261.727 7  82127011.327 7        41.800
  22170336.055 8 116505909.909 8        47.900    22170342.688 8  90783861.62549
        40.500    22170341.78549  22170338.301 5  87001184.879 5        37.500
  21065764.188 9 110701346.434 9        52.400    21065771.664 9  86260843.10749
        46.900    21065770.40649  21065767.543 7  82666633.734 7        41.400
  23489795.344 7 123439713.585 7        42.400                    96186800.64247
        28.100    23489797.66847
  22205133.414 8 116688777.432 8        46.600                    90926327.36849
        36.500    22205137.18049
  23041832.633 8 121085656.019 8        47.900    23041840.113 8  94352482.02549
        35.400    23041839.34449  23041837.363 5  90421117.174 5        35.000
  21264657.805 9 111746470.475 9        49.800                    87075233.17849
        43.000    21264659.37149
  20169835.844 9 105993216.859 9        49.800                    82592139.23849
        45.300    20169838.63349
  23454553.484 8 123254550.216 8        45.200    23454560.504 7  96042556.04948
        33.000    23454559.47348  23454557.566 4  92040778.583 4        34.400
  23615986.445 7 124102867.972 7        43.000    23615992.914 7  96703580.41347
        29.200    23615992.69147  23615988.590 2  92674249.854 2        31.800
 17  4  7  0 10  0.0000000  0 10G01G32G08G28G14G03G22G11G27G10
  20918465.219 9 109927291.116 9        53.700    20918472.395 9  85657665.56649
        46.100    20918471.96549  20918468.473 7  82088579.083 7        41.100
  22171451.727 9 116511774.381 9        48.000    22171458.488 9  90788431.35749
        39.700    22171457.63349  22171454.328 5  87005564.201 5        37.800
  21077716.773 9 110764157.635 9        52.500    21077724.047 9  86309786.89849
        47.000    21077723.08249  21077720.043 7  82713538.191 7        41.700
  23488015.211 7 123430353.664 7        44.200                    96179507.17947
        29.300    23488017.59847
  22197268.477 9 116647448.984 9        48.200                    90894123.39849
        36.300    22197272.02349
  23023658.242 8 120990147.916 8        47.400    23023665.605 8  94278060.14049
        34.800    23023664.80949  23023662.598 4  90349796.205 4        34.900
  21253490.914 9 111687789.470 9        50.000                    87029507.72549
        42.500    21253492.53149
  20164224.508 9 105963729.894 9        49.900                    82569162.37849
        45.700    20164227.44549
  23475156.063 7 123362816.694 7        43.900    23475162.844 7  96126919.55148
        32.300    23475161.78148  23475159.406 4  92121626.913 4        34.400
  23634491.133 7 124200109.818 7        42.400    23634497.609 7  96779353.26648
        30.200    23634497.80948  23634493.535 3  92746865.495 3        32.800
 17  4  7  0 10 30.0000000  0 10G01G32G08G28G14G03G22G11G27G10
  20908726.609 9 109876113.542 9        52.600    20908733.504 9  85617786.93449
        46.100    20908733.16449  20908729.613 7  82050362.069 7        41.700
  22172683.086 8 116518243.080 8        47.800    22172690.117 9  90793471.90749
        40.100    22172689.03149  22172685.840 5  87010394.725 5        37.500
  21089758.609 9 110827437.346 9        52.500    21089765.934 9  86359095.75549
        47.000    21089764.84849  21089761.813 6  82760792.510 6        40.600
  23486333.656 7 123421520.184 7        43.900                    96172623.94747
        28.200    23486336.70747
  22189500.938 9 116606628.182 9        48.100                    90862314.98749
        36.800    22189504.36749
  23005527.438 8 120894873.646 8        47.400    23005534.574 8  94203820.45949
        35.400    23005534.06349  23005532.375 5  90278649.842 5        35.300
  21242393.375 9 111629471.078 9        49.900                    86984064.83749
        43.100    21242394.96549
  20158704.820 9 105934723.116 9        49.900                    82546559.70249
        45.600    20158707.77049
  23495791.586 7 123471259.027 7        43.800    23495798.777 8  96211420.06548
        32.600    23495797.78548  23495794.590 3  92202606.583 3        33.600
  23653019.094 7 124297472.609 7        42.700    23653024.980 7  96855220.37647
        29.800    23653024.64547  23653020.836 3  92819571.465 3        32.600
 17  4  7  0 11  0.0000000  0 10G01G32G08G28G14G03G22G11G27G10
  20899042.719 9 109825225.144 9        53.700    20899049.723 9  85578133.65349
        46.000    20899049.59449  20899045.637 7  82012361.011 7        41.600
  22174028.875 8 116525316.019 8        47.800    22174035.379 9  90798983.29149
        40.100    22174034.98049  22174031.324 5  87015676.474 5        37.400
  21101889.445 9 110891184.487 9        52.300    21101896.480 9  86408768.84149
        46.800    21101895.39849  21101892.418 6  82808395.887 6        40.600
  23484753.016 7 123413212.754 7        42.800                    96166150.61047
        27.700    23484755.85247
  22181829.398 9 116566315.984 9        48.400                    90830902.89049
        36.700    22181833.11349
  22987442.461 8 120799834.535 8        47.000    22987449.250 7  94129764.02249
        35.200    22987448.57449  22987446.711 5  90207679.098 5        35.000
  21231364.961 9 111571515.552 9        49.800                    86938904.69549
        42.900    21231365.95749
  20153276.344 9 105906197.225 9        49.700                    82524331.73549
        45.500    20153279.54749
  23516460.453 7 123579875.219 7        44.600    23516467.719 7  96296056.03148
        32.400    23516466.86748  23516464.141 4  92283716.073 4        34.000
  23671569.148 7 124394954.549 7        42.200    23671574.793 7  96931180.32447
        29.300    23671574.35947  23671570.848 3  92892366.401 3        32.600
 17  4  7  0 11 30.0000000  0 10G01G32G08G28G14G03G22G11G27G10
  20889414.055 9 109774626.878 9        53.400    20889421.070 9  85538706.43049
        46.300    20889420.73849  20889416.957 7  81974576.592 7        41.700
  22175490.016 8 116532992.997 8        47.800    22175496.398 9  90804965.35049
        39.400    22175495.50849  22175492.262 5  87021409.288 5        37.400
  21114108.500 9 110955397.206 9        52.500    21114115.945 9  86458804.70949
        46.600    21114114.94949  21114112.383 7  82856346.923 7        41.000
  23483272.289 7 123405431.261 7        43.200                    96160087.10747
        28.100    23483275.14547
  22174255.234 9 116526514.383 9        48.200                    90799888.66349
        37.100    22174259.07449
  22969402.180 8 120705031.975 8        46.700    22969409.641 8  94055891.90749
        35.800    22969408.86349  22969407.063 4  90136884.989 4        34.900
  21220405.406 9 111513923.729 9        50.000                    86894027.95649
        43.000    21220406.86349
  20147939.969 9 105878153.689 9        49.700                    82502479.62549
        45.000    20147942.87949
  23537162.836 8 123688663.185 8        45.300    23537169.352 7  96380825.88948
        31.700    23537168.50848  23537167.074 4  92364953.826 4        34.800
  23690141.367 7 124492553.815 7        41.900    23690147.992 7  97007231.70448
        30.000    23690147.87948  23690143.836 3  92965248.968 3        32.300
 17  4  7  0 12  0.0000000  0 10G01G32G08G28G14G03G22G11G27G10
  20879840.859 9 109724319.453 9        53.400    20879847.977 9  85499505.84649
        46.300    20879847.61749  20879844.070 7  81937009.361 7        41.500
  22177065.695 8 116541273.715 8        47.700    22177072.418 8  90811417.86549
        39.400    22177071.52049  22177068.566 6  87027592.944 6        38.000
  21126416.133 9 111020074.079 9        52.300    21126423.582 9  86509202.26549
        46.400    21126422.40649  21126419.719 7  82904644.585 7        41.300
  23481891.836 7 123398175.758 7        43.200                    96154433.45247
        29.500    23481894.53547
  22166779.125 9 116487224.646 9        48.600                    90769273.29049
        36.900    22166782.38349
  22951406.805 8 120610467.112 8        47.500    22951413.859 8  93982205.01149
        35.900    22951412.95349  22951411.094 4  90066268.382 4        34.800
  21209515.555 9 111456695.922 9        50.100                    86849434.87049
        43.200    21209516.50449
  20142695.227 9 105850593.534 9        49.700                    82481004.18049
        46.000    20142698.35549
  23557896.609 7 123797620.656 7        44.100    23557903.816 8  96465727.80848
        32.900    23557903.45348  23557900.375 4  92446318.150 4        34.000
  23708735.422 7 124590268.472 7        41.600    23708742.492 7  97083372.97148
        30.200    23708742.43448  23708738.395 3  93038217.680 3        32.700
 17  4  7  0 12 30.0000000  0 10G01G32G08G28G14G03G22G11G27G10
  20870323.297 9 109674303.999 9        54.400    20870330.117 9  85460532.77449
        46.300    20870329.91449  20870326.016 7  81899660.177 7        41.700
  22178756.102 9 116550158.161 9        48.500    22178762.785 9  90818340.82649
        39.700    22178762.02349  22178758.484 5  87034227.448 5        37.600
  21138812.086 9 111085214.146 9        52.700    21138819.445 9  86559960.74949
        46.600    21138818.46549  21138815.309 7  82953288.130 7        41.300
  23480610.977 7 123391446.427 7        43.800                    96149189.82747
        29.800    23480613.91447
  22159400.086 9 116448448.593 9        48.600                    90739058.19549
        36.100    22159403.66049
  22933457.602 8 120516141.443 8        47.900    22933464.391 8  93908704.50349
        36.000    22933463.91049  22933461.930 5  89995830.405 5        35.400
  21198694.680 9 111399832.878 9        50.000                    86805126.01449
        42.700    21198695.93049
  20137543.000 9 105823518.187 9        50.500                    82459906.50149
        45.200    20137545.87149
  23578661.938 7 123906745.759 7        43.200    23578668.930 8  96550760.34348
        32.700    23578668.67248  23578665.184 3  92527807.685 3        33.600
  23727352.125 7 124688096.830 7        41.600    23727358.836 7  97159602.83348
        30.300    23727358.49648  23727354.691 2  93111271.315 2        31.900
 17  4  7  0 13  0.0000000  0 10G01G32G08G28G14G03G22G11G27G10
  20860861.492 9 109624581.225 9        53.400    20860868.656 9  85421787.76049
        46.300    20860868.31349  20860864.180 7  81862529.534 7        41.600
  22180561.852 9 116559645.829 9        48.200    22180568.539 8  90825733.82149
        39.000    22180567.68449  22180564.086 5  87041312.408 5        37.500
  21151295.453 9 111150815.022 9        52.100    21151302.844 9  86611078.30349
        46.600    21151301.90249  21151298.746 7  83002275.787 7        41.300
  23479430.352 7 123385242.869 7        43.600                    96144355.87147
        28.100    23479432.88347
  22152119.141 9 116410187.774 9        48.000                    90709244.58749
        37.000    22152122.63349
  22915553.461 8 120422056.051 8        47.300    22915560.926 8  93835391.21649
        36.000    22915560.28149  22915558.070 5  89925571.842 5        35.200
  21187943.836 9 111343334.749 9        49.500                    86761101.50649
        43.000    21187944.93449
  20132482.742 9 105796928.572 9        49.800                    82439187.32449
        45.300    20132485.98049
  23599459.875 7 124016036.210 7        44.100    23599466.234 7  96635921.73348
        31.900    23599465.76248  23599462.332 3  92609420.687 3        33.400
  23745989.648 7 124786036.815 7        41.100    23745995.742 7  97235919.68847
        28.700    23745995.27747  23745991.352 2  93184408.308 2        31.600
 17  4  7  0 13 30.0000000  0 10G01G32G08G28G14G03G22G11G27G10
  20851455.555 9 109575152.306 9        53.700    20851462.582 9  85383271.72849
        46.400    20851462.14849  20851458.422 7  81825618.334 7        41.700
  22182482.063 9 116569736.862 9        48.000    22182488.391 9  90833596.96149
        39.700    22182487.64849  22182484.402 5  87048847.915 5        37.600
  21163866.539 9 111216876.228 9        52.200    21163873.910 9  86662554.55949
        46.400    21163872.62149  21163869.816 7  83051607.201 7        41.000
  23478349.852 7 123379565.361 7        42.900                    96139931.83347
        28.800    23478352.55547
  22144936.602 8 116372444.163 8        47.600                    90679833.99049
        36.500    22144940.44549
  22897695.781 8 120328212.535 8        47.200    22897702.492 8  93762266.40549
        36.200    22897701.84449  22897699.867 5  89855493.904 5        35.100
  21177262.023 9 111287202.885 9        50.000                    86717362.39749
        43.000    21177263.34849
  20127516.016 9 105770826.419 9        49.700                    82418847.97949
        45.100    20127519.16049
  23620288.227 7 124125490.171 7        43.900    23620294.617 7  96721210.53348
        32.000    23620294.18848  23620291.578 4  92691155.779 4        34.400
  23764647.992 6 124884087.015 6        40.600    23764654.180 7  97312322.43247
        27.700    23764654.30147  23764650.027 3  93257627.594 3        32.100
 17  4  7  0 14  0.0000000  0 10G01G32G08G28G14G03G22G11G27G10
  20842105.594 9 109526018.240 9        53.900    20842112.609 9  85344985.44449
        46.600    20842112.28549  20842108.504 7  81788927.324 7        42.100
  22184517.016 9 116580430.968 9        48.500    22184523.359 9  90841930.03549
        39.600    22184522.55949  22184519.309 5  87056833.780 5        37.700
  21176524.734 9 111283396.018 9        52.200    21176532.063 9  86714388.14749
        46.300    21176531.08249  21176528.512 7  83101281.052 7        41.200
  23477370.422 7 123374413.879 7        43.400                    96135917.68848
        30.200    23477373.18448
  22137853.492 9 116335219.168 9        48.200                    90650827.50149
        36.900    22137857.27049
  22879883.984 8 120234612.269 8        46.700    22879891.539 8  93689331.14049
        36.200    22879890.51649  22879888.535 5  89785597.604 5        35.300
  21166650.227 9 111231437.697 9        50.500                    86673909.01349
        43.300    21166651.46949
  20122642.297 9 105745213.071 9        49.600                    82398889.52849
        45.200    20122645.38749
  23641146.930 7 124235105.545 7        43.600    23641154.203 8  96806625.10548
        32.200    23641154.28148  23641150.793 3  92773011.406 3        33.600
  23783327.422 7 124982245.576 7        41.300    23783332.875 7  97388809.62047
        28.400    23783333.18847  23783329.145 2  93330927.802 2        31.900
 17  4  7  0 14 30.0000000  0 10G01G32G08G28G14G03G22G11G27G10
  20832811.688 9 109477179.336 9        53.000    20832818.602 9  85306929.16249
        46.600    20832818.53949  20832814.520 7  81752456.718 7        41.600
  22186667.023 9 116591727.230 9        48.100    22186673.387 9  90850732.33249
        39.900    22186672.44549  22186669.375 5  87065269.314 5        37.800
  21189269.891 9 111350372.203 9        52.300    21189277.258 9  86766577.36849
        46.100    21189276.18049  21189273.434 6  83151295.717 6        40.600
  23476489.500 7 123369787.897 7        44.000                    96132313.01947
        28.700    23476492.87147
  22130868.367 8 116298513.440 8        47.900                    90622225.64249
        37.200    22130872.09449
  22862118.836 8 120141255.934 8        46.000    22862126.227 8  93616585.95249
        36.000    22862125.41049  22862123.375 5  89715883.470 5        35.500
  21156108.328 9 111176039.177 9        50.000                    86630741.33949
        43.300    21156109.68849
  20117861.219 9 105720088.846 9        49.500                    82379312.20949
        45.200    20117864.01249
  23662036.164 7 124344879.748 7        43.900    23662042.840 7  96892163.43948
        30.900    23662043.09048  23662039.074 3  92854985.664 3        32.800
  23802026.234 6 125080510.151 6        40.300    23802031.832 7  97465379.39047
        26.800    23802031.77047  23802027.961 2  93404307.166 2        31.700
 17  4  7  0 15  0.0000000  0 10G01G32G08G28G14G03G22G11G27G10
  20823574.516 9 109428637.346 9        53.600    20823581.590 9  85269104.24049
        46.600    20823581.46949  20823577.570 7  81716207.833 7        42.200
  22188930.953 9 116603626.213 9        48.800    22188937.391 9  90860004.28349
        39.700    22188936.67649  22188933.137 5  87074154.933 5        37.000
  21202101.719 9 111417803.793 9        52.100    21202109.402 9  86819121.46249
        46.200    21202108.27049  21202105.055 6  83201650.474 6        40.600
  23475709.281 7 123365687.869 7        43.900                    96129118.19147
        28.600    23475712.12547
  22123982.969 9 116262329.541 9        48.200                    90594030.41349
        37.100    22123986.25049
  22844400.742 8 120048145.586 8        46.700    22844407.836 8  93544032.45149
        37.100    22844407.12149  22844405.199 5  89646353.027 5        35.600
  21145636.234 9 111121008.579 9        49.800                    86587860.35849
        43.300    21145637.34449
  20113173.930 9 105695456.053 9        50.200                    82360117.82249
        45.300    20113176.65649
  23682955.508 7 124454811.424 7        43.300    23682962.750 7  96977824.47848
        31.300    23682961.94548  23682959.336 3  92937077.488 3        33.500
  23820744.930 6 125178879.757 6        39.900    23820750.926 7  97542031.00347
        27.900    23820751.39147  23820747.465 1  93477764.954 1        30.600
 17  4  7  0 15 30.0000000  0 10G01G32G08G28G14G03G22G11G27G10
  20814393.680 9 109380392.596 9        53.100    20814400.734 9  85231510.93749
        46.700    20814400.55549  20814396.832 7  81680180.917 7        41.700
  22191309.930 9 116616126.975 9        48.600    22191316.395 9  90869745.13849
        39.800    22191315.52049  22191312.332 5  87083489.923 5        37.800
  21215019.781 9 111485688.945 9        52.000    21215027.133 9  86872018.97149
        46.100    21215026.18849  21215022.855 6  83252343.916 6        40.600
  23475028.992 7 123362113.222 7        43.500                    96126332.71847
        28.600    23475032.12947
  22117196.844 9 116226668.457 9        48.000                    90566242.56149
        37.000    22117200.40249
  22826729.609 8 119955282.066 8        47.700    22826736.355 8  93471671.26949
        37.100    22826735.94149  22826734.137 5  89577006.900 5        36.100
  21135234.445 9 111066345.885 9        50.300                    86545266.05949
        43.200    21135235.34449
  20108580.000 9 105671315.235 9        50.500                    82341306.79149
        45.400    20108583.41449
  23703904.617 7 124564897.947 7        43.900    23703911.578 8  97063606.18848
        31.600    23703911.04748  23703908.441 4  93019284.931 4        34.200
  23839483.898 6 125277352.108 6        40.600    23839490.000 7  97618762.69347
        27.400    23839490.21947  23839486.004 1  93551299.509 1        30.900
 17  4  7  0 16  0.0000000  0 10G01G32G08G28G14G03G22G11G27G10
  20805269.930 9 109332446.366 9        53.700    20805277.094 9  85194150.24149
        46.800    20805276.77049  20805273.219 7  81644376.927 7        41.800
  22193803.133 9 116629229.463 9        48.000    22193809.648 9  90879954.88049
        40.200    22193808.80949  22193805.793 5  87093274.258 5        37.400
  21228023.898 9 111554026.442 9        52.100    21228031.121 9  86925268.95249
        46.000    21228030.13749  21228026.980 7  83303375.155 7        41.000
  23474448.781 7 123359063.808 7        44.600                    96123956.57647
        29.400    23474452.05147
  22110510.211 9 116191531.634 9        48.000                    90538863.23449
        37.000    22110514.19949
  22809105.266 9 119862666.859 9        48.400    22809112.977 8  93399503.58049
        36.900    22809112.09449  22809110.055 5  89507846.205 5        35.500
  21124902.727 9 111012052.133 9        50.600                    86502959.24549
        43.500    21124903.92649
  20104080.031 9 105647667.972 9        49.300                    82322880.35149
        45.400    20104083.25849
  23724882.617 7 124675137.470 7        44.700    23724889.078 7  97149507.09248
        32.600    23724888.82848  23724885.750 3  93101606.644 3        33.400
  23858241.328 6 125375925.674 6        40.900    23858247.531 7  97695573.25447
        27.300    23858247.46147  23858244.121 2  93624909.622 2        31.800
 17  4  7  0 16 30.0000000  0 10G01G32G08G28G14G03G22G11G27G10
  20796203.000 9 109284799.306 9        52.300    20796209.961 9  85157022.66249
        46.900    20796209.69549  20796205.969 7  81608796.327 7        41.800
  22196410.969 9 116642932.974 9        48.200    22196417.660 9  90890632.94649
        40.200    22196416.96549  22196413.543 5  87103507.400 5        37.500
  21241113.898 9 111622814.331 9        51.900    21241121.523 9  86978869.90049
        45.900    21241120.46149  21241117.656 6  83354742.718 6        40.700
  23473968.117 7 123356539.705 7        43.500                    96121989.74247
        28.600    23473971.55547
  22103924.023 8 116156920.555 8        47.200                    90511893.56749
        36.900    22103927.18449
  22791528.266 8 119770301.013 8        46.700    22791535.426 8  93327530.20149
        36.300    22791534.70349  22791532.898 5  89438871.721 5        36.000
  21114641.406 9 110958127.445 9        50.500                    86460940.01449
        43.600    21114642.42649
  20099673.930 9 105624515.000 9        50.200                    82304839.07249
        45.100    20099677.03949
  23745888.617 7 124785527.679 7        44.000    23745895.547 7  97235525.44848
        30.700    23745894.82448  23745892.160 3  93184040.911 3        32.500
  23877017.930 6 125474598.455 6        40.500    23877024.500 6  97772461.13147
        25.800    23877024.38747  23877020.871 2  93698593.807 2        31.400
 17  4  7  0 17  0.0000000  0 10G01G32G08G28G14G03G22G11G27G10
  20787193.227 9 109237452.374 9        53.400    20787200.109 9  85120128.96049
        46.700    20787199.96949  20787195.836 7  81573439.864 7        42.300
  22199132.578 9 116657237.209 9        48.400    22199139.770 9  90901779.10749
        39.800    22199139.02049  22199135.363 6  87114189.144 6        38.000
  21254289.273 9 111692051.211 9        51.600    21254296.832 9  87032820.70349
        45.800    21254295.52749  21254292.898 7  83406445.574 7        41.100
  23473587.758 7 123354540.455 7        42.500                    96120431.87847
        28.500    23473591.68047
  22097438.016 8 116122836.633 8        47.500                    90485334.68249
        37.200    22097441.65649
  22773999.578 8 119678185.861 8        47.300    22774006.941 8  93255752.18049
        37.300    22774006.17249  22774004.313 5  89370084.448 5        35.700
  21104449.914 9 110904572.162 9        50.300                    86419208.62449
        43.500    21104450.98049
  20095362.328 9 105601857.445 9        49.200                    82287183.82749
        45.100    20095365.07049
  23766923.445 7 124896066.504 7        44.700    23766930.336 7  97321659.59548
        31.000    23766929.77048  23766927.160 3  93266586.125 3        33.400
  23895813.508 6 125573368.768 6        40.900    23895819.406 6  97849425.01147
        26.000    23895819.35947  23895815.141 1  93772350.858 1        30.700
 17  4  7  0 17 30.0000000  0 10G01G32G08G28G14G03G22G11G27G10
  20778240.797 9 109190406.637 9        52.800    20778247.555 9  85083469.94249
        47.000    20778247.41049  20778243.629 7  81538308.302 7        41.900
  22201968.680 9 116672141.825 9        48.200    22201975.348 9  90913393.09949
        39.900    22201974.83649  22201971.531 5  87125319.216 5        37.300
  21267549.750 9 111761735.487 9        51.600    21267557.227 9  87087120.13149
        45.600    21267555.93849  21267553.074 7  83458482.526 7        41.100
  23473307.211 7 123353066.073 7        42.200                    96119283.00047
        27.700    23473309.93047
  22091052.695 9 116089281.391 9        48.000                    90459187.75449
        36.900    22091056.30549
  22756518.523 8 119586322.790 8        47.200    22756525.473 8  93184170.56949
        37.500    22756524.89549  22756522.973 5  89301485.422 5        35.700
  21094328.859 9 110851387.163 9        50.000                    86377765.77949
        43.700    21094330.28949
  20091145.547 9 105579696.781 9        49.500                    82269915.77849
        45.000    20091147.94149
  23787986.742 7 125006751.976 7        44.600    23787993.652 7  97407908.01648
        32.000    23787993.19148  23787989.820 3  93349240.857 3        32.800
  23914627.398 6 125672234.955 6        40.100    23914633.707 6  97926463.63247
        26.900    23914633.51247  23914629.000 1  93846179.528 1        30.000
 17  4  7  0 18  0.0000000  0 10G01G32G08G28G14G03G22G11G27G10
  20769345.508 9 109143662.916 9        52.800    20769352.953 9  85047046.25749
        46.800    20769352.51649  20769348.852 7  81503402.278 7        42.200
  22204919.055 8 116687646.173 8        47.900    22204926.215 9  90925474.41649
        39.500    22204925.58249  22204922.512 5  87136897.152 5        37.700
  21280895.023 9 111831865.172 9        52.200    21280902.688 9  87141766.62649
        45.800    21280901.67649  21280898.344 6  83510852.088 6        40.500
  23473126.141 7 123352115.873 7        43.000                    96118542.57247
        28.200    23473129.81647
  22084768.102 9 116056256.126 9        48.000                    90433453.79349
        37.100    22084771.75049
  22739085.492 8 119494712.901 8        47.800    22739092.977 8  93112786.24949
        36.800    22739092.32049  22739090.633 5  89233075.448 5        35.500
  21084278.648 9 110798572.821 9        50.500                    86336611.75449
        43.600    21084280.32049
  20087023.359 9 105558033.940 9        49.700                    82253035.64249
        45.400    20087025.87949
  23809076.875 7 125117581.843 7        44.900    23809084.000 7  97494268.91348
        31.700    23809083.33248  23809079.902 3  93432003.400 3        33.500
  23933458.484 6 125771195.188 6        38.400    23933465.750 7  98003575.44446
        24.700    23933465.27046  23933461.402 1  93920078.356 1        30.600
 17  4  7  0 18 30.0000000  0 10G01G32G08G28G14G03G22G11G27G10
  20760508.258 9 109097222.113 9        52.400    20760515.438 9  85010858.63049
        46.800    20760515.00849  20760511.285 7  81468722.462 7        42.200
  22207983.656 9 116703749.807 9        48.900    22207990.363 9  90938022.70549
        40.000    22207989.62949  22207986.441 6  87148922.599 6        38.100
  21294324.766 9 111902438.702 9        51.900    21294332.363 9  87196758.98349
        45.600    21294331.05949  21294328.020 6  83563553.089 6        40.900
  23473044.898 7 123351689.831 7        42.700                    96118210.59847
        28.100    23473048.68447
  22078584.563 9 116023761.889 9        48.400                    90408133.61249
        36.600    22078588.24649
  22721701.617 8 119403357.448 8        47.600    22721708.516 8  93041600.19649
        37.700    22721707.64149  22721705.719 5  89164855.482 5        35.900
  21074298.906 9 110746129.577 9        50.300                    86295746.89549
        43.700    21074300.44549
  20082995.500 9 105536870.104 9        49.200                    82236544.33249
        45.300    20082998.63349
  23830194.453 7 125228553.992 7        44.200    23830201.113 7  97580740.74348
        31.900    23830200.01248  23830197.578 3  93514872.237 3        32.800
  23952308.414 6 125870247.801 6        38.000    23952313.676 6  98080759.26446
        24.300    23952313.77046  23952310.082 2  93994046.200 2        31.000
 17  4  7  0 19  0.0000000  0 10G01G32G08G28G14G03G22G11G27G10
  20751728.477 9 109051085.317 9        52.300    20751735.688 9  84974907.88149
        46.700    20751735.29349  20751731.570 7  81434269.658 7        42.100
  22211162.172 9 116720452.272 9        48.300    22211168.707 9  90951037.62549
        39.900    22211167.76649  22211164.867 5  87161395.217 5        37.800
  21307838.523 9 111973454.768 9        51.900    21307845.738 9  87252096.16649
        45.600    21307844.69149  21307841.770 6  83616584.559 6        40.500
  23473063.953 7 123351787.667 7        41.700                    96118286.84347
        27.900    23473067.46147
  22072502.891 8 115991800.153 8        47.900                    90383228.37549
        37.500    22072505.94949
  22704365.672 8 119312257.831 8        47.200    22704373.027 8  92970613.48849
        37.300    22704372.06649  22704370.207 5  89096826.553 5        36.100
  21064390.273 9 110694057.807 9        50.700                    86255171.49449
        43.800    21064391.27749
  20079063.734 9 105516206.575 9        49.600                    82220442.88349
        45.000    20079066.38349
  23851338.305 7 125339666.436 7        43.500    23851345.289 7  97667321.87247
        29.400    23851344.95347  23851342.109 4  93597845.815 4        34.000
  23971174.422 6 125969391.013 6        39.300    23971180.762 6  98158013.73646
        22.200    23971180.10546  23971175.480 1  94068081.703 1        29.300
 17  4  7  0 19 30.0000000  0 10G01G32G08G28G14G03G22G11G27G10
  20743006.969 9 109005253.316 9        53.000    20743014.348 9  84939194.63649
        47.000    20743014.09049  20743010.191 7  81400044.480 7        42.000
  22214454.430 9 116737753.040 9        48.600    22214460.895 9  90964518.75149
        39.400    22214460.04349  22214456.680 6  87174314.631 6        38.600
  21321436.367 9 112044911.436 9        51.600    21321444.047 9  87307776.67749
        45.300    21321442.84049  21321439.977 6  83669945.050 6        40.500
  23473182.359 7 123352409.191 7        43.000                    96118771.15047
        27.700    23473185.89147
  22066521.844 8 115960372.578 8        47.200                    90358739.36849
        36.800    22066526.03149
  22687079.164 8 119221415.108 8        47.900    22687085.957 8  92899826.96749
        37.700    22687085.45349  22687083.180 5  89028989.478 5        36.000
  21054552.117 9 110642358.387 9        50.000                    86214886.24149
        43.800    21054553.32049
  20075227.258 9 105496044.394 9        49.300                    82204732.09149
        45.100    20075229.88349
  23872508.695 7 125450916.968 7        43.500    23872515.465 7  97754010.56748
        31.500    23872514.83648  23872512.930 4  93680922.465 4        34.200
  23990057.781 6 126068623.154 6        38.400    23990064.391 6  98235337.49246
        23.000    23990063.90646  23990059.160 1  94142183.636 1        30.100
 17  4  7  0 20  0.0000000  0 10G01G32G08G28G14G03G22G11G27G10
  20734343.867 9 108959727.044 9        53.200    20734350.637 9  84903719.62749
        47.300    20734350.64149  20734347.035 7  81366047.588 7        42.200
  22217860.586 9 116755651.409 9        48.000    22217867.039 9  90978465.53149
        39.500    22217866.21149  22217862.613 5  87187680.308 5        37.600
  21335117.633 9 112116807.055 9        51.600    21335124.762 9  87363799.22649
        45.400    21335123.86349  21335120.824 6  83723633.322 6        40.700
  23473400.461 7 123353554.005 7        43.500                    96119663.18847
        28.800    23473403.00447
  22060643.336 8 115929480.296 8        46.800                    90334667.46849
        36.700    22060647.14549
  22669841.531 9 119130830.592 9        48.200    22669848.738 8  92829241.63149
        37.900    22669848.17249  22669845.957 5  88961345.198 5        35.800
  21044784.805 9 110591031.345 9        49.800                    86174891.14749
        43.700    21044786.13749
  20071485.945 9 105476384.569 9        49.200                    82189412.73449
        45.300    20071488.73849
  23893704.539 7 125562303.410 7        43.600    23893711.160 7  97840805.18548
        30.300    23893710.38348  23893707.715 3  93764100.633 3        32.000
  24008957.281 6 126167942.450 6        38.400    24008964.289 6  98312729.11046
        23.000    24008963.61346  24008959.453 1  94216350.619 1        30.800
 17  4  7  0 20 30.0000000  0 10G01G32G08G28G14G03G22G11G27G10
  20725738.820 9 108914507.483 9        53.200    20725745.668 9  84868483.60749
        47.200    20725745.49249  20725741.941 7  81332279.737 7        42.300
  22221379.531 9 116774146.902 9        48.300    22221386.344 9  90992877.61449
        39.400    22221385.28549  22221382.094 5  87201491.887 5        37.500
  21348882.109 9 112189139.794 9        51.700    21348889.359 9  87420162.39749
        45.300    21348888.46549  21348885.309 6  83777648.022 6        40.300
  23473717.500 7 123355221.489 7        43.600                    96120962.54147
        28.800    23473721.52047
  22054866.883 9 115899124.471 9        48.700                    90311013.59449
        36.800    22054871.03549
  22652652.766 9 119040505.538 9        48.500    22652660.000 8  92758858.48249
        37.700    22652659.36349  22652657.621 5  88893894.680 5        36.700
  21035088.523 9 110540077.314 9        49.900                    86135186.71549
        43.700    21035089.62149
  20067840.719 9 105457227.967 9        49.200                    82174485.51449
        45.100    20067843.16849
  23914926.719 7 125673823.737 7        42.900    23914932.746 7  97927704.16347
        29.800    23914932.04347  23914929.023 2  93847378.833 2        31.900
  24027873.789 5 126267347.235 5        37.700    24027879.508 6  98390187.38346
        22.500    24027879.40246  24027874.832 2  94290581.455 2        31.300
 17  4  7  0 21  0.0000000  0 10G01G32G08G28G14G03G22G11G27G10
  20717192.305 9 108869595.427 9        53.500    20717199.594 9  84833487.19849
        47.300    20717199.10249  20717195.438 7  81298741.513 7        41.900
  22225012.500 9 116793238.770 9        48.500    22225019.391 9  91007754.39449
        39.200    22225018.66849  22225015.305 6  87215748.804 6        38.100
  21362729.352 9 112261907.732 9        51.600    21362736.906 9  87476864.68049
        45.000    21362735.91049  21362732.930 6  83831987.707 6        40.500
  23474134.398 7 123357411.329 7        43.100                    96122668.89947
        28.000    23474137.67247
  22049193.023 8 115869306.193 8        47.500                    90287778.58149
        36.900    22049196.27749
  22635514.195 8 118950440.975 8        47.900    22635521.449 8  92688678.31349
        37.400    22635520.39549  22635518.941 5  88826638.691 5        35.900
  21025463.461 9 110489496.649 9        50.200                    86095773.21849
        44.300    21025464.77349
  20064291.031 9 105438575.855 9        49.700                    82159951.39349
        45.200    20064293.75849
  23936173.008 7 125785475.720 7        43.400    23936179.824 7  98014705.70248
        30.700    23936179.23848  23936176.102 3  93930755.298 3        33.100
  24046805.586 5 126366835.786 5        37.100    24046811.984 6  98467710.90146
        21.500    24046811.10946  24046807.773 2  94364874.786 2        31.400
 17  4  7  0 21 30.0000000  0 10G01G32G08G28G14G03G22G11G27G10
  20708704.305 9 108824991.910 9        53.700    20708711.824 9  84798731.21349
        47.500    20708711.29749  20708707.516 7  81265433.690 7        42.300
  22228759.406 9 116812926.443 9        48.600    22228765.895 8  91023095.45249
        39.800    22228765.24649  22228761.824 5  87230450.646 5        37.300
  21376659.313 9 112335109.518 9        51.200    21376666.652 9  87533905.01949
        45.300    21376665.48849  21376662.859 6  83886651.365 6        40.300
  23474649.883 7 123360123.312 7        42.600                    96124782.11647
        29.200    23474653.95347
  22043621.281 8 115840026.849 8        47.800                    90264963.52249
        36.600    22043624.41449
  22618425.445 9 118860638.290 9        48.000    22618432.215 8  92618702.19849
        38.700    22618431.50049  22618429.758 5  88759578.251 5        36.600
  21015909.313 9 110439289.819 9        50.300                    86056651.01849
        44.100    21015910.83649
  20060837.836 9 105420429.177 9        49.000                    82145811.11849
        45.100    20060840.84449
  23957443.852 7 125897257.302 7        42.800    23957451.770 7  98101808.23448
        31.700    23957451.01248  23957448.168 3  94014228.563 3        33.600
  24065753.211 6 126466406.410 6        39.300    24065759.156 6  98545298.38347
        25.400    24065759.18047  24065754.199 1  94439229.453 1        29.900
 17  4  7  0 22  0.0000000  0 10G01G32G08G28G14G03G22G11G27G10
  20700275.609 9 108780697.823 9        53.300    20700282.758 9  84764216.33649
        47.500    20700282.41049  20700278.395 7  81232356.939 7        41.800
  22232619.070 9 116833209.201 9        49.400    22232625.031 9  91038900.21349
        39.400    22232624.45749  22232620.977 5  87245596.869 5        37.300
  21390671.164 9 112408743.349 9        51.300    21390678.695 9  87591282.02049
        44.900    21390677.54749  21390674.801 6  83941637.661 6        40.400
  23475265.180 7 123363356.974 7        42.800                    96127301.85247
        28.400    23475268.61747
  22038151.945 8 115811287.483 8        46.700                    90242569.22549
        36.400    22038155.86349
  22601386.672 9 118771098.599 9        48.200    22601393.871 8  92548931.01349
        37.600    22601393.07449  22601391.504 5  88692714.193 5        36.600
  21006426.828 9 110389457.287 9        50.500                    86017820.47949
        44.200    21006427.75449
  20057481.250 9 105402788.915 9        49.400                    82132065.45749
        45.000    20057483.95349
  23978738.398 7 126009166.283 7        42.200    23978746.484 7  98189010.02947
        29.200    23978745.52347  23978742.855 3  94097796.959 3        32.800
  24084716.141 6 126566057.339 6        39.400    24084722.941 7  98622948.43447
        25.600    24084722.97747  24084717.410 1  94513644.108 1        29.600
 17  4  7  0 22 30.0000000  0 10G01G32G08G28G14G03G22G11G27G10
  20691905.930 9 108736714.153 9        52.700    20691912.664 9  84729943.35549
        47.500    20691912.69549  20691908.738 7  81199511.999 7        42.600
  22236591.891 9 116854086.461 9        49.100    22236598.453 9  91055168.20749
        39.800    22236597.53549  22236594.113 5  87261187.036 5        37.000
  21404765.297 9 112482807.482 9        51.600    21404772.473 9  87648994.32349
        45.200    21404771.57849  21404768.953 6  83996945.279 6        40.500
  23475980.203 7 123367111.884 7        42.000                    96130227.75347
        28.300    23475982.57447
  22032785.945 8 115783089.471 8        47.500                    90220596.76049
        37.100    22032790.30149
  22584397.656 9 118681823.161 9        48.200    22584404.848 8  92479365.75349
        38.000    22584404.21549  22584402.941 5  88626047.486 5        36.700
  20997015.000 9 110339999.520 9        51.100                    85979281.96449
        43.900    20997016.15649
  20054220.805 9 105385656.423 9        48.900                    82118715.46449
        45.100    20054223.93449
  24000059.680 7 126121200.632 7        42.700    24000065.906 7  98276309.52948
        30.000    24000064.89148  24000062.164 3  94181458.970 3        32.300
  24103694.344 6 126665787.119 6        38.700    24103700.820 6  98700659.89346
        22.300    24103700.29746  24103696.137 1  94588117.605 1        29.300
 17  4  7  0 23  0.0000000  0 11G01G32G08G28G14G17G03G22G11G27G10
  20683595.125 9 108693041.688 9        52.600    20683602.133 9  84695912.86549
        47.500    20683601.96949  20683598.246 7  81166899.439 7        42.400
  22240677.688 9 116875557.362 9        49.800    22240684.313 9  91071898.78549
        39.500    22240683.38349  22240679.961 5  87277220.510 5        37.900
  21418940.625 9 112557299.810 9        51.400    21418948.121 9  87707040.28449
        44.800    21418946.89149  21418943.793 6  84052572.664 6        40.700
  23476793.945 7 123371387.376 7        42.600                    96133559.30647
        28.600    23476796.70347
  22027523.172 8 115755433.938 8        46.900                    90199047.00749
        37.200    22027527.45349
  25595848.641 6 134507100.51416        38.500    25595853.066 5 104810737.85156
        20.900    25595852.09046
  22567459.836 8 118592813.043 8        47.700    22567466.930 8  92410007.21949
        37.900    22567466.05949  22567464.898 5  88559578.893 5        36.900
  20987674.852 9 110290916.512 9        50.500                    85941035.47049
        44.100    20987675.96549
  20051057.336 9 105369032.277 9        48.900                    82105761.57749
        45.600    20051060.32049
  24021401.859 7 126233358.148 7        43.400    24021409.184 7  98363704.98548
        30.500    24021408.18848  24021406.109 3  94265212.957 3        33.700
  24122686.297 6 126765593.857 6        38.900    24122692.844 6  98778431.35146
        23.000    24122692.89546  24122688.617 1  94662648.589 1        29.500
 17  4  7  0 23 30.0000000  0 11G01G32G08G28G14G17G03G22G11G27G10
  20675343.836 9 108649681.450 9        52.900    20675350.801 9  84662125.66249
        47.500    20675350.71949  20675347.051 7  81134520.040 7        42.700
  22244875.898 9 116897621.189 9        49.200    22244883.066 8  91089091.39149
        39.000    22244882.03549  22244878.727 5  87293696.755 5        37.700
  21433197.398 9 112632219.025 9        51.200    21433204.957 9  87765418.87949
        44.600    21433203.81649  21433200.840 6  84108518.812 6        40.500
  23477706.398 7 123376183.030 7        43.200                    96137296.17247
        27.400    23477709.87147
  22022364.648 8 115728322.134 8        47.000                    90177920.93949
        38.300    22022368.18049
  25575980.719 5 134402694.997 5        37.900    25575985.105 5 104729382.87346
        20.400    25575984.66446
  22550572.195 8 118504069.530 8        47.500    22550579.434 8  92340856.43949
        37.600    22550578.38749  22550577.402 5  88493309.406 5        36.200
  20978406.039 9 110242208.840 9        50.400                    85903081.44749
        44.600    20978407.55549
  20047990.977 9 105352917.506 9        49.000                    82093204.60749
        45.100    20047993.89849
  24042767.414 7 126345636.632 7        43.000    24042774.758 7  98451194.71548
        31.700    24042774.21148  24042771.836 4  94349057.249 4        34.000
  24141693.875 6 126865475.898 6        40.100    24141699.613 6  98856261.54647
        25.000    24141699.79747  24141695.113 1  94737235.851 1        28.900
 17  4  7  0 24  0.0000000  0 11G01G32G08G28G14G17G03G22G11G27G10
  20667152.531 9 108606634.801 9        52.500    20667159.438 9  84628582.82649
        47.400    20667158.87549  20667155.387 7  81102374.825 7        42.500
  22249187.742 9 116920277.690 9        50.000    22249194.141 8  91106745.80849
        38.800    22249193.12949  22249189.883 5  87310615.574 5        37.400
  21447534.734 9 112707563.325 9        51.200    21447542.414 9  87824128.71749
        44.600    21447541.32449  21447538.582 6  84164782.405 6        40.500
  23478718.016 7 123381498.843 7        43.000                    96141438.35847
        28.900    23478721.39147
  22017308.516 8 115701755.429 8        47.800                    90157219.63349
        37.100    22017312.25449
  25556124.859 6 134298349.539 6        39.700    25556128.840 5 104648074.73046
        22.800    25556128.83246
  22533736.297 8 118415594.224 8        47.700    22533743.238 8  92271914.64449
        38.700    22533742.70749  22533741.137 5  88427240.191 5        36.700
  20969208.727 9 110193877.226 9        50.200                    85865420.45649
        44.400    20969210.28149
  20045021.789 9 105337314.162 9        49.000                    82081046.15249
        45.800    20045024.44549
  24064156.445 7 126458034.539 7        42.900    24064162.801 7  98538777.48948
        30.200    24064162.30948  24064159.113 3  94432990.762 3        32.500
  24160714.469 6 126965432.166 6        39.600    24160721.078 6  98934149.55646
        22.600    24160720.95746  24160716.566 1  94811878.522 1        30.000
 17  4  7  0 24 30.0000000  0 11G01G32G08G28G14G17G03G22G11G27G10
  20659020.945 9 108563902.223 9        53.100    20659027.730 9  84595284.70949
        47.600    20659027.23449  20659023.684 7  81070464.136 7        42.700
  22253611.406 9 116943525.580 9        49.400    22253618.297 8  91124861.05049
        38.900    22253617.42249  22253614.176 5  87327976.012 5        37.500
  21461953.289 9 112783330.878 9        51.200    21461960.695 9  87883168.35549
        44.900    21461959.86749  21461956.656 6  84221362.057 6        40.700
  23479828.750 7 123387333.591 7        43.900                    96145984.91647
        28.100    23479831.06647
  22012357.297 8 115675734.517 8        47.500                    90136943.60849
        36.900    22012360.68849
  25536280.672 6 134194065.894 6        40.200    25536284.918 6 104566814.73747
        25.000    25536284.31347
  22516951.203 8 118327387.674 8        47.500    22516957.840 8  92203182.27049
        38.500    22516956.96949  22516955.691 5  88361371.671 5        36.300
  20960083.266 9 110145921.689 9        50.200                    85828052.50949
        44.700    20960084.72749
  20042149.531 9 105322222.247 9        49.100                    82069286.21749
        45.000    20042152.29749
  24085567.297 7 126570549.179 7        43.000    24085574.266 7  98626451.26847
        29.900    24085573.62547  24085570.898 2  94517011.461 2        31.900
  24179749.430 6 127065460.526 6        39.900    24179756.348 6  99012093.70946
        24.500    24179755.72746  24179752.328 1  94886574.967 1        30.900
 17  4  7  0 25  0.0000000  0 11G01G32G08G28G14G17G03G22G11G27G10
  20650949.172 9 108521484.464 9        52.800    20650956.258 9  84562231.90649
        47.600    20650955.79349  20650952.363 7  81038788.534 7        42.600
  22258147.797 9 116967363.885 9        49.200    22258154.598 9  91143436.35549
        39.100    22258154.09449  22258150.438 5  87345777.346 5        37.800
  21476451.047 9 112859519.223 9        50.900    21476458.613 9  87942535.88749
        44.300    21476457.75449  21476454.777 7  84278255.939 7        41.100
  23481037.203 7 123393686.862 7        43.300                    96150935.50347
        27.900    23481040.09047
  22007509.789 8 115650260.303 8        47.600                    90117093.59649
        37.100    22007513.21149
  25516447.789 6 134089845.739 6        38.100    25516452.465 6 104485604.29646
        20.100    25516452.55546
  22500217.273 9 118239451.194 9        48.000    22500224.527 8  92134660.34649
        38.400    22500223.56649  22500222.055 5  88295704.827 5        36.800
  20951029.430 9 110098342.633 9        50.700                    85790977.92449
        44.500    20951030.95749
  20039375.297 9 105307642.608 9        48.800                    82057925.45149
        45.300    20039378.55549
  24106999.125 7 126683178.238 7        42.400    24107007.523 7  98714214.14448
        30.600    24107006.94948  24107003.934 3  94601117.551 3        33.500
  24198798.117 6 127165559.143 6        40.000    24198804.133 6  99090092.58846
        23.600    24198804.16446  24198800.008 1  94961323.902 1        29.600
 17  4  7  0 25 30.0000000  0 11G01G32G08G28G14G17G03G22G11G27G10
  20642937.320 9 108479382.654 9        53.200    20642944.211 9  84529425.29749
        48.100    20642944.00449  20642940.281 7  81007348.870 7        42.400
  22262796.070 9 116991791.953 9        49.600    22262802.527 9  91162471.21649
        39.300    22262801.89849  22262798.535 5  87364019.096 5        37.500
  21491029.164 9 112936126.748 9        51.000    21491036.711 9  88002230.05049
        44.100    21491035.45749  21491032.418 6  84335462.846 6        40.400
  23482344.688 7 123400558.187 7        43.000                    96156289.77247
        27.600    23482347.24247
  22002766.156 8 115625334.085 8        47.400                    90097670.58849
        37.400    22002770.01649
  25496627.586 5 133985691.457 5        37.700    25496632.578 6 104404444.99046
        22.600    25496631.96146
  22483535.367 9 118151785.949 9        48.100    22483542.117 8  92066349.77649
        38.300    22483541.36749  22483539.680 5  88230240.538 5        37.000
  20942047.117 9 110051140.402 9        51.200                    85754196.97249
        44.700    20942048.47749
  20036698.500 9 105293576.511 9        48.600                    82046964.85949
        45.100    20036701.73449
  24128454.148 7 126795919.837 7        43.100    24128461.195 7  98802064.70848
        30.100    24128460.78948  24128457.418 3  94685307.696 3        32.600
  24217858.930 6 127265726.598 6        39.200    24217864.969 6  99168145.16646
        22.800    24217864.96146  24217861.211 1  95036124.272 1        28.200
 17  4  7  0 26  0.0000000  0 11G01G32G08G28G14G17G03G22G11G27G10
  20634985.852 9 108437597.582 9        53.400    20634993.180 9  84496865.50549
        47.900    20634992.93849  20634989.215 7  80976145.733 7        42.500
  22267556.805 9 117016808.830 9        48.900    22267563.578 9  91181964.89449
        40.300    22267562.91049  22267559.723 6  87382700.533 6        38.300
  21505686.484 9 113013151.842 9        51.300    21505693.824 9  88062249.58949
        44.300    21505692.77049  21505689.613 6  84392981.572 6        39.900
  23483750.688 7 123407946.817 7        43.700                    96162047.16747
        28.200    23483754.06647
  21998127.172 9 115600956.703 9        48.400                    90078675.23049
        38.300    21998131.09449
  25476821.836 7 133881604.959 7        42.200    25476825.035 3 104323338.70946
        22.500    25476824.36346
  22466904.813 9 118064393.040 9        48.900    22466911.969 8  91998251.40249
        38.700    22466911.05949  22466909.313 5  88164979.595 5        36.500
  20933136.641 9 110004315.232 9        51.100                    85717709.83649
        44.500    20933137.64549
  20034119.570 9 105280024.728 9        48.600                    82036405.02149
        45.400    20034122.81649
  24149928.430 7 126908771.671 7        41.700    24149934.945 7  98890001.23647
        29.200    24149934.43847  24149931.418 2  94769580.195 2        31.900
  24236932.336 5 127365961.155 5        37.600    24236939.418 6  99246250.00546
        22.600    24236938.91046  24236935.219 1  95110974.771 1        29.000
 17  4  7  0 26 30.0000000  0 11G01G32G08G28G14G17G03G22G11G27G10
  20627095.008 9 108396130.487 9        54.100    20627102.055 9  84464553.47749
        48.000    20627101.77049  20627098.105 7  80945180.034 7        42.100
  22272429.320 9 117042413.905 9        49.300    22272435.973 8  91201916.90649
        39.500    22272435.12549  22272431.703 5  87401821.212 5        37.700
  21520423.070 9 113090592.617 9        51.600    21520430.395 9  88122593.04949
        44.700    21520429.39149  21520426.410 6  84450810.717 6        39.900
  23485254.859 7 123415852.545 7        42.900                    96168207.46947
        27.900    23485258.48847
  21993592.898 9 115577129.244 9        48.400                    90060108.39449
        37.200    21993596.74249
  25457028.469 7 133777588.658 7        41.700    25457031.918 6 104242286.99446
        23.400    25457031.25046
  22450327.094 9 117977273.860 9        49.000    22450334.207 8  91930366.33649
        38.800    22450333.70749  22450331.320 5  88099923.064 5        36.500
  20924297.836 9 109957867.791 9        51.700                    85681517.02949
        44.600    20924298.97349
  20031639.086 9 105266988.475 9        49.200                    82026246.89949
        44.900    20031642.01249
  24171424.391 7 127021731.925 7        42.100    24171431.930 7  98978022.22448
        30.200    24171431.11748  24171427.633 3  94853933.644 3        33.100
  24256019.406 5 127466261.528 5        37.800    24256026.410 6  99324406.09346
        21.800    24256026.22346  24256021.949 1  95185874.370 1        30.100
 17  4  7  0 27  0.0000000  0 11G01G32G08G28G14G17G03G22G11G27G10
  20619264.461 9 108354981.909 9        53.900    20619271.871 9  84432489.65149
        48.000    20619271.53949  20619267.582 7  80914452.205 7        42.800
  22277413.430 9 117068605.845 9        49.300    22277420.121 8  91222326.22649
        39.400    22277419.14149  22277416.184 5  87421380.137 5        37.600
  21535238.172 9 113168447.022 9        50.800    21535245.797 9  88183258.80249
        43.900    21535244.60949  21535241.574 6  84508948.729 6        39.900
  23486858.109 7 123424274.035 7        43.600                    96174769.65547
        27.900    23486861.02747
  21989163.930 8 115553852.449 8        47.300                    90041970.65349
        37.700    21989167.17249
  25437246.969 5 133673644.577 5        36.900    25437250.691 5 104161291.56445
        17.800    25437250.13345
  22433801.023 9 117890429.148 9        48.800    22433808.379 8  91862695.13849
        38.900    22433807.21549  22433805.234 5  88035071.500 5        37.100
  20915530.992 9 109911797.824 9        51.200                    85645618.36449
        44.600    20915532.21949
  20029256.734 9 105254467.992 9        49.000                    82016490.66949
        45.200    20029259.62949
  24192940.781 7 127134798.047 7        41.600    24192947.664 7  99066125.65647
        29.900    24192947.15647  24192944.551 3  94938366.108 3        33.400
  24275117.641 5 127566625.685 5        36.800    24275124.066 5  99402611.92246
        20.400    24275123.91846  24275120.582 1  95260821.597 1        28.700
 17  4  7  0 27 30.0000000  0 11G01G32G08G28G14G17G03G22G11G27G10
  20611495.172 9 108314152.998 9        53.700    20611502.551 9  84400674.92049
        48.100    20611502.19549  20611498.000 7  80883963.082 7        42.500
  22282509.047 9 117095384.043 9        48.500    22282516.059 9  91243192.34849
        39.000    22282515.08249  22282511.715 5  87441376.846 5        37.500
  21550131.672 9 113246713.399 9        50.800    21550139.266 9  88244245.57449
        44.400    21550138.31349  21550135.449 6  84567394.387 6        39.900
  23488558.391 7 123433211.035 7        43.600                    96181733.53447
        27.700    23488561.42647
  21984839.477 9 115531127.584 9        48.500                    90024262.98049
        36.900    21984842.90649
  25417483.234 6 133569774.995 6        40.900    25417486.730 6 104080354.24747
        26.600    25417485.94947
  22417327.344 9 117803860.285 9        49.600    22417334.363 8  91795238.88849
        38.800    22417333.60549  22417331.625 5  87970425.937 5        37.000
  20906835.938 9 109866106.079 9        50.400                    85610014.40049
        44.800    20906837.11749
  20026972.563 9 105242464.668 9        48.900                    82007137.43149
        45.100    20026975.43849
  24214475.828 7 127247968.082 7        42.500    24214481.891 7  99154310.11847
        28.800    24214481.28947  24214478.859 3  95022876.191 3        32.400
  24294228.477 5 127667052.257 5        36.100    24294235.043 5  99480866.42545
        19.300    24294234.94545  24294230.965 1  95335815.461 1        25.300
 17  4  7  0 28  0.0000000  0 11G01G32G08G28G14G17G03G22G11G27G10
  20603786.445 9 108273644.623 9        53.400    20603793.840 9  84369109.94749
        48.100    20603793.35249  20603789.449 7  80853713.319 7        42.700
  22287716.273 9 117122747.423 9        48.900    22287722.762 8  91264514.45849
        39.100    22287722.05149  22287718.570 5  87461810.542 5        37.400
  21565103.359 9 113325389.674 9        50.800    21565110.852 9  88305551.75349
        43.900    21565109.75049  21565106.945 6  84626146.141 6        40.200
  23490357.234 7 123442663.037 7        43.700                    96189098.74447
        28.200    23490360.37947
  21980619.945 9 115508955.774 9        48.900                    90006986.24449
        37.400    21980623.54749
  25397731.266 6 133465981.747 6        40.900    25397734.762 5 103999476.38546
        22.800    25397734.23446
  22400906.219 9 117717568.342 9        49.100    22400913.543 8  91727998.43649
        39.200    22400912.91849  22400910.996 5  87905987.169 5        37.100
  20898213.125 9 109820792.648 9        51.300                    85574705.24149
        44.500    20898214.12549
  20024786.672 9 105230979.597 9        48.900                    81998188.01749
        45.000    20024789.93049
  24236030.750 7 127361239.959 7        42.000    24236038.289 7  99242573.91947
        29.300    24236037.35947  24236033.871 2  95107462.318 2        31.200
  24313351.195 5 127767539.610 5        35.400    24313357.680 5  99559168.21045
        18.600    24313356.54745  24313352.332 1  95410854.714 1        26.400
 17  4  7  0 28 30.0000000  0 11G01G32G08G28G14G17G03G22G11G27G10
  20596139.422 9 108233457.987 9        54.200    20596146.488 9  84337795.68749
        48.200    20596146.21949  20596142.438 7  80823703.815 7        43.200
  22293034.688 8 117150695.309 8        47.900    22293040.719 8  91286292.05149
        38.800    22293040.07049  22293036.762 5  87482680.727 5        37.600
  21580153.047 9 113404474.136 9        50.600    21580159.930 9  88367175.99749
        43.900    21580158.67249  21580155.691 6  84685202.709 6        39.600
  23492253.594 7 123452629.380 7        42.500                    96196864.70947
        27.600    23492256.65247
  21976506.586 9 115487338.204 9        48.100                    89990141.40149
        37.400    21976509.80149
  25377993.703 6 133362267.381 6        38.100    25377998.004 4 103918660.03445
        19.000    25377997.99645
  22384538.711 9 117631554.688 9        49.900    22384545.270 8  91660974.80849
        39.300    22384544.70349  22384542.898 5  87841756.185 5        37.200
  20889662.680 9 109775858.319 9        50.700                    85539691.48949
        44.600    20889663.67649
  20022699.594 9 105220013.736 9        49.300                    81989643.18549
        45.200    20022703.20749
  24257605.156 7 127474611.656 7        41.700    24257611.879 7  99330915.51448
        30.500    24257611.19548  24257608.000 3  95192123.038 3        32.200
  24332484.742 5 127868086.410 5        36.200    24332491.086 5  99637516.37445
        19.300    24332490.78945  24332486.160 1  95485938.373 1        25.700
 17  4  7  0 29  0.0000000  0 11G01G32G08G28G14G17G03G22G11G27G10
  20588553.383 9 108193593.677 9        54.500    20588560.590 9  84306732.58649
        48.100    20588560.25049  20588556.586 7  80793935.017 7        42.500
  22298463.836 9 117179226.362 9        49.800    22298469.895 8  91308524.05749
        38.900    22298468.95349  22298465.707 5  87503986.396 5        37.700
  21595279.344 9 113483964.599 9        50.900    21595286.652 9  88429116.60849
        43.600    21595285.55149  21595282.805 6  84744562.458 6        40.100
  23494247.734 7 123463108.879 7        43.700                    96205030.53947
        27.900    23494251.24647
  21972498.227 9 115466274.927 9        49.300                    89973728.46949
        37.800    21972501.79749
  25358272.492 5 133258633.643 5        37.900    25358277.660 5 103837906.36146
        20.100    25358277.07446
  22368223.625 9 117545820.150 9        50.000    22368230.605 8  91594168.67849
        39.000    22368229.86749  22368228.238 5  87777733.650 5        37.300
  20881184.078 9 109731302.895 9        52.000                    85504972.97649
        44.900    20881184.52049
  20020712.031 9 105209567.512 9        49.600                    81981503.26849
        44.700    20020715.25849
  24279196.961 7 127588080.766 7        42.000    24279204.469 7  99419332.97447
        29.800    24279203.81347  24279200.852 3  95276856.445 3        32.800
  24351628.648 5 127968690.743 5        35.400    24351634.977 5  99715909.34145
        17.800    24351635.22345  24351631.238 1  95561064.983 1        29.100
 17  4  7  0 29 30.0000000  0 11G01G32G08G28G14G17G03G22G11G27G10
  20581028.938 9 108154052.774 9        53.200    20581036.035 9  84275921.49349
        48.300    20581035.76249  20581032.270 7  80764407.719 7        42.600
  22304003.750 9 117208339.658 9        48.700    22304010.656 9  91331209.74649
        39.000    22304009.90649  22304006.426 5  87525726.849 5        36.900
  21610482.734 9 113563859.108 9        51.000    21610490.250 9  88491372.05749
        44.300    21610489.07849  21610486.156 6  84804223.929 6        39.800
  23496339.750 7 123474101.027 7        44.100                    96213595.83947
        27.500    23496342.93447
  21968595.813 9 115445767.137 9        49.300                    89957748.37949
        37.500    21968598.96149
  25338568.773 6 133155082.737 6        38.900    25338573.180 6 103757217.45146
        22.300    25338573.40646
  22351962.273 9 117460365.899 9        50.100    22351969.207 8  91527580.95749
        39.300    22351968.15649  22351967.117 5  87713920.417 5        37.900
  20872777.609 9 109687126.625 9        50.300                    85470549.91449
        45.000    20872778.50049
  20018823.430 9 105199641.787 9        49.300                    81973768.93249
        44.800    20018826.34849
  24300807.461 7 127701645.299 7        41.400    24300814.523 7  99507824.79447
        29.000    24300813.83247  24300810.988 2  95361661.071 2        31.600
  24370784.000 3 128069351.23613        33.600    24370789.621 4  99794346.06655
        16.900    24370789.06645  24370786.195 1  95636233.48411        27.800
 17  4  7  0 30  0.0000000  0 11G01G32G08G28G14G17G03G22G11G27G10
  20573566.289 9 108114836.208 9        54.400    20573573.574 9  84245363.12649
        48.200    20573573.27049  20573569.484 7  80735122.624 7        42.500
  22309654.344 9 117238034.267 9        49.700    22309661.363 8  91354348.39949
        38.900    22309660.31649  22309656.660 5  87547901.402 5        37.300
  21625762.891 9 113644156.132 9        50.700    21625769.996 9  88553941.16249
        43.600    21625768.95749  21625766.035 6  84864185.985 6        39.800
  23498528.492 7 123485604.869 7        43.000                    96222559.86547
        28.700    23498531.66047
  21964798.891 9 115425815.705 9        49.000                    89942201.81749
        36.900    21964802.91849
  25318880.313 6 133051617.135 6        40.500    25318884.770 6 103676594.94647
        25.700    25318884.42647
  22335754.430 9 117375193.133 9        50.800    22335761.625 8  91461212.58249
        38.600    22335760.40649  22335759.246 6  87650317.413 6        38.100
  20864443.523 9 109643330.010 9        51.400                    85436422.68749
        44.700    20864444.53149
  20017033.820 9 105190237.443 9        49.400                    81966440.87049
        45.100    20017036.97349
  24322436.164 7 127815303.059 7        41.400    24322442.941 7  99596389.33647
        29.300    24322442.11747  24322439.098 1  95446535.441 1        30.800
  24389949.141 5 128170066.341 5        35.200    24389955.164 5  99872825.39445
        17.400    24389954.80545  24389951.406 1  95711442.769 1        29.100
 17  4  7  0 30 30.0000000  0 11G01G32G08G28G14G17G03G22G11G27G10
  20566165.773 9 108075944.869 9        54.500    20566172.855 9  84215058.19249
        48.300    20566172.62949  20566168.789 7  80706080.388 7        42.500
  22315415.266 9 117268308.980 9        48.200    22315422.555 8  91377939.09549
        38.400    22315421.84449  22315418.301 5  87570509.145 5        37.600
  21641118.969 9 113724853.486 9        50.800    21641126.566 9  88616822.20249
        43.200    21641125.23049  21641122.309 6  84924446.981 6        39.700
  23500815.164 7 123497619.922 7        42.100                    96231922.23847
        28.000    23500818.55147
  21961108.625 9 115406421.367 9        48.900                    89927089.35649
        37.000    21961111.97349
  25299207.680 6 132948238.820 6        40.600    25299211.426 6 103596040.35646
        24.800    25299211.24646
  22319600.477 9 117290302.814 9        49.700    22319607.652 8  91395064.29249
        39.600    22319606.91049  22319605.750 5  87586925.305 5        37.600
  20856181.180 9 109599913.237 9        51.300                    85402591.43649
        44.800    20856182.55549
  20015343.742 9 105181355.462 9        49.700                    81959519.84149
        44.900    20015346.57849
  24344082.102 6 127929051.875 6        40.900    24344089.859 7  99685024.74447
        29.200    24344089.03947  24344085.902 3  95531477.741 3        32.700
  24409124.398 5 128270834.360 5        35.400    24409131.527 6  99951345.92245
        17.400    24409131.08645  24409126.578 1  95786691.627 1        27.700
 17  4  7  0 31  0.0000000  0 11G01G32G08G28G14G17G03G22G11G27G10
  20558826.859 9 108037379.655 9        54.600    20558833.824 9  84185007.37249
        48.200    20558833.69949  20558829.738 7  80677281.688 7        42.300
  22321287.047 8 117299162.737 8        47.900    22321293.371 8  91401980.98649
        38.900    22321292.80549  22321289.324 5  87593549.293 5        37.100
  21656550.945 9 113805948.954 9        50.900    21656558.465 9  88680013.46449
        43.300    21656557.48849  21656554.156 6  84985005.273 6        40.000
  23503198.641 7 123510145.213 7        43.200                    96241682.19747
        27.600    23503202.18447
  21957524.352 9 115387585.335 9        49.700                    89912411.93849
        37.400    21957527.76649
  25279551.727 5 132844949.994 5        37.600    25279555.855 5 103515555.46546
        20.400    25279555.45746
  22303500.313 9 117205696.067 9        50.300    22303507.652 8  91329136.97149
        39.700    22303506.62949  22303505.293 5  87523744.955 5        37.300
  20847991.547 9 109556876.523 9        51.700                    85369056.34349
        44.800    20847993.04349
  20013753.102 9 105172996.510 9        49.500                    81953006.37249
        45.400    20013755.86349
  24365744.094 6 128042889.622 6        40.700    24365751.391 7  99773729.44248
        30.400    24365750.91048  24365748.480 3  95616486.401 3        33.200
  24428309.680 3 128371653.83113        33.700    24428316.828 6 100029906.51455
        16.900    24428316.98445  24428310.953 1  95861978.89011        27.200
 17  4  7  0 31 30.0000000  0 11G01G32G08G28G14G17G03G22G11G27G10
  20551550.406 9 107999141.801 9        55.000    20551557.398 9  84155211.64749
        48.300    20551557.11749  20551553.273 7  80648727.451 7        42.700
  22327268.609 9 117330594.743 9        48.100    22327274.938 8  91426473.46749
        39.000    22327274.34049  22327270.855 5  87617021.253 5        37.700
  21672058.797 9 113887441.068 9        50.700    21672065.984 9  88743513.80249
        44.100    21672065.10549  21672062.359 6  85045859.761 6        39.200
  23505678.992 7 123523180.123 7        41.700                    96251839.25547
        27.800    23505681.49247
  21954046.180 9 115369308.432 9        48.500                    89898170.20449
        37.700    21954049.71549
  25259913.836 6 132741752.953 6        38.700    25259917.613 5 103435142.21146
        20.100    25259917.04346
  22287454.266 9 117121374.236 9        50.400    22287461.324 8  91263431.66049
        39.700    22287460.64149  22287458.836 5  87460777.364 5        37.800
  20839874.570 9 109514220.470 9        51.400                    85335817.87449
        45.100    20839875.53549
  20012262.508 9 105165161.917 9        48.600                    81946901.48649
        44.900    20012264.73449
  24387423.555 7 128156814.422 7        41.300    24387429.945 7  99862502.04847
        27.200    24387429.39847  24387426.965 2  95701560.109 2        31.500
  24447504.922 3 128472523.50413        33.000    24447511.477 6 100108506.18755
        16.900    24447512.04345  24447506.832 1  95937303.60811        27.500
 17  4  7  0 32  0.0000000  0 11G01G32G08G28G14G17G03G22G11G27G10
  20544336.367 9 107961231.932 9        55.200    20544343.711 9  84125671.48049
        48.700    20544343.19949  20544339.531 7  80620418.120 7        42.700
  22333359.172 9 117362603.526 9        48.500    22333366.035 9  91451415.38049
        39.200    22333365.66849  22333362.188 5  87640923.923 5        36.900
  21687640.836 9 113969327.533 9        50.500    21687648.223 9  88807321.43049
        43.500    21687647.11749  21687644.371 6  85107008.742 6        39.900
  23508256.281 7 123536723.370 7        43.100                    96262392.45147
        28.700    23508258.57847
  21950674.281 9 115351590.979 9        48.500                    89884364.41049
        37.700    21950677.90649
  25240295.234 7 132638649.440 7        41.500    25240298.594 6 103354801.83546
        23.900    25240298.53946
  22271462.578 9 117037338.114 9        50.200    22271469.742 8  91197948.97649
        39.500    22271468.93049  22271467.242 5  87398023.126 5        37.500
  20831829.781 9 109471944.534 9        51.900                    85302875.58449
        44.900    20831831.09449
  20010871.086 9 105157851.536 9        48.600                    81941205.08249
        45.300    20010873.78949
  24409119.047 7 128270823.806 7        41.400    24409125.609 7  99951340.54047
        28.400    24409124.93847  24409121.570 1  95786697.002 1        30.000
  24466709.008 3 128573441.55913        33.100    24466715.477 5 100187143.61355
        16.900    24466715.74245  24466711.992 1  96012664.48411        27.500
 17  4  7  0 32 30.0000000  0 11G01G32G08G28G14G17G03G22G11G27G10
  20537184.883 9 107923650.795 9        54.900    20537191.996 9  84096387.47949
        48.400    20537191.60549  20537187.648 7  80592354.289 7        42.300
  22339560.039 8 117395187.788 8        47.200    22339566.797 9  91476805.71649
        38.900    22339566.11349  22339562.926 5  87665256.331 5        37.000
  21703297.891 9 114051606.010 9        50.700    21703305.387 9  88871434.52049
        43.000    21703304.18449  21703301.379 6  85168450.445 6        39.600
  23510929.992 7 123550774.119 7        42.700                    96273341.05847
        27.800    23510933.61347
  21947409.695 9 115334433.527 9        48.500                    89870994.97649
        37.700    21947413.43449
  25220694.047 7 132535641.936 7        43.100    25220697.398 6 103274536.31347
        26.100    25220696.61347
  22255525.969 9 116953588.594 9        49.800    22255532.855 8  91132689.61549
        40.500    22255532.25049  22255530.625 5  87335482.910 5        37.800
  20823857.148 9 109430049.157 9        52.200                    85270229.85049
        44.700    20823858.34049
  20009580.070 9 105151066.458 9        48.400                    81935918.00649
        44.900    20009583.10549
  24430829.789 7 128384915.513 7        41.100    24430837.270 7 100040243.12847
        29.100    24430836.63347  24430833.559 3  95871895.349 3        32.400
  24485921.906 4 128674406.250 4        34.700    24485927.887 5 100265817.46545
        17.400    24485927.53545  24485923.438 1  96088060.178 1        26.800
 17  4  7  0 33  0.0000000  0 11G01G32G08G28G14G17G03G22G11G27G10
  20530096.281 9 107886399.350 9        54.400    20530103.457 9  84067360.37349
        48.300    20530102.87549  20530098.855 7  80564536.648 7        42.900
  22345869.594 8 117428346.414 8        47.400    22345875.930 8  91502643.61449
        38.200    22345875.51649  22345872.328 5  87690017.649 5        37.300
  21719029.398 9 114134274.627 9        50.800    21719036.770 9  88935851.61749
        42.900    21719035.38349  21719032.402 6  85230183.498 6        39.400
  23513699.906 7 123565331.778 7        42.300                    96284684.69047
        28.000    23513703.64847
  21944251.430 9 115317836.814 9        48.300                    89858062.48549
        37.700    21944255.10249
  25201110.484 7 132432732.653 7        42.100    25201114.617 6 103194347.26247
        26.800    25201114.27747
  22239643.313 9 116870126.773 9        50.100    22239650.652 9  91067654.45049
        39.700    22239649.90249  22239647.922 6  87273157.545 6        38.100
  20815957.383 9 109388534.769 9        51.700                    85237880.98449
        44.900    20815958.39549
  20008388.883 9 105144807.584 9        49.200                    81931040.96349
        45.000    20008391.75849
  24452555.938 7 128499087.355 7        41.700    24452562.598 7 100129208.17847
        29.300    24452562.35247  24452559.742 3  95957153.503 3        32.700
  24505143.570 5 128775416.160 5        35.900    24505150.008 5 100344526.46845
        17.800    24505150.53545  24505145.027 1  96163489.651 1        25.200
 17  4  7  0 33 30.0000000  0 11G01G32G08G28G14G17G03G22G11G27G10
  20523070.703 9 107849478.924 9        53.700    20523077.516 9  84038591.21249
        48.700    20523077.20349  20523073.305 7  80536966.202 7        42.800
  22352288.758 8 117462078.578 8        47.700    22352295.227 8  91528928.42549
        38.600    22352294.08649  22352291.012 5  87715207.254 5        37.000
  21734834.523 9 114217331.791 9        50.500    21734841.719 9  89000571.47549
        43.800    21734840.96549  21734837.813 6  85292206.695 6        39.700
  23516566.898 7 123580395.843 7        43.700                    96296422.91547
        28.300    23516570.11347
  21941199.836 9 115301802.030 9        48.400                    89845567.86349
        37.900    21941203.79749
  25181545.656 6 132329923.989 6        39.200    25181549.969 5 103114236.69346
        20.400    25181550.24246
  22223816.313 9 116786954.091 9        51.100    22223823.496 8  91002844.58249
        40.000    22223822.87949  22223820.898 5  87211048.085 5        37.500
  20808129.789 9 109347401.968 9        51.900                    85205829.45249
        45.100    20808130.96549
  20007298.164 9 105139075.897 9        48.700                    81926574.70649
        45.100    20007301.27349
  24474297.000 6 128613337.577 6        40.600    24474303.832 7 100218234.36547
        26.000    24474303.07047  24474300.109 1  96042470.225 1        30.200
  24524372.953 3 128876470.146 3        33.800    24524380.602 5 100423269.82545
        16.900    24524380.24245  24524374.559 1  96238952.082 1        24.100
 17  4  7  0 34  0.0000000  0 11G01G32G08G28G14G17G03G22G11G27G10
  20516107.859 9 107812890.206 9        53.300    20516114.566 9  84010080.52049
        48.800    20516114.37149  20516110.469 7  80509643.455 7        42.700
  22358816.578 8 117496382.813 8        47.900    22358823.297 8  91555659.00849
        38.400    22358822.25049  22358819.180 5  87740824.061 5        37.100
  21750713.094 9 114300775.376 9        50.300    21750720.641 9  89065592.43249
        43.300    21750719.60949  21750716.746 6  85354518.445 6        39.900
  23519529.016 7 123595964.630 7        43.100                    96308554.43847
        27.600    23519533.12547
  21938255.672 9 115286329.763 9        48.300                    89833511.56049
        38.200    21938259.46149
  25162002.008 6 132227217.755 6        40.400    25162005.000 5 103034205.78846
        20.400    25162004.46546
  22208044.461 9 116704071.366 9        50.500    22208051.410 8  90938260.64449
        40.600    22208050.42249  22208048.914 6  87149155.154 6        38.000
  20800375.141 9 109306650.361 9        50.300                    85174074.96349
        45.100    20800376.32449
  20006307.805 9 105133871.638 9        48.500                    81922519.44149
        45.000    20006311.12549
  24496052.344 7 128727663.873 7        41.300    24496060.266 7 100307319.76047
        29.300    24496059.60247  24496055.234 1  96127843.783 1        30.700
  24543611.141 3 128977566.526 3        33.500    24543618.715 5 100502046.20045
        17.800    24543618.48845  24543613.508 1  96314446.119 1        26.000
 17  4  7  0 34 30.0000000  0 11G01G32G08G28G14G17G03G22G11G27G10
  20509208.430 9 107776634.022 9        53.700    20509215.465 9  83981828.95349
        48.700    20509215.27349  20509211.375 7  80482569.032 7        42.900
  22365453.148 9 117531257.800 9        48.500    22365459.574 8  91582834.32749
        38.700    22365459.08649  22365455.664 5  87766867.074 5        37.300
  21766665.258 9 114384603.173 9        50.200    21766672.660 9  89130912.77849
        42.400    21766671.74649  21766668.883 6  85417117.108 6        39.400
  23522588.617 7 123612037.267 7        42.600                    96321078.55447
        28.300    23522590.80547
  21935418.500 9 115271420.241 9        48.800                    89821893.75849
        38.000    21935422.26649
  25142477.930 7 132124616.393 7        41.100    25142481.797 7 102954256.60347
        26.500    25142481.59447
  22192327.406 9 116621479.551 9        50.200    22192334.313 8  90873903.39949
        40.300    22192333.55949  22192332.047 5  87087479.460 5        37.700
  20792692.891 9 109266280.305 9        50.100                    85142617.78249
        45.200    20792694.23849
  20005417.945 9 105129195.474 9        48.400                    81918875.67149
        45.000    20005421.04749
  24517823.078 7 128842063.924 7        42.300    24517829.402 7 100396462.63147
        29.700    24517828.59447  24517826.453 3  96213272.384 3        33.000
  24562857.719 5 129078703.671 5        35.000    24562863.535 3 100580854.39045
        16.900    24562863.45345  24562859.762 1  96389970.588 1        26.900
 17  4  7  0 35  0.0000000  0 11G01G32G08G28G14G17G03G22G11G27G10
  20502372.742 9 107740711.651 9        53.400    20502380.137 9  83953837.49249
        48.800    20502380.07849  20502376.121 7  80455743.887 7        43.000
  22372197.977 9 117566702.649 9        48.600    22372204.520 9  91610453.68749
        38.400    22372203.85549  22372200.199 5  87793335.636 5        36.000
  21782690.031 9 114468812.977 9        50.900    21782697.332 9  89196530.79949
        42.900    21782696.10549  21782692.953 6  85480001.046 6        39.900
  23525742.367 7 123628612.910 7        42.600                    96333994.62347
        27.400    23525745.71947
  21932688.023 9 115257074.831 9        48.600                    89810715.52349
        37.900    21932691.95749
  25122973.016 6 132022122.184 6        38.900    25122978.070 6 102874391.05246
        23.900    25122977.53546
  22176666.391 9 116539180.026 9        50.500    22176673.531 8  90809773.92549
        40.900    22176672.93049  22176670.949 6  87026022.047 6        38.500
  20785083.609 9 109226292.289 9        50.300                    85111458.30349
        45.200    20785084.75449
  20004628.859 9 105125048.896 9        48.300                    81915644.57249
        45.100    20004631.76649
  24539605.813 6 128956535.982 6        40.100    24539612.316 6 100485661.62247
        25.000    24539612.07847  24539609.352 2  96298754.717 2        31.500
  24582111.539 3 129179880.520 3        33.900    24582116.738 4 100659693.54445
        16.900    24582117.02745  24582112.340 1  96465524.749 1        25.000
 17  4  7  0 35 30.0000000  0 11G01G32G08G28G14G17G03G22G11G27G10
  20495600.617 9 107705123.719 9        54.200    20495607.902 9  83926106.63749
        48.900    20495607.71149  20495603.930 7  80429168.483 7        42.600
  22379051.141 8 117602715.776 8        47.900    22379057.598 8  91638515.86949
        38.300    22379056.73449  22379053.371 5  87820228.559 5        37.300
  21798786.711 9 114553402.780 9        50.300    21798794.004 9  89262444.92849
        42.400    21798792.55149  21798789.453 6  85543168.751 6        38.800
  23528992.383 7 123645690.401 7        43.600                    96347301.75347
        28.300    23528995.24247
  21930066.391 9 115243293.577 9        48.800                    89799976.89649
        38.300    21930070.11749
  25103491.289 7 131919737.492 7        43.400    25103494.891 6 102794610.91347
        25.600    25103494.49247
  22161061.094 9 116457173.505 9        50.200    22161068.523 9  90745872.75349
        41.000    22161067.74249  22161066.176 6  86964783.423 6        38.400
  20777546.445 9 109186685.920 9        50.800                    85080596.19249
        45.100    20777547.72749
  20003940.500 9 105121431.655 9        48.700                    81912825.93849
        44.800    20003943.35949
  24561401.680 7 129071077.589 7        41.700    24561409.227 7 100574914.85847
        26.800    24561407.60247  24561404.348 1  96384289.034 1        28.900
  24601370.844 1 129281095.27411        30.300    24601377.863 5 100738562.17554
        14.800    24601377.23044  24601371.898 1  96541107.17211        24.700
 17  4  7  0 36  0.0000000  0 11G01G32G08G28G14G17G03G22G11G27G10
  20488892.344 9 107669871.314 9        53.400    20488899.703 9  83898637.22549
        48.900    20488899.51249  20488895.379 7  80402843.628 7        43.100
  22386012.016 9 117639296.027 9        48.600    22386018.848 8  91667019.96049
        38.300    22386018.19149  22386014.883 5  87847544.988 5        36.700
  21814955.711 9 114638370.673 9        49.800    21814963.270 9  89328653.66149
        42.600    21814962.65649  21814959.383 6  85606618.787 6        39.400
  23532337.008 7 123663269.149 7        41.800                    96360999.46347
        28.000    23532340.02747
  21927551.008 8 115230077.125 8        47.800                    89789678.36849
        38.100    21927554.75849
  25084029.367 7 131817464.308 7        43.400    25084032.227 5 102714917.32546
        24.500    25084030.82046
  22145511.898 9 116375461.193 9        50.700    22145519.109 8  90682200.83549
        40.600    22145518.25449  22145516.801 5  86903764.513 5        37.600
  20770082.398 9 109147461.472 9        50.700                    85050031.69549
        45.200    20770083.43049
  20003353.203 9 105118344.834 9        48.400                    81910420.61849
        45.200    20003356.19149
  24583212.109 7 129185686.737 7        42.200    24583218.824 7 100664220.65247
        29.100    24583218.46947  24583215.039 2  96469873.813 2        31.100
  24620637.563 1 129382346.658 1        28.900    24620644.934 5 100817459.26645
        15.600    24620645.18045  24620638.207 1  96616716.961 1        23.900
 17  4  7  0 36 30.0000000  0 11G01G32G08G28G14G17G03G22G11G27G10
  20482247.891 9 107634955.011 9        53.700    20482255.406 9  83871429.71449
        48.800    20482254.92249  20482251.137 7  80376769.771 7        43.100
  22393080.828 9 117676441.803 9        48.300    22393087.391 8  91695964.72649
        38.100    22393086.81349  22393083.332 5  87875283.714 5        37.000
  21831195.805 9 114723714.446 9        50.300    21831203.441 9  89395155.29749
        42.400    21831202.64849  21831199.789 6  85670349.517 6        39.900
  23535777.719 7 123681347.679 7        43.700                    96375086.60147
        27.900    23535780.53947
  21925143.492 9 115217425.778 9        48.700                    89779820.17749
        38.100    21925147.21549
  25064585.492 5 131715304.870 5        37.100    25064592.688 6 102635312.68346
        20.600    25064591.28946
  22130018.531 9 116294043.772 9        49.900    22130025.594 9  90618758.70249
        40.900    22130024.62549  22130023.234 6  86842965.807 6        38.400
  20762691.102 9 109108618.941 9        51.400                    85019764.79649
        45.400    20762692.26649
  20002866.750 9 105115788.716 9        48.400                    81908428.83449
        44.900    20002869.66449
  24605033.031 6 129300361.027 6        40.200    24605040.125 6 100753577.20647
        27.300    24605039.78547  24605037.000 3  96555507.164 3        32.400
  24639913.367 2 129483632.789 2        31.900    24639919.254 5 100896383.51745
        16.300    24639918.75845  24639913.602 1  96692352.717 1        24.700
 17  4  7  0 37  0.0000000  0 11G01G32G08G28G14G17G03G22G11G27G10
  20475667.883 9 107600375.993 9        53.400    20475675.094 9  83844485.02549
        48.900    20475674.73049  20475670.949 7  80350947.767 7        43.100
  22400256.953 9 117714151.987 9        48.900    22400263.270 8  91725349.29149
        38.600    22400262.92249  22400259.383 5  87903443.924 5        36.800
  21847507.680 9 114809432.133 9        50.200    21847515.352 9  89461948.27649
        43.000    21847514.49249  21847511.516 6  85734359.456 6        39.200
  23539312.359 7 123699925.247 7        43.000                    96389562.62247
        26.500    23539316.07847
  21922844.055 9 115205340.559 9        49.000                    89770403.13549
        37.500    21922847.48049
  25045170.594 7 131613261.541 7        44.800    25045175.043 6 102555798.45747
        28.300    25045174.39547
  22114581.492 9 116212922.480 9        50.200    22114588.770 9  90555547.32149
        41.000    22114587.88749  22114586.555 6  86782388.234 6        38.400
  20755372.102 9 109070158.913 9        50.300                    84989795.95249
        45.600    20755373.36349
  20002481.711 9 105113764.433 9        48.400                    81906851.46949
        45.000    20002484.74249
  24626866.945 6 129415098.492 6        40.500    24626873.605 6 100842983.04646
        24.700    24626872.24646  24626870.574 2  96641187.688 2        31.700
  24659194.016 2 129584952.524 2        31.300    24659198.977 4 100975334.03845
        16.300    24659199.12545  24659194.793 1  96768013.592 1        26.000
 17  4  7  0 37 30.0000000  0 11G01G32G08G28G14G17G03G22G11G27G10
  20469152.000 9 107566135.175 9        53.500    20469159.074 9  83817803.86849
        49.000    20469158.82849  20469154.988 7  80325378.334 7        43.200
  22407540.117 9 117752425.181 9        49.100    22407546.309 8  91755172.56549
        38.900    22407545.52749  22407542.340 5  87932024.561 5        37.400
  21863889.625 9 114895521.485 9        50.200    21863896.762 9  89529030.87749
        41.900    21863895.62949  21863892.648 6  85798646.943 6        39.100
  23542942.773 7 123719000.626 7        42.400                    96404426.55247
        27.900    23542945.34847
  21920651.883 9 115193821.795 9        48.200                    89761427.49449
        37.600    21920655.44149
  25025774.609 7 131511336.641 7        42.200    25025778.223 5 102476376.39046
        21.300    25025777.27346
  22099201.391 9 116132098.326 9        51.200    22099208.352 8  90492567.47449
        40.400    22099207.73449  22099206.105 6  86722032.555 6        38.700
  20748126.352 9 109032081.512 9        50.200                    84960125.24949
        45.500    20748127.60949
  20002197.758 9 105112272.318 9        48.400                    81905688.77749
        45.100    20002200.57449
  24648712.711 7 129529896.931 7        41.400    24648719.773 7 100932436.37847
        27.900    24648718.90647  24648715.066 1  96726913.821 1        29.100
  24678481.016 1 129686304.41911        28.300    24678485.629 3 101054300.61113
        32.800                    24678482.070 1  96843698.42211        26.400
 17  4  7  0 38  0.0000000  0 11G01G32G08G28G14G17G03G22G11G27G10
  20462700.688 9 107532233.672 9        53.600    20462707.863 9  83791387.11049
        48.900    20462707.35549  20462703.691 7  80300062.267 7        43.100
  22414929.836 9 117791260.186 9        48.400    22414936.121 8  91785433.61249
        37.900    22414935.19549  22414932.418 5  87961024.731 5        36.700
  21880342.328 9 114981980.467 9        49.800    21880349.969 9  89596401.50749
        42.600    21880348.63749  21880345.305 6  85863210.469 6        38.900
  23546667.180 7 123738572.802 7        42.000                    96419677.59247
        26.900    23546670.35947
  21918568.156 8 115182870.068 8        47.300                    89752893.68949
        38.100    21918571.22749
  25006402.406 7 131409532.216 7        42.700    25006405.160 5 102397048.28046
        22.500    25006403.85946
  22083877.688 9 116051572.454 9        51.200    22083884.465 8  90429820.06549
        40.800    22083883.62549  22083882.586 6  86661899.616 6        38.900
  20740953.125 9 108994386.870 9        50.300                    84930752.81449
        45.500    20740954.27749
  20002015.227 9 105111313.152 9        48.500                    81904941.36749
        45.000    20002018.22749
  24670568.922 6 129644754.447 6        40.000    24670577.234 7 101021935.68847
        26.600    24670576.87547  24670573.152 1  96812684.048 1        30.600
  24697770.250 1 129787687.28211        28.900    24697779.035 4 101133300.17614
        34.900                    24697773.473 1  96919406.37811        22.900
 17  4  7  0 38 30.0000000  0 11G01G32G08G28G14G17G03G22G11G27G10
  20456314.195 9 107498672.012 9        54.800    20456321.383 9  83765235.17049
        49.100    20456320.85949  20456317.133 7  80274999.991 7        43.500
  22422426.367 9 117830655.313 9        49.800    22422432.949 8  91816131.11549
        38.200    22422431.94549  22422429.285 5  87990443.167 5        36.800
  21896864.906 9 115068806.724 9        49.700    21896872.348 9  89664058.32649
        42.100    21896871.03149  21896867.992 6  85928048.244 6        38.400
  23550485.734 7 123758640.588 7        42.100                    96435314.82447
        27.600    23550489.15647
  21916591.953 8 115172485.556 8        47.600                    89744801.86649
        38.300    21916595.30949
  24987053.086 7 131307850.710 7        43.400    24987056.629 6 102317815.93047
        27.300    24987055.46547
  22068611.125 9 115971345.567 9        52.500    22068618.430 8  90367305.60649
        40.500    22068617.14149  22068616.332 6  86601989.946 6        38.600
  20733853.078 9 108957074.710 9        51.300                    84901678.40749
        45.500    20733854.19149
  20001933.898 9 105110887.377 9        48.300                    81904609.59749
        45.200    20001936.88349
  24692436.398 7 129759668.572 7        41.300    24692443.215 6 101111479.14647
        27.200    24692442.62147  24692441.008 3  96898496.495 3        32.700
  24717071.234 2 129889099.36712        31.600    24717077.594 5 101212298.58855
        15.600    24717077.56345  24717071.703 1  96995136.19611        22.300
 17  4  7  0 39  0.0000000  0 11G01G32G08G28G14G17G03G22G11G27G10
  20449992.438 9 107465451.272 9        53.500    20449999.793 9  83739348.87649
        49.100    20449999.37949  20449995.598 7  80250192.293 7        43.000
  22430029.570 9 117870609.229 9        49.000    22430035.781 8  91847264.04049
        38.100    22430034.95349  22430031.766 5  88020278.891 5        36.900
  21913456.742 9 115155998.488 9        49.400    21913464.496 9  89731999.94649
        42.300    21913463.57449  21913460.535 6  85993158.963 6        38.900
  23554398.844 7 123779202.852 7        43.000                    96451337.34647
        27.000    23554401.81347
  21914723.992 9 115162668.906 9        48.300                    89737152.54049
        38.300    21914727.77749
  24967726.797 7 131206294.192 7        42.400    24967730.582 6 102238680.99746
        23.800    24967728.77346
  22053401.414 9 115891418.705 9        51.600    22053408.586 9  90305024.94649
        40.700    22053407.82849  22053406.492 6  86542304.318 6        38.600
  20726825.617 9 108920145.373 9        50.600                    84872902.30649
        46.000    20726826.91449
  20001954.648 9 105110995.553 9        48.300                    81904693.88449
        45.000    20001957.69949
  24714314.766 7 129874637.248 7        41.100    24714321.297 6 101201065.13647
        25.400    24714320.62547  24714317.957 1  96984349.698 1        30.900
  24736374.859 3                        32.200

 17  4  7  0 39 30.0000000  0 11G01G32G08G28G14G17G03G22G11G27G10
  20443736.039 9 107432572.413 9        53.600    20443742.785 9  83713728.98849
        49.300    20443742.52749  20443738.742 7  80225639.904 7        43.000
  22437738.328 9 117911120.530 9        48.700    22437745.043 8  91878831.29149
        38.100    22437744.11349  22437740.926 5  88050530.845 5        36.800
  21930118.211 9 115243553.435 9        49.200    21930125.395 9  89800224.55049
        41.900    21930124.54349  21930121.504 6  86058540.877 6        38.600
  23558405.773 7 123800258.291 7        41.400                    96467744.17747
        28.000    23558408.90247
  21912964.344 9 115153420.490 9        48.500                    89729945.99349
        38.500    21912967.71549
  24948426.250 7 131104865.280 7        43.400    24948428.715 5 102159645.50846
        22.500    24948426.66846
  22038248.945 9 115811792.939 9        51.600    22038256.016 9  90242978.91649
        41.600    22038255.32849  22038253.469 6  86482843.533 6        38.400
  20719871.117 9 108883599.053 9        51.600                    84844424.65849
        46.000    20719872.57049
  20002077.117 9 105111638.573 9        48.200                    81905194.93749
        45.000    20002080.26649
  24736203.742 7 129989658.429 7        41.500    24736209.609 7 101290691.96947
        27.600    24736209.27347  24736204.906 1  97070242.122 1        30.200
  24755681.117 2 130092005.79912        31.000    24755689.051 3 101370407.35953
        13.900    24755689.80543  24755684.238 1  97146657.19811        24.200
 17  4  7  0 40  0.0000000  0 11G01G32G08G28G14G17G03G22G11G27G10
  20437544.320 9 107400036.131 9        53.700    20437551.699 9  83688376.03549
        49.300    20437551.12549  20437547.520 7  80201343.324 7        42.600
  22445553.508 9 117952187.579 9        50.000    22445559.789 8  91910831.59849
        37.800    22445558.89549  22445555.473 5  88081197.812 5        36.400
  21946847.969 9 115331469.293 9        49.400    21946855.488 9  89868730.40649
        41.800    21946854.29749  21946851.141 6  86124192.326 6        38.700
  23562505.305 7 123821805.717 7        41.800                    96484534.34647
        27.000    23562508.88747
  21911312.305 8 115144740.651 8        47.200                    89723182.49249
        38.100    21911315.76649
  24929149.695 7 131003565.973 7        44.300    24929152.566 6 102080710.95547
        27.000    24929152.29747
  22023154.625 9 115732469.027 9        52.200    22023161.504 9  90181168.09149
        41.000    22023160.60949  22023158.691 6  86423608.156 6        38.800
  20712989.594 9 108847435.347 9        50.900                    84816245.15549
        45.900    20712990.69549
  20002301.305 9 105112816.328 9        48.500                    81906112.65949
        45.100    20002304.53549
  24758100.000 6 130104729.635 6        40.600    24758107.250 7 101380357.86347
        29.100    24758107.19547  24758103.359 1  97156171.966 1        30.500
  24774995.203 5 130193497.21715        36.000    24775002.160 1 101449515.64311
        29.900                    24774997.863 1  97222446.17211        22.600
 17  4  7  0 40 30.0000000  0 11G01G32G08G28G14G17G03G22G11G27G10
  20431418.352 9 107367843.500 9        55.100    20431425.660 9  83663290.86749
        49.300    20431425.35949  20431421.520 7  80177303.372 7        42.700
  22453473.500 9 117993808.999 9        48.700    22453480.141 8  91943263.87749
        37.300    22453479.57049  22453475.855 5  88112278.748 5        35.900
  21963646.438 9 115419743.793 9        49.300    21963653.332 9  89937515.73249
        41.500    21963652.00049  21963649.313 6  86190111.584 6        38.800
  23566700.188 7 123843843.961 7        42.100                    96501707.00047
        26.700    23566703.71947
  21909768.805 8 115136629.541 8        47.700                    89716862.15449
        38.000    21909772.09449
  24909896.078 6 130902398.583 6        40.800    24909901.488 6 102001879.21547
        25.200    24909900.55547
  22008116.953 9 115653448.004 9        51.100    22008124.176 8  90119593.28249
        40.800    22008123.44949  22008121.410 6  86364598.969 6        39.000
  20706180.773 9 108811654.871 9        52.000                    84788364.26749
        45.800    20706181.60549
  20002627.359 9 105114529.548 9        48.300                    81907447.62649
        45.000    20002630.09449
  24780006.703 6 130219848.952 6        39.800    24780012.535 6 101470061.23346
        24.100    24780012.10246  24780010.254 3  97242137.652 3        32.100
  24794313.898 6 130295012.276 6        38.000    24794319.277 1 101528618.338 1
        29.500                    24794313.516 1  97298252.882 1        21.800
 17  4  7  0 41  0.0000000  0 11G01G32G08G28G14G17G03G22G11G27G10
  20425357.945 9 107335995.458 9        55.100    20425364.789 9  83638474.21049
        49.200    20425364.53149  20425360.863 7  80153520.740 7        42.900
  22461498.773 9 118035983.374 9        48.400    22461505.383 8  91976127.03449
        37.800    22461504.96549  22461501.422 5  88143772.595 5        36.400
  21980512.070 9 115508375.070 9        49.600    21980519.602 9  90006579.05049
        41.800    21980518.56649  21980515.766 6  86256297.271 6        38.800
  23570986.359 7 123866371.738 7        42.900                    96519261.10147
        27.300    23570989.30547
  21908333.430 8 115129087.882 8        47.500                    89710985.55149
        37.700    21908336.83249
  24890669.766 6 130801365.337 6        40.900    24890674.414 6 101923152.04146
        22.800    24890673.55146
  21993137.703 9 115574730.954 9        51.400    21993144.527 9  90058255.33349
        41.800    21993143.82849  21993142.023 6  86305816.774 6        38.600
  20699444.633 9 108776257.228 9        51.400                    84760781.68749
        46.000    20699445.66849
  20003055.469 9 105116778.853 9        48.800                    81909200.32449
        45.200    20003058.56649
  24801921.297 6 130335014.398 6        40.100    24801928.281 6 101559800.56747
        26.300    24801927.40647  24801924.039 1  97328137.805 1        29.400
  24813634.484 5 130396549.647 5        37.300    24813642.152 4 101607707.31255
        15.600    24813641.61345  24813634.875 1  97374076.299 1        20.100
 17  4  7  0 41 30.0000000  0 11G01G32G08G28G14G17G03G22G11G27G10
  20419363.211 9 107304492.983 9        55.800    20419370.664 9  83613926.82949
        49.300    20419370.34449  20419366.500 7  80129996.173 7        42.700
  22469629.508 9 118078709.232 9        48.400    22469636.371 8  92009419.90949
        37.500    22469635.88349  22469632.047 5  88175678.271 5        36.100
  21997445.492 9 115597360.876 9        49.000    21997452.902 9  90075918.61949
        41.100    21997451.69949  21997448.836 6  86322747.689 6        38.100
  23575366.445 7 123889388.273 7        42.100                    96537196.05047
        27.300    23575369.16447
  21907006.313 8 115122115.858 8        47.800                    89705552.80649
        38.300    21907010.40649
  24871471.125 7 130700469.145 7        44.400    24871474.137 5 101844531.56047
        25.200    24871472.31347
  21978216.484 9 115496318.808 9        50.800    21978223.340 9  89997154.97949
        42.100    21978222.56349  21978221.055 6  86247262.264 6        38.800
  20692781.688 9 108741243.202 9        51.700                    84733498.04249
        46.000    20692782.91849
  20003585.359 9 105119565.158 9        48.600                    81911371.46549
        45.200    20003588.38749
  24823845.555 6 130450223.667 6        39.500    24823851.902 6 101649573.98946
        24.700    24823851.79746  24823847.371 1  97414170.766 1        29.700
  24832960.375 4 130498108.03314        34.400    24832968.656 2 101686843.60854
        14.800    24832968.67644  24832961.352 1  97449915.32011        21.300
 17  4  7  0 42  0.0000000  0 11G01G32G08G28G14G17G03G22G11G27G10
  20413434.344 9 107273337.000 9        53.700    20413441.750 9  83589649.44149
        49.500    20413441.41849  20413437.691 7  80106730.333 7        42.700
  22477864.977 9 118121985.053 9        48.400    22477871.457 8  92043141.33749
        37.800    22477870.43049  22477867.125 5  88207994.640 5        36.300
  22014446.031 9 115686699.059 9        49.300    22014453.258 9  90145532.77749
        41.400    22014452.43849  22014449.223 6  86389461.254 6        38.600
  23579838.844 7 123912892.332 7        43.100                    96555510.89547
        28.300    23579842.50847
  21905788.586 9 115115713.894 9        48.400                    89700564.26949
        38.100    21905792.02349
  24852296.617 7 130599712.150 7        41.400    24852301.574 6 101766019.63047
        26.200    24852301.47747
  21963352.945 9 115418212.563 9        51.200    21963360.273 9  89936292.97149
        41.600    21963359.55949  21963358.051 6  86188936.184 6        38.600
  20686191.773 9 108706612.525 9        50.400                    84706513.10449
        46.100    20686192.82449
  20004218.047 9 105122888.787 9        50.100                    81913961.30549
        44.900    20004220.69949
  24845776.453 6 130565474.727 6        39.200    24845783.793 6 101739379.98446
        24.600    24845783.16846  24845780.855 2  97500234.832 2        31.200
  24852288.930 2 130599686.22912        31.200    24852296.773 1 101766026.41411
        29.800                    24852291.980 1  97525769.10611        23.400
 17  4  7  0 42 30.0000000  0 11G01G32G08G28G14G17G03G22G11G27G10
  20407571.578 9 107242528.339 9        53.800    20407578.742 9  83565642.69549
        49.500    20407578.39549  20407574.672 7  80083723.877 7        43.200
  22486204.195 8 118165809.158 8        47.800    22486210.488 8  92077289.99049
        37.700    22486209.74249  22486206.730 5  88240720.434 5        36.300
  22031512.859 9 115776387.412 9        49.700    22031520.813 9  90215419.79549
        41.400    22031519.50849  22031516.469 6  86456436.312 6        38.000
  23584404.000 7 123936882.197 7        42.000                    96574204.29047
        27.400    23584407.43047
  21904678.500 8 115109882.133 8        47.300                    89696020.04249
        38.200    21904682.31649
  24833150.609 7 130499096.605 7        42.800    24833155.352 7 101687617.93147
        26.800    24833155.57447
  21948548.461 9 115340413.036 9        51.100    21948555.539 9  89875669.98849
        41.300    21948554.71149  21948553.086 6  86130839.152 6        39.000
  20679674.781 9 108672365.076 9        50.800                    84679826.78549
        46.000    20679675.00849
  20004952.766 9 105126749.722 9        49.600                    81916969.82249
        45.200    20004955.83649
  24867715.750 6 130680765.375 6        38.900    24867721.844 6 101829216.90946
        22.200    24867721.55946  24867719.301 2  97586328.483 2        31.800
  24871622.781 2 130701282.49612        31.300    24871629.906 3 101845192.42313
        33.200                    24871625.852 1  97601636.41311        23.400
 17  4  7  0 43  0.0000000  0 11G01G32G08G28G14G17G03G22G11G27G10
  20401775.422 9 107212067.969 9        55.500    20401782.531 9  83541907.33849
        49.500    20401782.26249  20401778.418 7  80060977.498 7        43.200
  22494647.742 8 118210180.095 8        47.000    22494654.047 8  92111864.74649
        37.100    22494653.41049  22494650.164 5  88273854.573 5        36.900
  22048646.547 9 115866423.806 9        49.500    22048653.863 9  90285578.01149
        41.300    22048652.82849  22048649.852 6  86523671.272 6        38.700
  23589061.617 7 123961356.745 7        42.800                    96593275.33747
        27.400    23589065.44547
  21903677.727 9 115104620.822 9        48.700                    89691920.33149
        37.100    21903680.90649
  24814030.836 7 130398624.320 7        42.200    24814035.543 6 101609327.82746
        22.900    24814035.51646
  21933802.203 9 115262921.275 9        51.800    21933809.266 9  89815286.81549
        42.100    21933808.17249  21933806.836 6  86072971.947 6        39.000
  20673230.422 9 108638501.038 9        51.500                    84653439.22249
        46.100    20673231.61349
  20005789.789 9 105131148.629 9        50.500                    81920397.54049
        45.000    20005792.34849
  24889661.664 6 130796093.461 6        40.200    24889668.863 7 101919082.98947
        26.400    24889667.67647  24889663.957 1  97672450.142 1        27.000
  24890959.922 2 130802895.69012        31.200    24890966.188 4 101924371.52914
        34.100                    24890961.461 1  97677516.35611        25.600
 17  4  7  0 43 30.0000000  0 11G01G32G08G28G14G17G03G22G11G27G10
  20396045.438 9 107181956.774 9        53.800    20396052.520 9  83518444.07349
        49.600    20396052.23449  20396048.332 7  80038491.866 7        43.100
  22503194.836 8 118255096.222 8        47.300    22503201.445 8  92146864.33249
        37.200    22503200.85949  22503197.672 5  88307395.838 5        36.600
  22065845.617 9 115956805.925 9        48.900    22065853.242 8  90356005.62849
        40.600    22065852.23049  22065849.195 6  86591164.394 6        38.500
  23593811.531 7 123986314.724 7        42.400                    96612723.11847
        27.600    23593814.44547
  21902784.781 8 115099930.401 8        47.200                    89688265.46049
        37.100    21902788.49249
  24794940.734 7 130298298.096 7        43.600    24794943.641 5 101531151.53347
        25.100    24794942.80147
  21919114.875 9 115185738.119 9        51.600    21919121.727 8  89755144.10549
        41.900    21919120.70349  21919119.426 6  86015335.192 6        39.200
  20666859.500 9 108605020.389 9        50.400                    84627350.40949
        46.100    20666860.68849
  20006729.172 9 105136086.062 9        50.100                    81924244.88049
        45.400    20006732.03949
  24911614.313 6 130911457.011 6        38.100    24911621.988 6 102008976.58746
        23.900    24911621.19546  24911618.234 1  97758598.288 1        30.800
  24910299.398 2 130904524.66012        31.200    24910306.008 5 102003526.90054
        14.800    24910304.81644  24910301.359 1  97753408.06411        24.500
 17  4  7  0 44  0.0000000  0 11G01G32G08G28G14G17G03G22G11G27G10
  20390382.008 9 107152195.505 9        55.900    20390389.273 9  83495253.47249
        49.700    20390389.03549  20390385.191 7  80016267.538 7        43.000
  22511845.688 8 118300555.764 8        47.300    22511852.047 8  92182287.35749
        37.500    22511850.97749  22511848.023 5  88341342.907 5        36.100
  22083110.266 9 116047531.580 9        48.600    22083117.266 8  90426700.93049
        41.100    22083116.08249  22083113.398 5  86658914.060 5        37.200
  23598652.016 7 124011754.623 7        42.100                    96632546.37647
        27.900    23598654.99647
  21902001.008 8 115095811.009 8        47.200                    89685055.55049
        38.200    21902004.31349
  24775877.016 7 130198120.186 7        42.400    24775882.125 6 101453090.80847
        26.000    24775881.30547
  21904486.172 9 115108864.359 9        51.400    21904493.406 9  89695242.48149
        41.900    21904492.43849  21904491.043 6  85957929.472 6        39.400
  20660561.086 9 108571923.038 9        51.000                    84601560.27749
        46.300    20660562.38749
  20007771.531 9 105141562.256 9        50.800                    81928512.03949
        45.100    20007774.11349
  24933574.086 6 131026853.524 6        39.800    24933580.145 5 102098895.99646
        22.800    24933579.50846  24933577.250 2  97844770.972 2        31.000
  24929641.484 1 131006167.62911        30.300    24929648.102 5 102082729.08355
        16.300    24929647.81345  24929643.301 1  97829310.21411        25.300
 17  4  7  0 44 30.0000000  0 11G01G32G08G28G14G17G03G22G11G27G10
  20384785.508 9 107122785.101 9        55.700    20384792.938 9  83472336.27649
        49.700    20384792.59849  20384788.871 7  79994305.230 7        43.200
  22520599.414 8 118346557.191 8        47.400    22520605.629 8  92218132.63649
        37.300    22520604.72349  22520601.945 5  88375694.631 5        35.900
  22100439.242 9 116138598.053 9        48.300    22100446.941 9  90497661.80749
        40.400    22100445.96949  22100442.871 5  86726918.229 5        37.700
  23603584.172 7 124037675.069 7        41.900                    96652744.12147
        28.500    23603587.82447
  21901325.828 8 115092262.631 8        47.800                    89682290.58549
        37.900    21901329.30949
  24756841.000 6 130098092.982 6        39.200    24756847.797 6 101375147.57346
        22.800    24756847.19946
  21889916.703 9 115032300.921 9        51.300    21889923.508 9  89635582.66949
        42.100    21889922.56649  21889921.000 6  85900755.500 6        38.700
  20654335.898 9 108539209.097 9        51.400                    84576068.89849
        46.300    20654337.08249
  20008915.914 9 105147577.523 9        50.800                    81933199.25449
        45.200    20008918.95349
  24955539.922 6 131142280.988 6        40.800    24955546.203 6 102188839.50746
        23.500    24955545.14146  24955542.941 2  97930966.837 2        31.300
  24948986.813 3 131107823.44613        32.000    24948992.496 5 102161941.42355
        16.900    24948991.04745  24948987.594 1  97905222.01411        24.700
 17  4  7  0 45  0.0000000  0 11G01G32G08G28G14G17G03G22G11G27G10
  20379255.758 9 107093726.435 9        54.900    20379262.723 9  83449693.16549
        49.700    20379262.53549  20379258.516 7  79972605.578 7        43.500
  22529455.984 8 118393098.781 8        47.800    22529462.938 8  92254398.81749
        37.100    22529462.30149  22529458.992 5  88410449.717 5        36.000
  22117833.141 9 116230003.496 9        48.600    22117840.684 9  90568886.81549
        40.500    22117839.86749  22117836.770 5  86795175.536 5        37.300
  23608608.117 6 124064074.588 6        40.900                    96673315.16247
        27.000    23608610.85947
  21900758.766 8 115089285.291 8        47.600                    89679970.58849
        38.100    21900762.66049
  24737837.281 7 129998218.697 7        43.900    24737841.395 6 101297323.44447
        25.200    24737841.56647
  21875406.313 9 114956048.680 9        51.500    21875413.355 9  89576165.35549
        41.800    21875412.54749  21875411.039 6  85843813.899 6        39.000
  20648183.547 9 108506878.281 9        50.400                    84550876.06349
        46.200    20648184.56349
  20010163.227 9 105154132.325 9        50.700                    81938306.88749
        45.100    20010166.52349
  24977509.375 6 131257737.235 6        38.600    24977516.727 6 102278805.48047
        25.600    24977516.01647  24977513.000 1  98017184.193 1        29.000
  24968332.586 3 131209490.800 3        33.000    24968339.781 5 102241162.71045
        15.600    24968339.20345  24968334.105 1  97981142.469 1        22.900
 17  4  7  0 45 30.0000000  0 11G01G32G08G28G14G17G03G22G11G27G10
  20373793.133 9 107065020.615 9        55.000    20373800.422 9  83427324.98949
        49.800    20373799.91049  20373795.949 7  79951169.410 7        42.800
  22538414.797 8 118440179.035 8        47.200    22538421.582 8  92291084.72149
        37.100    22538420.55949  22538417.430 5  88445607.046 5        35.800
  22135291.594 9 116321745.703 9        48.800    22135299.004 9  90640374.23949
        40.900    22135297.71549  22135294.734 6  86863684.311 6        38.000
  23613722.641 7 124090951.881 7        41.600                    96694258.50447
        26.800    23613725.82847
  21900301.961 8 115086879.839 8        47.300                    89678096.20649
        37.700    21900305.29749
  24718862.367 7 129898499.926 7        44.500    24718865.738 6 101219620.46547
        26.600    24718865.80547
  21860955.359 9 114880108.722 9        51.600    21860962.629 9  89516991.36649
        42.200    21860961.64549  21860960.488 6  85787105.497 6        38.800
  20642104.086 9 108474931.052 9        51.800                    84525982.12549
        46.400    20642105.18449
  20011513.523 9 105161227.335 9        50.200                    81943835.46049
        45.000    20011516.37149
  24999485.789 7 131373220.350 7        41.000    24999492.914 6 102368792.24147
        27.000    24999492.13747  24999488.766 1  98103421.650 1        29.600
  24987681.117 3 131311168.559 3        33.100    24987687.961 3 102320392.02243
        13.900    24987688.28543  24987683.539 1  98057070.570 1        24.600
 17  4  7  0 46  0.0000000  0 11G01G32G08G28G14G17G03G22G11G27G10
  20368397.828 9 107036668.440 9        54.000    20368404.824 9  83405232.38549
        49.800    20368404.49649  20368400.598 7  79929997.340 7        43.100
  22547476.078 8 118487796.254 8        46.700    22547482.543 8  92328189.04549
        37.600    22547482.04749  22547478.914 5  88481165.358 5        36.100
  22152812.813 9 116413822.288 9        48.400    22152820.281 9  90712122.22149
        40.500    22152819.33649  22152816.238 5  86932442.795 5        37.600
  23618927.922 7 124118305.783 7        41.200                    96715573.25247
        26.900    23618931.43047
  21899952.828 8 115085045.774 8        46.900                    89676667.07049
        38.300    21899956.35949
  24699914.906 7 129798938.905 7        42.800    24699918.512 5 101142040.43746
        24.900    24699919.27046
  21846563.828 9 114804481.872 9        51.300    21846571.117 9  89458061.36449
        42.100    21846570.28949  21846569.012 6  85730630.921 6        40.000
  20636097.875 9 108443367.510 9        50.600                    84501387.16049
        46.400    20636099.35949
  20012966.328 9 105168862.768 9        50.800                    81949785.14249
        45.000    20012969.91449
  25021465.422 6 131488728.070 6        39.500    25021471.480 4 102458798.34146
        21.300    25021471.12546  25021469.629 3  98189677.419 3        33.400
  25007032.148 3 131412855.210 3        33.700    25007034.984 1 102399628.35443
        13.900    25007037.33643  25007034.820 1  98133005.364 1        25.300
 17  4  7  0 46 30.0000000  0 11G01G32G08G28G14G17G03G22G11G27G10
  20363070.102 9 107008670.775 9        55.200    20363077.145 9  83383416.02549
        49.900    20363076.93049  20363072.969 7  79909089.994 7        43.700
  22556639.500 8 118535948.630 8        47.200    22556645.449 8  92365710.38049
        36.600    22556644.64849  22556641.695 5  88517123.305 5        35.900
  22170397.695 9 116506231.128 9        48.100    22170404.988 9  90784129.09649
        40.700    22170403.98449  22170400.828 5  87001449.387 5        37.700
  23624223.828 7 124146134.746 7        42.400                    96737258.11547
        27.000    23624226.28547
  21899712.219 8 115083783.200 8        47.100                    89675683.24749
        37.500    21899715.97749
  24681000.398 7 129699537.951 7        43.400    24681004.480 6 101064585.16847
        27.800    24681004.45747
  21832232.297 9 114729168.884 9        51.600    21832239.617 9  89399375.93449
        40.900    21832238.52349  21832237.367 6  85674390.727 6        38.600
  20630164.523 9 108412187.320 9        51.200                    84477090.91149
        46.500    20630165.46149
  20014522.375 9 105177038.767 9        50.000                    81956156.04349
        45.100    20014525.50849
  25043450.461 6 131604258.187 6        39.500    25043458.336 6 102548821.89946
        24.000    25043456.98046  25043454.313 1  98275949.928 1        29.100
  25026383.781 3 131514549.565 3        32.400    25026390.629 3 102478870.72744
        14.800    25026389.00444  25026385.430 1  98208945.871 1        22.900
 17  4  7  0 47  0.0000000  0 11G01G32G08G28G14G17G03G22G11G27G10
  20357809.828 9 106981028.433 9        53.900    20357816.996 9  83361876.54149
        49.900    20357816.79749  20357812.957 7  79888447.989 7        43.100
  22565903.938 8 118584634.399 8        47.100    22565910.828 8  92403647.36249
        36.600    22565909.73849  22565906.375 5  88553479.573 5        36.100
  22188044.961 8 116598969.814 8        47.900    22188052.910 9  90856392.99449
        40.100    22188052.22749  22188049.305 5  87070702.287 5        37.700
  23629609.508 7 124174437.252 7        41.600                    96759312.02147
        26.900    23629612.67647
  21899580.680 8 115083092.425 8        47.300                    89675144.98249
        38.500    21899584.48449
  24662116.234 7 129600299.257 7        44.300    24662120.680 6 100987256.29147
        29.000    24662120.67247
  21817961.367 9 114654170.627 9        51.800    21817967.828 9  89340935.75449
        41.800    21817967.07049  21817965.324 6  85618385.559 6        39.300
  20624303.930 9 108381390.287 9        50.700                    84453093.24249
        46.500    20624304.97749
  20016181.297 9 105185755.592 9        50.900                    81962948.36749
        45.000    20016184.37549
  25065439.227 6 131719808.720 6        38.800    25065445.383 6 102638861.18246
        22.500    25065445.42246  25065442.051 1  98362237.654 1        27.900
  25045736.516 3 131616250.267 3        32.000    25045743.426 4 102558118.01044
        14.800    25045742.34444  25045737.309 1  98284891.267 1        22.500
 17  4  7  0 47 30.0000000  0 11G01G32G08G28G14G17G03G22G11G27G10
  20352617.563 9 106953742.529 9        54.600    20352624.836 9  83340614.80049
        49.800    20352624.41849  20352620.637 7  79868072.150 7        43.100
  22575269.398 8 118633852.096 8        47.800    22575276.094 8  92441998.81449
        37.000    22575275.40649  22575272.043 5  88590233.056 5        36.000
  22205755.383 9 116692036.237 9        48.400    22205762.469 8  90928912.26949
        40.300    22205761.34049  22205758.652 5  87140199.922 5        37.700
  23635084.742 7 124203211.829 7        41.200                    96781733.75747
        27.000    23635089.13347
  21899558.047 8 115082973.238 8        47.000                    89675052.11149
        37.300    21899562.07449
  24643262.961 7 129501225.456 7        44.200    24643266.652 6 100910055.94147
        27.400    24643266.99247
  21803749.125 9 114579488.211 9        52.300    21803756.293 9  89282741.66649
        42.400    21803755.37949  21803753.516 6  85562616.218 6        39.000
  20618516.508 9 108350976.791 9        51.400                    84429394.41449
        46.500    20618517.48449
  20017943.063 9 105195014.011 9        50.800                    81970162.71649
        45.700    20017946.09449
  25087431.500 6 131835377.486 6        40.700    25087437.590 6 102728914.82146
        22.600    25087436.97346  25087434.832 1  98448539.068 1        28.000
  25065092.336 4 131717956.083 4        34.900    25065097.668 3 102637369.26945
        15.600    25065096.91045  25065092.930 1  98360840.429 1        23.300
 17  4  7  0 48  0.0000000  0 11G01G32G08G28G14G17G03G22G11G27G10
  20347493.172 9 106926813.589 9        53.900    20347500.230 9  83319631.21649
        49.900    20347499.82449  20347495.867 7  79847962.884 7        43.200
  22584736.172 8 118683599.537 8        47.600    22584742.824 8  92480763.04849
        37.000    22584742.18849  22584738.824 5  88627382.111 5        36.300
  22223527.430 9 116785427.836 9        48.500    22223534.715 8  91001684.93349
        40.100    22223533.44149  22223530.402 5  87209940.392 5        37.700
  23640649.992 7 124232456.830 7        41.700                    96804522.05847
        26.700    23640653.86747
  21899644.125 8 115083425.694 8        47.100                    89675404.68349
        38.100    21899647.66849
  24624441.508 7 129402318.918 7        44.700    24624445.027 5 100832985.91046
        24.900    24624445.09046
  21789597.844 9 114505122.039 9        51.700    21789604.656 9  89224794.01749
        42.300    21789604.07049  21789602.207 6  85507083.052 6        39.400
  20612801.992 9 108320945.925 9        50.900                    84405993.75049
        46.700    20612802.87549
  20019807.734 9 105204813.846 9        51.000                    81977798.94349
        45.000    20019810.74649
  25109425.047 5 131950962.164 5        37.200    25109433.152 6 102818980.75646
        21.100    25109431.93046  25109429.789 2  98534852.318 2        31.900
  25084445.031 3 131819665.589 3        32.200    25084450.867 2 102716623.44545
        15.600    25084451.97745  25084448.285 1  98436792.372 1        26.400
 17  4  7  0 48 30.0000000  0 11G01G32G08G28G14G17G03G22G11G27G10
  20342436.875 9 106900242.788 9        55.100    20342444.168 9  83298926.69249
        49.800    20342443.49649  20342439.949 7  79828121.050 7        43.400
  22594303.375 8 118733875.270 8        47.700    22594309.711 8  92519938.95149
        36.800    22594309.15249  22594305.961 5  88664925.680 5        35.800
  22241360.820 9 116879142.559 9        48.400    22241368.152 8  91074709.40349
        39.900    22241367.01649  22241363.453 5  87279922.169 5        36.700
  23646304.406 7 124262170.867 7        41.000                    96827675.83247
        27.600    23646307.82847
  21899838.805 8 115084449.912 8        47.900                    89676202.77849
        38.100    21899842.46149
  24605652.547 7 129303581.994 7        43.800    24605656.746 6 100756048.02047
        25.100    24605657.01247
  21775506.813 9 114431073.292 9        52.500    21775513.836 9  89167093.71549
        42.500    21775513.14849  21775511.578 6  85451786.934 6        39.400
  20607160.016 9 108291298.537 9        51.500                    84382891.88949
        46.600    20607160.76249
  20021775.469 9 105215155.498 9        51.100                    81985857.36949
        45.000    20021778.85249
  25131423.625 7 132066560.827 7        41.600    25131430.336 5 102909057.74246
        20.400    25131428.28146  25131427.254 2  98621175.964 2        31.200
  25103801.508 3 131921377.769 3        32.400    25103807.020 3 102795879.73644
        14.800    25103806.85944  25103803.168 1  98512746.240 1        26.200
 17  4  7  0 49  0.0000000  0 11G01G32G08G28G14G17G03G22G11G27G10
  20337448.938 9 106874031.095 9        54.700    20337456.551 9  83278502.00049
        49.900    20337456.17649  20337452.219 7  79808547.391 7        43.800
  22603971.164 9 118784677.575 9        48.000    22603977.582 8  92559525.16449
        36.900    22603976.58649  22603973.219 5  88702862.465 5        35.500
  22259254.688 9 116973178.090 9        48.000    22259262.672 9  91147983.82349
        39.400    22259261.59049  22259258.141 5  87350143.491 5        37.500
  23652048.578 7 124292352.788 7        41.700                    96851194.19847
        27.600    23652051.81347
  21900142.664 8 115086045.970 8        47.000                    89677446.45749
        37.700    21900146.50449
  24586896.516 8 129205017.157 8        45.000    24586900.863 7 100679244.26947
        28.900    24586901.37147
  21761476.492 9 114357342.919 9        52.700    21761483.348 9  89109641.49449
        42.300    21761482.39149  21761481.172 6  85396728.556 6        39.600
  20601591.258 9 108262034.748 9        51.200                    84360088.94849
        46.600    20601592.19549
  20023846.875 9 105226039.453 9        51.200                    81994338.36549
        45.400    20023849.69549
  25153423.461 6 132182171.487 6        40.400    25153431.035 6 102999143.96146
        22.900    25153429.32446  25153426.539 1  98707508.562 1        26.500
  25123154.570 2                        31.600

 17  4  7  0 49 30.0000000  0 11G01G32G08G28G14G17G03G22G11G27G10
  20332529.320 9 106848179.093 9        54.700    20332536.625 9  83258357.58249
        49.900    20332536.28949  20332532.801 7  79789242.318 7        43.300
  22613738.039 9 118836004.370 9        48.500    22613744.445 8  92599520.07749
        36.200    22613743.82449  22613740.168 5  88741190.931 5        36.000
  22277209.477 9 117067532.131 9        48.100    22277217.063 8  91221506.42749
        39.300    22277216.20349  22277213.516 5  87420602.658 5        37.700
  23657880.273 7 124323000.447 7        41.300                    96875075.48347
        27.200    23657883.59847
  21900555.234 8 115088213.582 8        46.700                    89679135.51649
        37.800    21900558.93849
  24568172.602 7 129106626.605 7        43.000    24568177.492 7 100602576.28847
        25.500    24568177.21147
  21747506.516 9 114283931.430 9        52.200    21747513.520 9  89052437.73349
        42.400    21747512.66449  21747510.922 6  85341908.292 6        39.200
  20596095.250 9 108233153.672 9        51.700                    84337584.22349
        46.700    20596096.67649
  20026021.305 9 105237465.587 9        51.400                    82003241.83949
        45.300    20026023.98049
  25175425.852 6 132297791.700 6        40.600    25175432.277 5 103089237.59046
        22.500    25175431.48846  25175428.414 1  98793848.509 1        28.500
  25142512.664 3 132124805.31413        33.800    25142518.535 5 102954394.66255
        16.300    25142517.95745  25142515.027 1  98664656.27111        26.600
 17  4  7  0 50  0.0000000  0 11G01G32G08G28G14G17G03G22G11G27G10
  20327678.758 9 106822687.461 9        55.300    20327685.984 9  83238493.97049
        49.900    20327685.55549  20327681.715 7  79770206.362 7        43.200
  22623604.469 9 118887853.612 9        48.700    22623610.977 8  92639922.08249
        37.100    22623610.49249  22623607.129 5  88779909.518 5        36.000
  22295225.023 9 117162202.136 9        48.700    22295232.535 8  91295275.25749
        39.400    22295231.41049  22295228.840 6  87491297.785 6        38.100
  23663800.648 7 124354112.244 7        41.400                    96899318.41747
        26.700    23663803.42647
  21901076.477 8 115090952.542 8        47.000                    89681269.77049
        37.900    21901080.53549
  24549483.078 7 129008412.753 7        42.000    24549487.477 6 100526046.04547
        25.300    24549486.88747
  21733597.430 9 114210839.403 9        52.700    21733604.992 9  88995482.92349
        42.300    21733604.17649  21733602.137 6  85287326.597 6        39.200
  20590672.172 9 108204654.969 9        51.400                    84315377.44049
        46.800    20590673.25849
  20028298.758 9 105249433.922 9        51.100                    82012567.80449
        45.300    20028301.66849
  25197427.438 5 132413419.168 5        37.700    25197434.906 5 103179336.97345
        18.300    25197434.03945  25197431.664 2  98880193.643 2        31.100
  25161867.633 3 132226517.50513        32.200    25161873.582 5 103033650.87955
        16.900    25161874.21545  25161869.414 1  98740610.19911        24.200
 17  4  7  0 50 30.0000000  0 10G01G32G08G28G14G17G03G22G11G27
  20322896.508 9 106797557.727 9        55.400    20322903.742 9  83218912.36249
        49.900    20322903.18049  20322899.281 7  79751440.653 7        42.900
  22633570.727 9 118940224.163 9        48.100    22633576.969 8  92680730.31149
        36.600    22633576.17649  22633572.813 5  88819017.404 5        35.900
  22313299.867 9 117257185.949 9        48.200    22313307.441 8  91369288.60749
        39.200    22313306.16449  22313303.418 5  87562227.235 5        36.900
  23669809.836 7 124385687.526 7        42.500                    96923922.51647
        27.400    23669812.23847
  21901706.672 8 115094263.627 8        47.000                    89683849.84449
        37.600    21901710.50449
  24530828.156 7 128910378.490 7        44.000    24530832.305 6 100449655.73247
        26.200    24530831.98047
  21719749.813 9 114138068.405 9        52.800    21719756.977 9  88938778.26349
        42.200    21719756.14549  21719754.637 6  85232984.623 6        40.600
  20585322.250 9 108176539.970 9        51.500                    84293469.65549
        46.700    20585323.55149
  20030679.563 9 105261945.493 9        50.800                    82022317.07349
        44.900    20030682.63749
  25219433.094 6 132529052.406 6        40.500    25219440.063 6 103269440.84147
        25.000    25219438.65247  25219436.281 1  98966543.104 1        28.100
 17  4  7  0 51  0.0000000  0 11G01G32G08G28G14G17G03G22G11G27G10
  20318183.703 9 106772790.936 9        55.300    20318190.582 9  83199613.56749
        50.000    20318190.26649  20318186.719 7  79732945.970 7        43.500
  22643635.070 9 118993114.270 9        48.000    22643641.402 8  92721943.38949
        35.900    22643640.49249  22643637.188 5  88858513.262 5        35.600
  22331433.977 9 117352481.615 9        48.800    22331441.348 8  91443544.95949
        39.400    22331440.55149  22331437.102 5  87633389.572 5        36.400
  23675905.641 7 124417724.496 7        41.600                    96948886.39347
        27.400    23675908.60947
  21902445.227 8 115098146.392 8        47.000                    89686875.37549
        38.100    21902449.41849
  24512206.758 7 128812525.825 7        42.200    24512211.523 6 100373406.90647
        25.900    24512211.20347
  21705963.164 9 114065619.305 9        52.600    21705970.113 9  88882324.42549
        42.600    21705969.24249  21705968.258 6  85178883.039 6        39.700
  20580044.930 9 108148808.307 9        51.800                    84271860.57649
        47.000    20580046.17649
  20033163.836 9 105275000.282 9        50.700                    82032489.62949
        45.100    20033166.76649
  25241437.063 5 132644689.478 5        36.000    25241444.605 5 103359547.57245
        18.300    25241444.70345  25241441.508 1  99052895.495 1        29.000
  25200576.117 1 132429937.99211        29.100    25200582.203 6 103192171.88255
        16.900    25200583.01245  25200579.438 1  98892485.71711        28.300
 17  4  7  0 51 30.0000000  0 11G01G32G08G28G14G17G03G22G11G27G10
  20313539.703 9 106748386.956 9        56.200    20313546.973 9  83180597.46949
        50.200    20313546.58249  20313542.914 7  79714722.220 7        43.400
  22653798.063 9 119046521.114 9        48.000    22653804.430 8  92763559.12149
        36.100    22653804.16049  22653800.676 5  88898394.999 5        35.400
  22349626.984 9 117448085.959 9        48.500    22349634.391 8  91518041.84749
        39.500    22349633.61349  22349630.398 5  87704782.421 5        37.000
  23682090.047 7 124450220.885 7        42.000                    96974208.23947
        27.100    23682092.84447
  21903293.031 8 115102599.871 8        47.000                    89690345.62949
        38.100    21903296.35249
  24493622.188 7 128714856.763 7        43.900    24493625.980 6 100297301.16947
        27.500    24493626.27747
  21692237.938 9 113993491.999 9        52.500    21692244.828 9  88826121.34249
        43.100    21692243.88749  21692242.785 6  85125021.758 6        39.600
  20574840.453 9 108121458.543 9        50.900                    84250549.08049
        46.900    20574841.66049
  20035751.438 9 105288597.627 9        50.600                    82043084.96049
        45.200    20035754.46549
  25263444.219 6 132760327.277 6        40.300    25263450.785 6 103449654.97546
        24.700    25263449.64146  25263446.270 1  99139248.374 1        26.900
  25219926.125 1 132531639.73411        29.600    25219934.891 4 103271419.95054
        14.800    25219934.80544  25219930.473 1  98968431.81011        27.000
 17  4  7  0 52  0.0000000  0 11G01G32G08G28G14G17G03G22G11G27G10
  20308965.195 9 106724347.142 9        54.200    20308972.273 9  83161865.14649
        50.200    20308971.94149  20308968.160 7  79696770.400 7        43.600
  22664059.313 9 119100443.263 9        48.000    22664065.246 8  92805576.37649
        36.700    22664065.10249  22664061.035 4  88938661.543 4        34.800
  22367877.961 8 117543997.214 8        47.500    22367885.941 8  91592777.86949
        39.200    22367885.07449  22367881.863 5  87776404.445 5        36.800
  23688360.844 7 124483174.875 7        42.000                    96999886.66847
        27.100    23688363.81647
  21904249.227 8 115107624.415 8        47.500                    89694260.86549
        37.100    21904252.54349
  24475071.953 7 128617374.556 7        44.300    24475076.035 6 100221341.02047
        27.900    24475076.37147
  21678573.594 9 113921687.692 9        52.300    21678580.676 9  88770169.94049
        42.300    21678579.69949  21678578.602 6  85071401.670 6        39.800
  20569708.516 9 108094491.557 9        50.800                    84229535.85149
        46.900    20569710.10549
  20038442.273 9 105302738.204 9        50.000                    82054103.59249
        45.000    20038445.35249
  25285448.609 6 132875964.116 6        40.600    25285454.453 5 103539761.58746
        21.300    25285454.52346  25285452.266 1  99225600.618 1        27.900
  25239278.938 2 132633335.297 2        31.500    25239287.277 5 103350663.24844
        14.800    25239287.40244  25239282.191 1  99044373.353 1        26.600
 17  4  7  0 52 30.0000000  0  9G01G32G08G28G14G17G03G22G11
  20304460.117 9 106700672.826 9        55.800    20304467.086 9  83143417.62449
        50.200    20304466.77749  20304462.820 7  79679091.527 7        43.300
  22674418.102 8 119154879.292 8        47.300    22674424.387 8  92847994.06349
        36.400    22674423.62149  22674420.254 5  88979311.837 5        35.000
  22386187.383 8 117640213.372 8        47.700    22386194.770 8  91667751.48949
        39.000    22386193.64549  22386190.551 5  87848254.168 5        36.600
  23694718.461 7 124516585.634 7        41.800                    97025921.00947
        26.700    23694721.15647
  21905313.695 8 115113220.290 8        47.200                    89698621.28649
        37.700    21905317.71149
  24456557.797 7 128520081.504 7        44.500    24456560.684 6 100145528.20547
        26.500    24456560.72747
  21664971.930 9 113850207.701 9        52.800    21664978.230 9  88714471.25449
        42.800    21664977.45749  21664976.004 6  85018023.762 6        40.200
  20564650.125 9 108067907.212 9        51.800                    84208820.78249
        47.000    20564651.35249
  20041236.352 9 105317422.676 9        50.500                    82065546.02349
        45.400    20041239.55149
 17  4  7  0 53  0.0000000  0  9G01G32G08G28G14G17G03G22G11
  20300024.570 9 106677364.418 9        54.000    20300031.773 9  83125255.22149
        50.200    20300031.27049  20300027.664 7  79661685.894 7        43.500
  22684874.023 8 119209826.837 8        47.500    22684880.406 8  92890810.33249
        35.600    22684879.64849  22684876.520 4  89020344.095 4        34.800
  22404554.094 8 117736731.648 8        47.500    22404561.930 8  91742960.52449
        38.700    22404560.95749  22404557.570 5  87920329.491 5        36.500
  23701162.602 6 124550451.290 6        40.500                    97052309.80747
        26.000    23701166.02347
  21906487.031 8 115119386.975 8        46.800                    89703426.50149
        38.100    21906491.05549
  24438079.422 7 128422979.592 7        42.900    24438083.531 6 100069864.35547
        26.400    24438083.27747
  21651431.172 9 113779052.319 9        52.900    21651437.832 9  88659025.50849
        42.900    21651437.13349  21651436.090 6  84964888.257 6        39.900
  20559664.258 9 108041705.465 9        50.900                    84188403.84649
        47.100    20559664.93849
  20044134.609 9 105332650.722 9        50.200                    82077412.02749
        45.300    20044137.73849
 17  4  7  0 53 30.0000000  0  9G01G32G08G28G14G17G03G22G11
  20295658.867 9 106654423.018 9        54.100    20295666.160 9  83107378.81249
        50.200    20295665.85949  20295662.078 7  79644554.336 7        43.500
  22695427.141 8 119265284.168 8        46.400    22695433.574 8  92934023.84449
        35.400    22695432.78149  22695429.648 5  89061757.036 5        35.800
  22422977.977 8 117833549.622 8        47.300    22422985.113 8  91818403.09149
        38.800    22422984.20749  22422981.172 5  87992628.609 5        36.200
  23707693.352 7 124584770.121 7        42.100                    97079051.72947
        26.600    23707696.51647
  21907769.977 8 115126124.317 8        47.400                    89708676.38349
        36.900    21907772.68049
  24419638.000 7 128326071.169 7        42.800    24419642.355 6  99994351.34547
        28.000    24419642.29347
  21637952.625 9 113708222.548 9        51.400    21637959.738 9  88603833.48949
        43.000    21637958.60549  21637957.859 6  84911995.913 6        39.900
  20554750.891 9 108015886.096 9        50.900                    84168284.85749
        47.200    20554752.13749
  20047135.805 9 105348422.428 9        48.700                    82089701.66049
        45.100    20047139.08249
 17  4  7  0 54  0.0000000  0  9G01G32G08G28G14G17G03G22G11
  20291363.281 9 106631849.110 9        54.500    20291370.695 9  83089788.74549
        50.100    20291370.45749  20291366.441 7  79627697.192 7        43.400
  22706076.945 8 119321249.007 8        47.000    22706083.664 8  92977632.80949
        35.300    22706082.77049  22706079.406 5  89103548.965 5        35.700
  22441458.477 8 117930664.768 8        47.300    22441465.715 8  91894077.22149
        38.000    22441464.68449  22441462.172 5  88065149.647 5        37.000
  23714310.102 7 124619540.337 7        41.900                    97106145.39747
        27.100    23714313.10547
  21909159.922 8 115133431.660 8        46.800                    89714370.41249
        37.600    21909163.47349
  24401235.141 7 128229358.970 7        43.400    24401238.207 6  99918991.21447
        27.400    24401238.42247
  21624536.445 9 113637718.804 9        51.400    21624543.207 9  88548895.52049
        42.900    21624542.15249  21624540.934 6  84859347.029 6        40.900
  20549910.094 9 107990448.503 9        50.800                    84148463.36349
        47.200    20549911.28949
  20050240.594 9 105364737.924 9        48.900                    82102415.02349
        45.200    20050243.32049
 17  4  7  0 54 30.0000000  0  9G01G32G08G28G14G17G03G22G11
  20287137.883 9 106609643.669 9        54.200    20287144.582 9  83072485.80649
        50.300    20287144.33649  20287140.555 7  79611115.196 7        43.700
  22716822.813 8 119377719.522 8        46.600    22716829.438 8  93021635.81649
        35.700    22716828.51249  22716825.266 5  89145718.504 5        35.000
  22459995.023 8 118028074.768 8        47.300    22460002.406 8  91969981.10749
        38.300    22460001.34049  22459998.188 5  88137890.865 5        36.400
  23721012.000 7 124654760.118 7        41.600                    97133589.35847
        26.700    23721014.76247
  21910659.227 8 115141308.866 8        47.200                    89720508.50649
        37.800    21910662.73049
  24382868.375 7 128132845.198 7        43.100    24382872.523 6  99843785.66047
        27.000    24382872.25047
  21611182.195 9 113567541.958 9        51.900    21611188.672 9  88494212.27049
        43.000    21611187.68449  21611186.469 6  84806942.252 6        40.000
  20545142.250 9 107965392.832 9        50.800                    84128939.47349
        47.200    20545143.22749
  20053448.359 9 105381596.995 9        49.100                    82115551.95749
        45.100    20053451.22349
 17  4  7  0 55  0.0000000  0 10G01G32G08G28G14G17G03G22G11G23
  20282982.523 9 106587807.392 9        56.000    20282989.402 9  83055470.52149
        50.100    20282989.17249  20282985.328 7  79594808.886 7        43.800
  22727665.063 8 119434693.583 8        46.900    22727671.176 8  93066031.18349
        35.200    22727670.71549  22727666.883 4  89188264.077 4        34.800
  22478587.164 8 118125777.302 8        47.500    22478594.273 8  92046112.94749
        38.800    22478593.44949  22478590.000 5  88210850.550 5        36.100
  23727799.883 7 124690427.420 7        41.800                    97161382.08747
        25.700    23727802.03147
  21912266.586 8 115149755.550 8        47.200                    89727090.34349
        37.800    21912270.19149
  24364540.188 7 128036532.555 7        42.400    24364545.246 6  99768736.84347
        28.300    24364544.92247
  21597890.477 9 113497692.627 9        52.400    21597896.984 9  88439784.21949
        43.700    21597896.25049  21597894.684 6  84754782.040 6        39.400
  20540446.891 9 107940719.036 9        52.100                    84109713.14649
        47.300    20540448.04349
  20056760.188 9 105398999.574 9        49.000                    82129112.40549
        45.100    20056763.14149
  25370083.594 6 133320680.53616        38.800                   103886258.10655
        19.900    25370085.11745
 17  4  7  0 55 30.0000000  0 10G01G32G08G28G14G17G03G22G11G23
  20278897.695 9 106566341.734 9        55.800    20278905.078 9  83038744.03349
        50.100    20278904.50849  20278900.727 7  79578779.333 7        43.700
  22738602.125 8 119492169.724 8        46.800    22738608.719 8  93110817.79749
        35.200    22738607.67249  22738604.191 5  89231184.576 5        35.200
  22497234.875 8 118223770.315 8        47.500    22497242.336 8  92122471.12649
        38.500    22497241.41849  22497237.969 5  88284027.142 5        36.400
  23734671.055 6 124726541.187 6        40.800                    97189522.65447
        25.400    23734674.58647
  21913981.961 8 115158771.914 8        46.800                    89734116.08549
        37.900    21913985.45349
  24346251.914 7 127940423.682 7        44.000    24346255.434 6  99693846.82747
        26.900    24346255.89847
  21584660.922 9 113428172.111 9        51.900    21584667.797 9  88385612.39949
        43.300    21584667.06649  21584665.438 6  84702867.376 6        39.900
  20535824.570 9 107916427.406 9        51.800                    84090784.60649
        47.300    20535825.62549
  20060175.305 9 105416946.236 9        48.900                    82143096.80949
        45.200    20060178.36749
  25349617.563 5 133213137.811 5        35.700                   103802458.61145
        18.600    25349620.89145
 17  4  7  0 56  0.0000000  0 10G01G32G08G28G14G17G03G22G11G23
  20274883.320 9 106545247.089 9        55.400    20274890.656 9  83022306.64049
        50.200    20274890.63349  20274886.852 7  79563026.834 7        43.800
  22749634.719 8 119550145.562 8        46.000    22749641.156 8  93155993.77049
        35.800    22749640.37949  22749636.898 4  89274478.216 4        34.900
  22515936.945 8 118322051.246 8        47.000    22515944.617 8  92199053.66249
        38.100    22515943.47349  22515940.496 5  88357418.736 5        37.200
  23741628.758 7 124763099.305 7        42.100                    97218009.48047
        26.800    23741631.57847
  21915806.109 8 115168357.439 8        46.800                    89741585.32849
        37.500    21915809.33649
  24328002.156 7 127844520.628 7        43.600    24328006.570 6  99619117.19647
        28.100    24328006.27747
  21571494.195 9 113358980.727 9        52.000    21571501.191 9  88331697.04849
        43.400    21571500.36349  21571498.852 6  84651198.501 6        40.200
  20531274.461 9 107892516.841 9        51.700                    84072152.99549
        47.600    20531275.27349
  20063693.945 9 105435436.914 9        49.800                    82157505.12049
        45.500    20063696.92249
  25329147.555 5 133105564.805 5        37.800                   103718635.51045
        18.300    25329149.10245
 17  4  7  0 56 30.0000000  0 10G01G32G08G28G14G17G03G22G11G23
  20270939.938 9 106524524.275 9        55.800    20270947.297 9  83006158.99649
        50.300    20270947.10249  20270943.379 7  79547552.005 7        42.800
  22760761.695 8 119608619.054 8        46.800    22760768.070 8  93201557.53849
        35.800    22760767.50849  22760763.910 4  89318143.494 4        34.700
  22534693.125 8 118420617.300 8        46.800    22534700.824 8  92275858.36749
        37.800    22534699.80549  22534696.883 5  88431023.244 5        36.500
  23748669.734 7 124800100.047 7        41.800                    97246841.21747
        25.800    23748672.89847
  21917738.477 8 115178511.461 8        46.900                    89749497.56849
        37.000    21917741.58649
  24309791.820 7 127748826.036 7        42.600    24309796.070 6  99544549.98047
        27.300    24309795.66047
  21558390.414 9 113290119.164 9        51.100    21558397.199 9  88278038.70349
        43.700    21558396.53149  21558394.906 6  84599775.919 6        40.400
  20526796.891 9 107868987.793 9        52.300                    84053818.68049
        47.500    20526797.87149
  20067316.352 9 105454471.440 9        48.900                    82172337.21149
        45.400    20067319.42649
  25308671.188 4 132997963.735 4        34.300                   103634790.49545
        16.900    25308673.62945
 17  4  7  0 57  0.0000000  0 10G01G32G08G28G14G17G03G22G11G23
  20267067.695 9 106504174.112 9        54.100    20267074.836 9  82990301.72349
        50.300    20267074.42649  20267070.645 7  79532355.457 7        43.300
  22771983.258 8 119667588.109 8        46.500    22771989.559 8  93247507.44949
        35.500    22771988.91049  22771985.137 4  89362178.829 4        34.700
  22553503.742 8 118519466.472 8        46.800    22553511.125 8  92352883.68249
        38.700    22553510.40649  22553507.016 5  88504839.174 5        36.400
  23755794.563 7 124837541.471 7        41.300                    97276016.33647
        26.200    23755797.76647
  21919778.492 8 115189233.681 8        47.100                    89757852.53749
        37.400    21919782.00849
  24291621.383 7 127653341.995 7        43.000    24291626.211 6  99470146.82847
        27.200    24291625.84047
  21545349.250 9 113221588.188 9        51.500    21545356.316 9  88224637.94049
        43.900    21545355.62149  21545353.758 6  84548600.193 6        39.700
  20522392.102 9 107845839.501 9        51.100                    84035781.06049
        47.400    20522393.11749
  20071041.719 9 105474049.802 9        48.800                    82187593.07049
        45.200    20071044.69149
  25288191.477 5 132890336.481 5        37.800                   103550925.09745
        19.300    25288193.23445
 17  4  7  0 57 30.0000000  0 10G01G32G08G28G14G17G03G22G11G23
  20263266.188 9 106484197.341 9        54.100    20263272.953 9  82974735.40849
        50.300    20263272.73049  20263268.949 7  79517437.735 7        43.100
  22783298.688 8 119727050.603 8        46.300    22783305.039 8  93293841.86049
        35.200    22783304.62949  22783300.910 4  89406582.631 4        34.800
  22572367.750 8 118618595.938 8        47.300    22572374.742 8  92430127.42449
        37.900    22572373.77049  22572370.969 5  88578864.426 5        36.600
  23763002.328 7 124875421.568 7        41.100                    97305533.29547
        26.000    23763005.60247
  21921927.281 8 115200523.526 8        46.800                    89766649.83049
        37.900    21921930.53549
  24273492.078 7 127558071.476 7        43.900    24273496.816 6  99395910.04647
        29.300    24273496.88747
  21532371.313 9 113153388.342 9        50.900    21532378.301 9  88171495.21049
        43.700    21532377.44149  21532375.637 6  84497671.736 6        40.300
  20518059.289 9 107823071.932 9        50.900                    84018040.09949
        47.400    20518060.60249
  20074871.000 9 105494171.867 9        48.800                    82203272.59349
        45.200    20074874.03949
  25267706.555 6 132782685.420 6        39.400                   103467041.21146
        22.600    25267708.51246
 17  4  7  0 58  0.0000000  0 10G01G32G08G28G14G17G03G22G11G23
  20259536.172 9 106464595.080 9        54.600    20259543.016 9  82959460.91149
        50.300    20259542.55149  20259538.766 7  79502799.679 7        43.800
  22794707.430 8 119787004.694 8        47.100    22794713.949 8  93340559.33649
        34.800    22794712.99649  22794710.156 5  89451353.545 5        35.000
  22591284.086 8 118718003.522 8        46.800    22591291.270 8  92507587.87349
        37.800    22591290.20749  22591287.402 5  88653097.347 5        35.800
  23770294.398 7 124913738.897 7        41.300                    97335390.93047
        27.600    23770297.27747
  21924183.594 8 115212380.980 8        46.600                    89775889.41449
        37.600    21924186.38349
  24255404.453 7 127463016.477 7        43.700    24255409.066 7  99321841.22547
        29.600    24255409.12947
  21519456.539 9 113085520.595 9        52.300    21519463.465 9  88118611.26149
        43.900    21519462.63349  21519460.832 6  84446991.288 6        39.400
  20513799.438 9 107800685.230 9        53.200                    84000595.91749
        47.500    20513800.22749
  20078803.539 9 105514837.623 9        49.300                    82219375.76949
        45.400    20078806.61749
  25247216.359 6 132675012.629 6        38.700                   103383140.33446
        20.600    25247218.66046
 17  4  7  0 58 30.0000000  0 10G01G32G08G28G14G17G03G22G11G23
  20255877.141 9 106445367.960 9        54.300    20255884.504 9  82944478.73949
        50.300    20255884.13349  20255880.348 7  79488441.768 7        43.200
  22806208.789 8 119847448.255 8        45.800    22806216.328 8  93387658.21149
        34.500    22806214.91049  22806211.895 5  89496489.960 5        35.000
  22610253.492 8 118817686.847 8        47.000    22610260.957 8  92585263.18649
        37.700    22610260.07849  22610256.688 5  88727536.177 5        35.800
  23777668.078 6 124952491.424 6        40.300                    97365587.70546
        24.900    23777671.50446
  21926548.234 8 115224805.115 8        47.000                    89785570.57249
        37.500    21926551.43849
  24237356.891 7 127368179.674 7        42.300    24237361.660 6  99247942.44047
        28.500    24237361.07447
  21506604.961 9 113017985.566 9        52.000    21506612.164 9  88065986.57749
        43.700    21506611.09049  21506609.871 7  84396559.296 7        41.100
  20509611.648 9 107778678.871 9        52.800                    83983448.11449
        47.600    20509612.80149
  20082839.625 9 105536047.150 9        48.800                    82235902.66349
        45.000    20082842.46549
  25226723.297 6 132567320.408 6        39.200                   103299224.31646
        22.000    25226725.58646
 17  4  7  0 59  0.0000000  0 10G01G32G08G28G14G17G03G22G11G23
  20252289.922 9 106426517.007 9        54.300    20252296.926 9  82929789.68449
        50.500    20252296.39849  20252292.672 7  79474364.756 7        43.500
  22817804.242 8 119908379.252 8        45.800    22817810.625 8  93435136.92149
        34.900    22817810.08249  22817805.953 4  89541990.389 4        34.900
  22629274.227 8 118917643.469 8        46.900    22629281.996 8  92663151.44749
        37.900    22629281.33649  22629277.477 5  88802179.111 5        35.200
  23785125.211 7 124991677.525 7        41.100                    97396122.28647
        25.500    23785128.91847
  21929019.586 8 115237795.797 8        46.800                    89795693.18549
        37.400    21929023.74249
  24219352.820 7 127273563.407 7        43.200    24219356.340 6  99174215.48647
        28.300    24219355.30147
  21493817.133 9 112950784.071 9        52.300    21493824.430 9  88013621.78149
        44.000    21493823.23049  21493821.953 6  84346376.368 6        40.400
  20505496.375 9 107757052.997 9        51.600                    83966596.78849
        47.600    20505497.57849
  20086979.078 9 105557800.300 9        49.000                    82252853.16849
        44.900    20086981.94949
  25206227.156 6 132459611.054 6        38.100                   103215294.92446
        21.100    25206229.04346
 17  4  7  0 59 30.0000000  0 10G01G32G08G28G14G17G03G22G11G23
  20248774.344 9 106408042.557 9        54.300    20248781.566 9  82915394.00249
        50.400    20248781.23049  20248777.449 7  79460568.893 7        43.600
  22829491.063 8 119969795.181 8        46.200    22829497.883 8  93482993.48349
        34.600    22829497.39549  22829493.270 4  89587852.945 4        34.600
  22648346.969 8 119017870.794 8        46.700    22648354.816 8  92741250.63549
        37.600    22648353.85549  22648350.758 5  88877024.175 5        36.300
  23792664.688 7 125031294.710 7        41.300                    97426992.82147
        26.400    23792667.61747
  21931599.359 8 115251352.150 8        46.700                    89806256.57149
        37.700    21931603.42249
  24201389.938 7 127179170.495 7        43.500    24201394.195 6  99100662.55547
        28.900    24201393.99247
  21481092.367 9 112883916.302 9        52.500    21481099.531 9  87961517.02749
        43.900    21481098.55149  21481097.453 7  84296442.651 7        41.100
  20501453.500 9 107735806.936 9        51.300                    83950041.42149
        47.800    20501454.19549
  20091221.906 9 105580096.558 9        49.900                    82270226.86049
        44.900    20091224.44949
  25185728.352 6 132351886.13216        38.900                   103131353.53056
        21.700    25185729.76646
 17  4  7  1  0  0.0000000  0 10G01G32G08G28G14G17G03G22G11G23
  20245330.570 9 106389945.889 9        55.700    20245337.652 9  82901292.70349
        50.500    20245337.35549  20245333.453 7  79447055.147 7        43.800
  22841270.352 8 120031694.369 8        45.700    22841276.762 8  93531226.61149
        34.900    22841276.22349  22841272.684 4  89634076.364 4        34.500
  22667470.852 8 119118366.510 8        46.500    22667477.816 8  92819558.98049
        37.100    22667476.71949  22667474.211 5  88952069.661 5        36.100
  23800285.711 7 125071341.564 7        41.800                    97458198.15847
        26.200    23800288.38347
  21934286.875 8 115265474.026 8        47.000                    89817260.64249
        37.500    21934290.39149
  24183470.906 7 127085003.163 7        44.600    24183475.117 6  99027285.45048
        30.000    24183474.55948
  21468431.586 9 112817383.426 9        51.900    21468438.402 9  87909673.24549
        43.700    21468437.32449  21468436.520 6  84246759.033 6        40.000
  20497482.539 9 107714940.809 9        52.900                    83933782.10449
        47.600    20497483.49249
  20095567.906 9 105602936.303 9        50.000                    82288024.05849
        45.000    20095571.31349
  25165226.320 6 132244148.267 6        39.400                   103047401.90846
        21.700    25165227.51246
 17  4  7  1  0 30.0000000  0 10G01G32G08G28G14G17G03G22G11G23
  20241959.023 9 106372227.773 9        54.200    20241966.184 9  82887486.37749
        50.500    20241965.84849  20241962.066 7  79433824.081 7        43.400
  22853140.664 8 120094074.639 8        46.800    22853147.211 7  93579834.62048
        33.900    22853146.18048  22853143.520 5  89680659.028 5        35.000
  22686646.031 8 119219128.226 8        47.300    22686652.730 8  92898074.61049
        36.800    22686651.44149  22686648.871 5  89027313.800 5        36.000
  23807987.430 7 125111816.044 7        41.800                    97489736.69047
        26.400    23807990.41447
  21937081.500 8 115280160.931 8        47.000                    89828704.98449
        37.300    21937084.91849
  24165594.516 7 126991063.692 7        43.500    24165598.641 6  98954085.83747
        28.500    24165598.45747
  21455834.602 9 112751186.085 9        51.800    21455841.426 9  87858090.90549
        43.700    21455840.35549  21455839.078 6  84197325.961 6        40.500
  20493584.227 9 107694454.136 9        51.200                    83917818.47049
        47.800    20493585.17249
  20100017.742 9 105626319.281 9        49.600                    82306244.55349
        45.200    20100020.79749
  25144721.539 5 132136399.625 5        37.500                   102963441.90546
        20.100    25144724.46146
 17  4  7  1  1  0.0000000  0 10G01G32G08G28G14G17G03G22G11G23
  20238659.672 9 106354889.025 9        55.300    20238666.652 9  82873975.66249
        50.500    20238666.30949  20238662.352 7  79420876.311 7        43.900
  22865102.609 8 120156933.809 8        45.900    22865108.992 8  93628815.79449
        34.400    22865108.09449  22865105.082 5  89727599.313 5        35.400
  22705869.492 8 119320153.492 8        46.700    22705877.016 8  92976795.59549
        37.400    22705876.01649  22705872.801 5  89102754.749 5        36.500
  23815770.789 7 125152716.309 7        41.800                    97521607.02147
        26.100    23815772.39547
  21939983.906 8 115295412.149 8        47.800                    89840589.05849
        37.500    21939987.35949
  24147762.383 7 126897354.816 7        43.000    24147766.629 7  98881065.92347
        29.000    24147765.80947
  21443301.445 9 112685324.838 9        52.300    21443308.805 9  87806770.46549
        44.400    21443307.68449  21443306.465 6  84148143.873 6        40.900
  20489757.852 9 107674346.645 9        52.700                    83902150.29749
        47.900    20489758.85249
  20104570.859 9 105650245.250 9        49.700                    82324888.15149
        45.300    20104573.84049
  25124217.391 6 132028642.071 6        38.600                   102879474.96946
        20.600    25124218.57446
 17  4  7  1  1 30.0000000  0 10G01G32G08G28G14G17G03G22G11G23
  20235432.492 9 106337930.228 9        55.700    20235439.496 9  82860761.01649
        50.500    20235439.20749  20235435.309 7  79408212.274 7        43.900
  22877154.547 7 120220269.573 7        44.900    22877161.063 8  93678168.33448
        33.600    22877160.69148  22877156.855 4  89774895.506 4        34.200
  22725143.820 8 119421439.694 8        46.300    22725151.113 8  93055719.89049
        37.100    22725150.25049  22725147.621 5  89178390.527 5        36.700
  23823633.734 6 125194040.196 6        40.900                    97553807.44347
        25.000    23823636.61747
  21942993.695 8 115311226.779 8        46.900                    89852912.15749
        37.800    21942996.89849
  24129974.320 7 126803878.837 7        43.400    24129978.672 6  98808227.51748
        30.400    24129978.02348
  21430832.891 9 112619800.255 9        52.800    21430839.332 9  87755712.35349
        44.100    21430838.44949  21430837.527 6  84099213.183 6        40.600
  20486003.727 9 107654618.247 9        52.800                    83886777.52949
        47.700    20486004.40249
  20109227.133 9 105674714.023 9        50.200                    82343954.72349
        45.000    20109230.25049
  25103709.711 6 131920878.377 6        38.400                   102795503.30245
        19.600    25103711.11745
 17  4  7  1  2  0.0000000  0 10G01G32G08G28G14G17G03G22G11G23
  20232277.633 9 106321352.146 9        55.600    20232284.852 9  82847843.02549
        50.600    20232284.65649  20232280.934 7  79395832.536 7        43.300
  22889297.617 8 120284079.719 8        45.700    22889304.266 7  93727890.52148
        33.800    22889303.40248  22889299.977 4  89822545.943 4        34.800
  22744466.938 8 119522984.402 8        46.000    22744474.188 8  93134845.62749
        36.100    22744473.07049  22744470.445 5  89254219.353 5        36.300
  23831578.016 6 125235786.065 6        40.900                    97586336.67146
        24.100    23831580.33246
  21946109.688 9 115327604.359 9        48.300                    89865673.91649
        37.100    21946113.05149
  24112231.938 7 126710638.315 7        44.100    24112235.707 6  98735572.57847
        29.200    24112234.64847
  21418428.148 9 112554612.912 9        53.200    21418434.992 9  87704917.02649
        44.100    21418433.91449  21418433.047 6  84050534.335 6        40.400
  20482321.625 9 107635268.441 9        52.800                    83871699.76349
        47.900    20482322.59449
  20113986.641 9 105699725.345 9        50.300                    82363444.05949
        45.100    20113989.66849
  25083202.297 6 131813110.403 6        38.900                   102711528.29746
        20.900    25083203.25846
 17  4  7  1  2 30.0000000  0 10G01G32G08G28G14G17G03G22G11G23
  20229195.789 9 106305156.095 9        54.100    20229202.891 9  82835222.72349
        50.600    20229202.84049  20229198.883 7  79383738.083 7        43.200
  22901530.234 8 120348362.540 8        45.800    22901536.754 7  93777981.02548
        33.400    22901535.89548  22901533.055 4  89870549.347 4        34.900
  22763838.813 8 119624785.538 8        46.000    22763846.809 8  93214171.17549
        36.700    22763845.82049  22763842.488 5  89330239.672 5        35.700
  23839602.008 7 125277951.547 7        41.100                    97619192.85647
        25.600    23839604.73447
  21949333.406 8 115344544.593 8        47.600                    89878874.09849
        37.100    21949336.92249
  24094533.484 7 126617636.047 7        44.300    24094537.613 6  98663103.26247
        29.400    24094536.94547
  21406087.867 9 112489763.894 9        53.200    21406094.586 9  87654385.33649
        44.300    21406093.78149  21406092.215 6  84002108.139 6        40.400
  20478711.500 9 107616297.500 9        51.000                    83856917.21949
        47.800    20478712.56349
  20118849.172 9 105725279.614 9        50.200                    82383356.47649
        45.100    20118852.46949
  25062694.586 6 131705340.382 6        38.600                   102627551.67845
        19.900    25062695.43445
 17  4  7  1  3  0.0000000  0 10G01G32G08G28G14G17G03G22G11G23
  20226186.461 9 106289342.578 9        55.400    20226193.656 9  82822900.50049
        50.600    20226193.40249  20226189.328 7  79371929.288 7        43.800
  22913852.133 8 120413115.571 8        46.200    22913858.520 7  93828437.94349
        34.200    22913857.66449  22913855.238 5  89918903.867 5        35.400
  22783259.914 8 119726840.375 8        45.900    22783267.473 8  93293694.41449
        36.500    22783266.27349  22783263.234 5  89406449.444 5        36.300
  23847705.195 7 125320534.722 7        41.700                    97652374.55447
        25.600    23847708.69147
  21952663.836 8 115362046.792 8        46.600                    89892512.18449
        37.300    21952667.57449
  24076882.000 7 126524874.488 7        43.800    24076886.113 6  98590821.52848
        30.300    24076885.83648
  21393811.875 9 112425253.646 9        52.200    21393818.328 9  87604117.61949
        44.700    21393817.85949  21393816.059 6  83953934.915 6        40.800
  20475173.586 9 107597705.108 9        53.900                    83842429.64749
        47.900    20475173.94549
  20123815.586 9 105751376.085 9        49.500                    82403691.37549
        45.200    20123818.18449
  25042185.000 5 131597570.367 5        37.600                   102543575.04946
        20.400    25042186.64846
 17  4  7  1  3 30.0000000  0 10G01G32G08G28G14G17G03G22G11G23
  20223250.094 9 106273912.196 9        55.500    20223257.195 9  82810876.82549
        50.500    20223256.91049  20223252.949 7  79360406.594 7        43.900
  22926263.773 8 120478336.434 8        46.000    22926269.523 8  93879259.40948
        33.900    22926269.07848  22926265.773 4  89967607.753 4        34.900
  22802728.180 8 119829146.171 8        46.300    22802734.906 7  93373413.21549
        36.400    22802733.71149  22802730.789 5  89482846.631 5        35.800
  23855887.094 6 125363533.841 6        40.000                    97685880.34847
        25.500    23855891.14847
  21956101.258 8 115380109.937 8        46.400                    89906587.36449
        36.800    21956104.99649
  24059276.203 7 126432355.418 7        44.100    24059280.594 7  98518728.75448
        30.600    24059280.50048
  21381600.461 9 112361082.517 9        52.700    21381607.480 9  87554114.14849
        44.600    21381606.96549  21381604.930 6  83906014.924 6        40.200
  20471707.258 9 107579490.201 9        53.400                    83828236.21349
        48.000    20471708.53949
  20128884.234 9 105778014.324 9        49.800                    82424448.43349
        45.200    20128887.18049
  25021678.375 6 131489802.660 6        39.200                   102459600.23446
        21.500    25021680.45746
 17  4  7  1  4  0.0000000  0 10G01G32G08G28G14G17G03G22G11G23
  20220387.211 9 106258865.936 9        54.800    20220394.551 9  82799152.46049
        50.600    20220394.12949  20220390.402 7  79349170.747 7        43.800
  22938763.164 8 120544023.099 8        46.200    22938770.098 8  93930443.81749
        34.300    22938769.27749  22938765.035 4  90016659.494 4        34.200
  22822243.164 8 119931700.607 8        46.100    22822250.754 8  93453325.76149
        35.700    22822249.10949  22822246.480 5  89559429.474 5        35.900
  23864148.961 7 125406946.702 7        41.200                    97719708.53446
        24.400    23864151.41446
  21959644.922 8 115398733.736 8        47.200                    89921099.41849
        36.800    21959648.97349
  24041716.703 7 126340081.976 7        44.100    24041721.363 7  98446827.38547
        29.200    24041720.98447
  21369453.656 9 112297251.342 9        52.100    21369460.371 9  87504375.57949
        44.900    21369459.66449  21369458.039 6  83858348.786 6        40.400
  20468313.039 9 107561653.234 9        51.800                    83814337.28449
        47.800    20468313.66049
  20134057.023 9 105805194.298 9        49.500                    82445627.62549
        45.000    20134059.58249
  25001172.242 6 131382039.362 6        38.800                   102375628.80346
        22.600    25001172.85246
 17  4  7  1  4 30.0000000  0 10G01G32G08G28G14G17G03G22G11G23
  20217596.977 9 106244204.515 9        54.200    20217604.172 9  82787727.97749
        50.800    20217604.02049  20217600.180 7  79338222.282 7        43.800
  22951350.805 8 120610173.282 8        46.300    22951357.855 8  93981989.40448
        33.400    22951357.42648  22951353.711 4  90066057.358 4        34.400
  22841805.305 8 120034501.360 8        45.200    22841812.922 8  93533430.22249
        36.100    22841812.09849  22841808.477 4  89636196.258 4        34.900
  23872489.039 6 125450771.201 6        40.400                    97753857.51147
        25.100    23872491.87547
  21963295.625 9 115417917.433 9        48.500                    89936047.75349
        37.000    21963299.71149
  24024205.219 7 126248056.675 7        44.100    24024208.473 6  98375119.36947
        29.100    24024208.05947
  21357371.766 9 112233760.722 9        52.200    21357378.676 9  87454902.37549
        44.900    21357377.75049  21357376.414 6  83810936.974 6        40.500
  20464990.891 9 107544193.796 9        51.700                    83800732.52949
        47.900    20464991.60549
  20139331.492 9 105832915.646 9        49.500                    82467228.66449
        45.000    20139334.41449
  24980666.695 6 131274282.732 6        38.100                   102291662.63646
        20.900    24980667.56646
 17  4  7  1  5  0.0000000  0 10G01G32G08G28G14G17G03G22G11G23
  20214880.570 9 106229928.848 9        54.200    20214887.547 9  82776604.07549
        50.700    20214887.33249  20214883.313 7  79327561.881 7        43.900
  22964027.023 8 120676784.872 8        46.200    22964033.078 7  94033894.53248
        33.600    22964032.44148  22964029.309 4  90115799.774 4        34.700
  22861414.586 8 120137546.193 8        46.100    22861421.910 8  93613724.87949
        36.200    22861421.31349  22861417.984 5  89713145.312 5        35.900
  23880905.758 6 125495005.504 6        40.600                    97788325.75146
        24.600    23880908.71146
  21967052.477 8 115437659.841 8        47.200                    89951431.45949
        37.000    21967056.18849
  24006741.078 7 126156281.690 7        44.400    24006745.406 7  98303606.36648
        30.400    24006744.38748
  21345354.898 9 112170611.322 9        52.200    21345362.035 9  87405695.06249
        44.500    21345360.98049  21345359.531 6  83763779.967 6        40.200
  20461740.055 9 107527111.827 9        51.400                    83787421.90349
        48.000    20461741.00849
  20144710.055 9 105861178.383 9        50.300                    82489251.57249
        45.300    20144713.41449
  24960162.992 6 131166534.984 6        39.400                   102207703.37246
        21.800    24960164.43446
 17  4  7  1  5 30.0000000  0 10G01G32G08G28G14G17G03G22G11G23
  20212237.453 9 106216039.493 9        54.800    20212244.340 9  82765781.20249
        50.900    20212244.19949  20212240.418 7  79317189.951 7        43.900
  22976790.094 8 120743855.425 8        45.500    22976796.238 8  94086157.30849
        34.300    22976795.21949  22976792.676 4  90165884.922 4        34.400
  22881069.453 8 120240831.982 8        45.300    22881076.313 8  93694207.30749
        35.700    22881075.14549  22881072.695 5  89790274.298 5        35.600
  23889401.180 6 125539647.217 6        40.900                    97823111.47846
        24.500    23889403.87546
  21970915.672 9 115457960.425 9        48.900                    89967250.09549
        38.100    21970919.25449
  23989324.945 7 126064759.726 7        44.300    23989329.102 7  98232290.56148
        30.800    23989328.43048
  21333403.102 9 112107803.581 9        51.300    21333410.406 9  87356753.97549
        44.800    21333409.42649  21333408.035 6  83716878.094 6        40.700
  20458560.602 9 107510406.156 9        51.200                    83774404.50549
        48.200    20458562.25449
  20150190.945 9 105889981.560 9        49.200                    82511695.60349
        45.500    20150194.19949
  24939660.914 6 131058798.165 6        38.800                   102123752.58146
        22.200    24939662.76646
 17  4  7  1  6  0.0000000  0 10G01G32G08G28G14G17G03G22G11G23
  20209668.070 9 106202537.310 9        55.900    20209675.289 9  82755260.01349
        50.800    20209674.83249  20209670.992 7  79307107.152 7        43.700
  22989639.891 8 120811382.771 8        45.400    22989645.965 7  94138776.02448
        33.800    22989645.68848  22989641.738 4  90216311.187 4        34.400
  22900769.289 8 120344356.710 8        45.500    22900776.484 7  93774875.93149
        35.200    22900775.26649  22900772.578 4  89867581.708 4        34.900
  23897973.453 7 125584694.636 7        41.300                    97858213.36147
        25.200    23897975.84847
  21974884.789 9 115478818.693 9        48.400                    89983503.30249
        37.300    21974888.75849
  23971957.531 7 125973493.010 7        44.500    23971961.324 6  98161173.65248
        30.200    23971961.01648
  21321515.914 9 112045338.148 9        51.200    21321523.102 9  87308079.62349
        44.800    21321522.24649  21321520.441 6  83670231.840 6        40.300
  20455453.781 9 107494077.115 9        51.900                    83761680.58849
        48.000    20455454.62549
  20155774.961 9 105919325.616 9        50.100                    82534561.08849
        45.200    20155778.48849
  24919161.281 6 130951074.529 6        38.000                   102039812.12146
        21.800    24919163.84046
 17  4  7  1  6 30.0000000  0 10G01G32G08G28G14G17G03G22G11G23
  20207172.469 9 106189422.952 9        56.400    20207179.625 9  82745041.02749
        50.800    20207179.21949  20207175.434 7  79297313.957 7        43.400
  23002576.297 8 120879364.517 8        45.700    23002582.840 8  94191748.81049
        34.000    23002582.25849  23002578.305 3  90267076.787 3        33.900
  22920513.875 8 120448117.665 8        45.400    22920521.547 8  93855728.62549
        35.400    22920520.68849  22920517.707 5  89945065.545 5        35.600
  23906621.391 6 125630145.355 6        39.900                    97893629.47646
        23.600    23906624.79746
  21978960.031 9 115500233.354 9        48.100                    90000190.05849
        37.200    21978963.34849
  23954638.828 7 125882484.462 7        44.200    23954642.734 7  98090257.90547
        29.900    23954642.58647
  21309694.531 9 111983215.531 9        51.200    21309701.461 9  87259672.39849
        44.700    21309700.59049  21309698.668 6  83623841.582 6        40.900
  20452418.125 9 107478124.103 9        53.700                    83749249.67349
        48.300    20452419.31649
  20161461.844 9 105949209.741 9        49.300                    82557847.41049
        45.300    20161464.79749
  24898665.805 6 130843366.051 6        40.200                   101955883.45446
        21.500    24898666.97746
 17  4  7  1  7  0.0000000  0 10G01G32G08G28G14G17G03G22G11G23
  20204750.648 9 106176697.335 9        56.400    20204757.949 9  82735124.96649
        50.600    20204757.61749  20204753.773 7  79287811.060 7        43.700
  23015599.258 8 120947798.542 8        45.800    23015605.559 7  94245074.02649
        34.000    23015604.66049  23015601.180 3  90318180.128 3        33.900
  22940303.508 8 120552112.345 8        45.000    22940311.238 7  93936763.42049
        35.200    22940310.03949  22940307.117 5  90022723.893 5        35.200
  23915347.188 6 125675997.367 6        39.900                    97929358.31646
        23.600    23915350.57046
  21983140.984 9 115522203.962 9        48.600                    90017310.01849
        36.900    21983144.47749
  23937370.500 8 125791736.118 8        45.300    23937373.930 7  98019544.90048
        30.700    23937374.04748
  21297938.609 9 111921436.400 9        52.000    21297945.293 9  87211532.82549
        45.000    21297944.35549  21297942.844 6  83577707.819 6        40.500
  20449453.797 9 107462546.975 9        53.500                    83737111.65349
        48.100    20449455.12949
  20167251.242 9 105979633.592 9        49.200                    82581554.30149
        45.200    20167254.29349
  24878172.805 6 130735675.356 6        39.900                   101871968.59646
        22.800    24878174.77746
 17  4  7  1  7 30.0000000  0 10G01G32G08G28G14G17G03G22G11G23
  20202403.242 9 106164361.059 9        56.500    20202410.469 9  82725512.28149
        50.700    20202410.13349  20202406.230 7  79278598.907 7        44.500
  23028707.258 8 121016682.434 8        45.000    23028713.613 7  94298749.79248
        33.600    23028712.68048  23028710.137 4  90369619.400 4        34.800
  22960137.398 8 120656338.422 8        45.900    22960144.641 7  94017978.52949
        35.500    22960143.46149  22960140.539 4  90100555.038 4        34.800
  23924148.234 6 125722248.510 6        40.200                    97965398.11947
        25.600    23924152.81347
  21987427.336 9 115544729.511 9        48.500                    90034862.39649
        36.500    21987430.65649
  23920151.117 7 125701250.602 7        44.300    23920155.820 7  97949036.69748
        31.200    23920155.27048
  21286247.797 9 111860001.245 9        51.700    21286254.855 9  87163661.28449
        45.000    21286253.99649  21286252.488 6  83531830.924 6        40.700
  20446560.961 9 107447345.121 9        53.400                    83725266.05849
        48.400    20446562.13749
  20173143.172 9 106010596.817 9        49.200                    82605681.48349
        45.500    20173146.64849
  24857683.813 6 130628004.104 6        40.000                   101788068.97846
        22.300    24857685.93446
 17  4  7  1  8  0.0000000  0 10G01G32G08G28G14G17G03G22G11G23
  20200130.117 9 106152414.917 9        56.400    20200137.047 9  82716203.59949
        50.800    20200136.85249  20200133.012 7  79269678.087 7        43.800
  23041900.234 8 121086013.882 8        45.200    23041906.934 7  94352774.29448
        31.900    23041905.71548  23041903.520 4  90421392.872 4        34.600
  22980014.188 8 120760793.160 8        45.300    22980021.809 8  94099371.82449
        35.000    22980020.89149  22980017.676 5  90178556.947 5        35.300
  23933025.820 6 125768896.583 6        40.400                    98001747.26047
        25.700    23933028.75047
  21991818.813 9 115567809.081 9        48.100                    90052846.48349
        37.000    21991822.62949
  23902983.125 7 125611030.678 7        44.100    23902987.449 7  97878735.46748
        31.400    23902987.15648
  21274622.664 9 111798910.595 9        52.700    21274629.633 9  87116058.19249
        45.400    21274628.86349  21274627.527 7  83486211.295 7        41.300
  20443739.445 9 107432518.379 9        53.800                    83713712.75549
        48.400    20443740.38749
  20179137.953 9 106042098.956 9        49.100                    82630228.59949
        45.100    20179141.31349
  24837197.531 6 130520355.128 6        39.000                   101704186.65146
        20.600    24837200.46546
 17  4  7  1  8 30.0000000  0 10G01G32G08G28G14G17G03G22G11G23
  20197931.297 9 106140859.806 9        56.800    20197938.352 9  82707199.60949
        50.800    20197938.03949  20197934.254 7  79261049.264 7        43.700
  23055178.609 7 121155790.756 7        44.300    23055185.152 7  94407145.88048
        32.400    23055183.99648  23055181.219 3  90473498.957 3        33.200
  22999934.531 8 120865474.193 8        45.600    22999942.348 8  94180941.45049
        34.800    22999941.47349  22999937.617 4  90256727.839 4        34.400
  23941976.773 6 125815939.517 6        40.200                    98038404.08947
        25.400    23941980.87947
  21996316.391 9 115591441.821 9        49.000                    90071261.61349
        37.300    21996319.85549
  23885865.531 7 125521078.636 7        44.700    23885869.730 7  97808642.96848
        31.300    23885869.10948
  21263063.258 9 111738165.195 9        51.600    21263069.797 9  87068724.11149
        45.400    21263068.92649  21263067.828 6  83440849.477 6        40.900
  20440989.195 9 107418066.591 9        53.200                    83702451.62449
        48.500    20440990.56349
  20185235.383 9 106074139.668 9        49.300                    82655195.38249
        45.200    20185238.33649
  24816717.906 6 130412730.318 6        39.900                   101620323.12946
        21.500    24816719.68046
 17  4  7  1  9  0.0000000  0 10G01G32G08G28G14G17G03G22G11G23
  20195807.141 9 106129696.676 9        54.800    20195814.496 9  82698501.06549
        50.700    20195814.10949  20195810.152 7  79252713.159 7        43.700
  23068541.094 8 121226010.886 8        45.600    23068547.695 7  94461862.86448
        31.900    23068546.93048  23068543.098 3  90525936.081 3        33.600
  23019897.500 8 120970379.168 8        45.300    23019904.809 8  94262685.56949
        34.300    23019903.57449  23019900.891 4  90335065.962 4        34.800
  23951003.789 6 125863375.549 6        40.100                    98075367.21447
        25.200    23951007.89547
  22000918.609 9 115615627.143 9        49.700                    90090107.32249
        37.400    22000922.06349
  23868800.031 7 125431397.153 7        44.900    23868804.199 7  97738761.28848
        30.500    23868803.84448
  21251569.414 9 111677765.737 9        52.700    21251576.445 9  87021659.61649
        45.100    21251575.48449  21251573.973 6  83395746.004 6        40.800
  20438310.648 9 107403989.872 9        51.300                    83691482.76049
        48.500    20438311.82449
  20191434.898 9 106106718.885 9        50.000                    82680581.77649
        45.100    20191438.02349
  24796243.469 6 130305132.024 6        40.500                   101536480.33846
        23.200    24796245.14146
 17  4  7  1  9 30.0000000  0 10G01G32G08G28G14G17G03G22G11G23
  20193757.391 9 106118925.971 9        54.000    20193764.988 9  82690108.30149
        50.700    20193764.68049  20193760.957 7  79244670.097 7        44.500
  23081987.734 8 121296671.745 8        45.600    23081994.184 7  94516923.27448
        32.700    23081993.49248  23081989.656 4  90578702.315 4        34.200
  23039901.688 8 121075505.295 8        45.300    23039909.398 7  94344602.03548
        33.600    23039908.23048  23039905.660 5  90413569.235 5        35.200
  23960105.086 6 125911202.016 6        39.600                    98112634.56946
        23.300    23960108.96946
  22005626.016 9 115640364.089 9        48.400                    90109382.88149
        37.100    22005629.66049
  23851785.945 7 125341988.710 7        44.900    23851789.684 7  97669092.38948
        31.000    23851788.98048
  21240141.875 9 111617712.585 9        52.800    21240148.734 9  86974864.95349
        45.700    21240147.99249  21240146.539 7  83350901.115 7        41.400
  20435703.125 9 107390287.277 9        51.300                    83680805.41649
        48.400    20435704.23449
  20197737.016 9 106139835.999 9        49.200                    82706387.31249
        45.400    20197740.02349
  24775773.609 7 130197562.097 7        41.100                   101452659.64046
        22.800    24775775.24646
 17  4  7  1 10  0.0000000  0 10G01G32G08G28G14G17G03G22G11G23
  20191782.750 9 106108548.300 9        54.100    20191789.758 9  82682021.80349
        50.600    20191789.39149  20191785.551 7  79236920.532 7        43.600
  23095517.148 8 121367770.813 8        45.800    23095523.648 7  94572325.14548
        32.600    23095522.55148  23095519.832 3  90631795.776 3        33.900
  23059948.344 7 121180850.043 7        44.500    23059956.152 7  94426688.85448
        33.400    23059954.94948  23059951.910 5  90492235.753 5        35.100
  23969279.844 6 125959416.693 6        39.100                    98150204.44946
        22.500    23969282.64146
  22010437.750 9 115665651.293 9        48.200                    90129087.19249
        36.500    22010441.83249
  23834824.531 7 125252855.805 7        44.600    23834828.773 7  97599638.17248
        30.500    23834828.11348
  21228780.133 9 111558006.035 9        52.900    21228786.832 9  86928340.37749
        45.600    21228786.23449  21228784.902 6  83306315.071 6        40.900
  20433166.648 9 107376958.165 9        51.400                    83670419.10249
        48.500    20433167.85949
  20204141.188 9 106173490.350 9        49.700                    82732611.47549
        45.000    20204144.10549
  24755309.188 7 130090023.013 7        41.400                   101368862.93946
        22.800    24755310.79746
 17  4  7  1 10 30.0000000  0 10G01G32G08G28G14G17G03G22G11G23
  20189882.695 9 106098564.779 9        57.200    20189889.316 9  82674242.43449
        50.700    20189889.25049  20189885.234 7  79229465.303 7        43.600
  23109130.367 8 121439306.160 8        46.100    23109136.469 7  94628066.97948
        32.400    23109135.61348  23109132.250 4  90685215.018 4        34.200
  23080035.984 7 121286411.243 7        44.700    23080043.668 7  94508944.32149
        34.500    23080043.00449  23080039.090 3  90571063.914 3        33.700
  23978528.805 6 126008017.309 6        40.300                    98188075.02346
        23.800    23978531.48046
  22015354.609 9 115691488.207 9        48.100                    90149219.85449
        36.900    22015357.77349
  23817916.156 8 125164000.741 8        45.600    23817919.918 7  97530400.44548
        30.900    23817919.19548
  21217484.172 9 111498647.040 9        52.900    21217491.137 9  86882086.62249
        45.500    21217490.41049  21217489.195 6  83261988.562 6        40.800
  20430701.398 9 107364002.656 9        53.400                    83660323.90549
        48.600    20430702.47349
  20210647.242 9 106207681.695 9        50.000                    82759254.07749
        45.400    20210650.61749
  24734851.516 7 129982517.244 7        41.100                   101285092.19946
        22.500    24734853.39546
 17  4  7  1 11  0.0000000  0 11G01G32G08G28G14G17G03G22G11G31G23
  20188058.016 9 106088975.729 9        56.700    20188064.914 9  82666770.44149
        50.600    20188064.60549  20188060.938 7  79222304.645 7        43.500
  23122825.414 8 121511274.992 8        45.700    23122831.969 7  94684146.58648
        32.600    23122831.28548  23122827.918 4  90738957.969 4        34.600
  23100164.516 7 121392186.154 7        44.900    23100171.766 7  94591366.31549
        34.000    23100170.65649  23100167.676 4  90650051.677 4        34.400
  23987851.000 6 126057001.769 6        40.800                    98226244.71047
        25.100    23987854.28547
  22020375.555 9 115717873.327 9        48.800                    90169779.69849
        37.300    22020379.08649
  23801060.719 8 125075425.908 8        45.400    23801064.879 7  97461381.10248
        31.600    23801064.25448
  21206254.805 9 111439635.585 9        53.000    21206261.672 9  86836103.67649
        45.600    21206260.80549  21206259.527 6  83217921.570 6        40.600
  20428307.031 9 107351419.945 9        53.800                    83650519.19449
        48.500    20428307.75049
  20217255.648 9 106242408.692 9        50.000                    82786314.06449
        45.300    20217258.92649
  24935163.078 6 131035160.22016        40.300    24935169.199 6 102105340.89156
        20.900    24935167.79346
  24714401.305 7 129875046.557 7        43.200                   101201348.84646
        23.000    24714402.68046
 17  4  7  1 11 30.0000000  0 11G01G32G08G28G14G17G03G22G11G31G23
  20186308.578 9 106079782.015 9        54.100    20186315.656 9  82659606.50449
        50.700    20186315.17249  20186311.387 7  79215439.200 7        44.100
  23136602.625 8 121583675.086 8        45.700    23136609.313 8  94740562.25148
        33.400    23136608.49648  23136604.836 3  90793022.984 3        33.400
  23120333.172 7 121498172.167 7        44.500    23120340.469 7  94673952.82048
        33.800    23120339.26648  23120336.813 5  90729197.058 5        35.300
  23997244.148 6 126106367.989 6        38.900                    98264711.88846
        23.600    23997247.62546
  22025500.375 8 115744805.936 8        47.400                    90190766.15749
        36.600    22025504.18049
  23784259.102 8 124987134.232 8        45.300    23784263.473 7  97392582.37948
        31.200    23784262.81348
  21195091.586 9 111380972.580 9        52.700    21195098.824 9  86790392.25549
        45.300    21195097.85549  21195096.402 7  83174114.793 7        41.400
  20425983.375 9 107339209.852 9        51.200                    83641004.83449
        48.500    20425984.50049
  20223966.125 9 106277671.750 9        50.100                    82813791.76349
        45.100    20223969.47349
  24920172.367 6 130956385.560 6        38.300    24920178.859 5 102043958.06646
        21.100    24920178.41846
  24693955.258 6 129767613.347 6        39.000                   101117634.59746
        22.900    24693958.85946
 17  4  7  1 12  0.0000000  0 11G01G32G08G28G14G17G03G22G11G31G23
  20184634.359 9 106070984.159 9        54.300    20184641.340 9  82652751.02849
        50.700    20184640.93849  20184637.156 7  79208869.369 7        43.900
  23150461.016 7 121656503.901 7        44.600    23150467.504 7  94797311.97348
        32.100    23150466.84048  23150463.359 3  90847408.151 3        33.700
  23140541.008 7 121604366.665 7        44.300    23140548.785 7  94756701.77448
        33.900    23140547.48448  23140544.504 4  90808498.140 4        34.700
  24006710.461 6 126156113.442 6        40.200                    98303474.58046
        23.500    24006714.38746
  22030729.234 8 115772284.871 8        47.800                    90212178.30649
        36.500    22030732.70349
  23767511.844 7 124899128.510 7        44.500    23767516.762 7  97324006.49948
        31.000    23767516.27348
  21183994.828 9 111322658.240 9        53.400    21184001.844 9  86744952.52049
        45.700    21184001.08249  21183999.691 7  83130568.384 7        41.700
  20423730.781 9 107327371.677 9        51.400                    83631780.29649
        48.600    20423732.01249
  20230778.320 9 106313469.829 9        50.800                    82841686.36649
        45.100    20230781.50849
  24905219.070 6 130877802.931 6        40.200    24905224.637 5 101982724.88545
        19.600    24905223.89545
  24673519.906 6 129660219.611 6        40.000                   101033951.21646
        22.900    24673522.35946
 17  4  7  1 12 30.0000000  0 11G01G32G08G28G14G17G03G22G11G31G23
  20183035.773 9 106062583.269 9        56.800    20183042.809 9  82646204.87449
        50.800    20183042.60949  20183038.828 7  79202595.972 7        44.100
  23164401.133 8 121729759.503 8        45.000    23164407.844 7  94854394.25448
        32.200    23164406.72348  23164404.004 5  90902112.002 5        35.100
  23160788.742 7 121710767.358 7        43.900    23160795.902 7  94839611.39848
        33.800    23160795.11748  23160791.551 4  90887953.205 4        34.600
  24016248.789 6 126206236.591 6        39.200                    98342531.54946
        24.600    24016251.85946
  22036062.156 8 115800309.536 8        47.000                    90234015.72049
        37.100    22036066.27749
  23750820.391 8 124811410.314 8        46.300    23750824.543 7  97255654.67148
        31.800    23750823.54348
  21172964.414 9 111264693.446 9        53.400    21172971.020 9  86699785.15349
        45.700    21172970.15249  21172968.758 7  83087282.996 7        41.100
  20421548.891 9 107315905.727 9        54.000                    83622845.78949
        48.800    20421549.85549
  20237692.289 9 106349802.923 9        50.300                    82869997.86349
        44.900    20237695.16049
  24890302.734 6 130799416.099 6        39.500    24890307.738 4 101921644.25245
        19.300    24890307.01245
  24653092.500 7 129552867.898 7        41.900                   100950300.53546
        21.100    24653092.74646
 17  4  7  1 13  0.0000000  0 11G01G32G08G28G14G17G03G22G11G31G23
  20181512.633 9 106054579.729 9        56.400    20181519.902 9  82639968.35149
        50.800    20181519.73849  20181515.723 7  79196619.305 7        43.900
  23178422.266 7 121803439.070 7        44.600    23178428.543 7  94911806.91448
        32.700    23178427.32848  23178425.195 3  90957132.452 3        33.800
  23181074.359 7 121817371.633 7        43.400    23181081.516 7  94922679.65348
        32.400    23181080.43048  23181077.977 4  90967560.285 4        34.000
  24025858.406 6 126256734.085 6        39.700                    98381880.26846
        24.700    24025861.23846
  22041498.766 8 115828878.719 8        46.800                    90256277.42349
        36.700    22041502.82449
  23734183.391 8 124723982.774 8        46.200    23734186.887 7  97187529.31148
        30.900    23734186.29748
  21162000.695 9 111207078.352 9        53.100    21162007.777 9  86654890.28449
        45.900    21162006.49649  21162005.219 6  83044258.746 6        40.900
  20419437.539 9 107304811.338 9        53.600                    83614200.81449
        48.800    20419438.47349
  20244707.703 9 106386669.639 9        51.200                    82898725.16249
        44.800    20244710.93049
  24875423.789 6 130721227.793 6        40.400    24875428.609 5 101860718.29446
        20.400    24875428.82446
  24632670.594 6 129445560.278 6        39.400                   100866684.15146
        23.200    24632673.59046
 17  4  7  1 13 30.0000000  0 12G01G32G08G19G28G14G17G03G22G11G31G23
  20180065.289 9 106046974.368 9        56.700    20180072.855 9  82634042.09149
        50.700    20180072.44549  20180068.547 7  79190939.967 7        43.400
  23192522.898 8 121877540.431 8        45.100    23192529.539 7  94969548.24048
        32.300    23192528.83648  23192525.707 3  91012467.879 3        33.500
  23201398.711 7 121924176.940 7        43.800    23201406.289 7  95005904.57148
        33.100    23201405.19548  23201402.566 3  91047317.472 3        33.800
  25103906.578 5 131921917.25315        36.100                   102796317.19356
        20.600    25103909.25846
  24035538.984 6 126307604.452 6        40.300                    98421519.49946
        23.800    24035541.66046
  22047039.219 8 115857991.237 8        46.800                    90278962.50549
        36.700    22047042.48849
  23717602.125 8 124636848.128 8        46.200    23717606.457 7  97119632.18448
        30.800    23717605.41448
  21151103.477 9 111149813.571 9        53.200    21151110.063 9  86610268.38649
        45.500    21151109.13749  21151108.098 7  83001496.095 7        41.400
  20417397.109 9 107294088.055 9        53.600                    83605845.01449
        48.900    20417397.99249
  20251824.805 9 106424070.163 9        51.100                    82927868.42349
        45.500    20251827.95349
  24860585.266 7 130643241.423 7        41.700    24860587.957 5 101799949.69946
        20.600    24860587.12946
  24612261.273 7 129338298.819 7        41.000                   100783103.85446
        22.600    24612263.31346
 17  4  7  1 14  0.0000000  0 12G01G32G08G19G28G14G17G03G22G11G31G23
  20178693.898 9 106039768.018 9        56.400    20178701.184 9  82628426.74749
        50.800    20178701.00849  20178697.227 7  79185558.597 7        44.100
  23206703.969 7 121952061.268 7        44.300    23206711.168 7  95027616.42048
        32.000    23206710.07848  23206706.305 3  91068116.562 3        33.400
  23221761.250 7 122031181.140 7        44.700    23221768.855 8  95089284.45948
        33.100    23221767.71148  23221764.438 4  91127223.206 4        34.000
  25083325.711 6 131813759.837 6        38.000                   102712038.61346
        21.300    25083327.34846
  24045288.367 6 126358845.275 6        39.000                    98461447.36746
        24.500    24045292.78146
  22052682.555 8 115887646.349 8        47.300                    90302070.39049
        36.900    22052685.64549
  23701076.547 8 124550009.388 8        46.200    23701081.906 7  97051965.63348
        31.900    23701080.74648
  21140273.156 9 111092899.752 9        52.900    21140279.844 9  86565919.96749
        45.700    21140278.80949  21140277.535 7  82958995.529 7        41.400
  20415427.219 9 107283735.940 9        53.200                    83597778.42849
        48.700    20415427.80549
  20259043.258 9 106462004.077 9        50.800                    82957427.31249
        45.100    20259046.29349
  24845782.281 6 130565459.977 6        39.700    24845787.910 6 101739340.78946
        21.700    24845786.93846
  24591859.367 7 129231085.957 7        41.700                   100699561.34046
        23.200    24591860.58246
 17  4  7  1 14 30.0000000  0 12G01G32G08G19G28G14G17G03G22G11G31G23
  20177398.805 9 106032961.169 9        54.100    20177405.801 9  82623122.70449
        50.800    20177405.70749  20177401.809 7  79180475.555 7        43.600
  23220964.078 7 122026999.044 7        44.900    23220970.402 7  95086009.48948
        31.200    23220969.51648  23220965.449 3  91124076.598 3        33.500
  23242160.625 7 122138380.991 7        44.300    23242168.051 7  95172816.79448
        32.700    23242166.87148  23242163.715 3  91207275.033 3        33.700
  25062778.070 5 131705782.939 5        37.100                   102627900.86146
        20.600    25062780.56346
  24055110.242 6 126410454.023 6        39.200                    98501661.98846
        22.300    24055113.18446
  22058428.453 8 115917842.181 8        46.400                    90325599.61649
        36.600    22058431.65249
  23684608.711 8 124463469.011 8        45.500    23684613.098 7  96984531.59448
        31.800    23684611.59448
  21129509.859 9 111036337.137 9        53.000    21129516.574 9  86521845.20749
        46.000    21129515.68849  21129514.473 7  82916757.223 7        41.600
  20413527.477 9 107273753.865 9        51.500                    83590000.19349
        48.800    20413528.51649
  20266363.234 9 106500470.126 9        51.000                    82987400.84649
        44.900    20266366.32049
  24831021.141 6 130487886.574 6        38.800    24831025.883 5 101678893.98446
        22.500    24831026.11346
  24571466.109 6 129123923.529 6        40.800                   100616058.11747
        25.400    24571468.57447
 17  4  7  1 15  0.0000000  0 12G01G32G08G19G28G14G17G03G22G11G31G23
  20176179.617 9 106026554.667 9        56.100    20176186.574 9  82618130.61749
        50.900    20176186.29749  20176182.336 7  79175691.475 7        43.900
  23235302.977 7 122102351.398 7        44.900    23235309.234 7  95144725.61748
        32.100    23235308.39848  23235305.328 3  91180346.220 3        33.400
  23262597.094 7 122245774.365 7        44.500    23262604.641 7  95256499.94348
        33.100    23262603.27048  23262600.113 4  91287471.389 4        34.000
  25042265.789 5 131597989.475 5        36.900                   102543905.85046
        21.300    25042267.29746
  24065000.203 6 126462428.468 6        39.200                    98542161.52746
        22.200    24065003.16446
  22064276.758 8 115948577.892 8        46.100                    90349549.52149
        36.200    22064280.75049
  23668198.430 8 124377228.771 8        47.000    23668202.711 7  96917331.39848
        32.000    23668201.33648
  21118812.961 9 110980126.331 9        53.700    21118819.703 9  86478044.58649
        45.800    21118818.80949  21118817.180 7  82874781.631 7        41.300
  20411698.523 9 107264141.567 9        54.500                    83582510.08949
        49.000    20411699.65649
  20273784.227 9 106539467.778 9        51.000                    83017788.61849
        45.000    20273787.41449
  24816299.039 6 130410524.242 6        38.700    24816304.742 6 101618611.69946
        22.200    24816304.08646
  24551083.313 6 129016814.159 6        40.100                   100532596.29346
        24.100    24551086.65246
 17  4  7  1 15 30.0000000  0 12G01G32G08G19G28G14G17G03G22G11G31G23
  20175036.844 9 106020549.042 9        56.300    20175043.828 9  82613450.90649
        50.900    20175043.69949  20175039.563 7  79171206.753 7        43.700
  23249720.453 7 122178115.830 7        43.700    23249726.914 7  95203762.83348
        31.500    23249726.34848  23249723.395 4  91236923.543 4        34.000
  23283069.656 7 122353358.673 7        43.900    23283076.641 7  95340331.87048
        32.800    23283075.49248  23283073.391 4  91367810.313 4        34.100
  25021788.875 5 131490381.952 5        36.100                   102460055.84445
        18.600    25021789.96145
  24074959.859 6 126514766.224 6        39.400                    98582944.17846
        22.800    24074963.48446
  22070228.539 8 115979852.422 8        46.500                    90373919.28749
        37.200    22070231.80949
  23651844.508 8 124291291.390 8        46.000    23651848.516 7  96850367.21048
        31.300    23651847.75448
  21108183.516 9 110924267.684 9        52.600    21108190.348 9  86434518.38749
        45.900    21108189.62549  21108188.000 6  82833069.024 6        40.900
  20409939.578 9 107254898.632 9        53.600                    83575307.80449
        48.800    20409940.54749
  20281306.102 9 106578996.434 9        51.600                    83048590.16249
        44.800    20281309.14549
  24801618.039 6 130333376.208 6        40.400    24801623.652 5 101558496.38246
        22.500    24801623.03946
  24530712.570 6 128909760.205 6        40.600                   100449177.63246
        22.800    24530714.18446
 17  4  7  1 16  0.0000000  0 12G01G32G08G19G28G14G17G03G22G11G31G23
  20173970.633 9 106014944.947 9        56.200    20173977.664 9  82609084.07449
        50.800    20173977.28949  20173973.215 7  79167021.865 7        44.100
  23264216.344 8 122254289.840 8        45.100    23264222.520 7  95263119.19248
        31.500    23264221.97748  23264218.496 3  91293806.727 3        33.600
  23303578.047 7 122461131.403 7        44.200    23303585.625 7  95424310.61648
        32.800    23303584.59848  23303580.855 4  91448289.924 4        34.600
  25001347.328 5 131382963.079 5        36.900                   102376352.84946
        20.600    25001349.09446
  24084987.703 6 126567464.743 6        39.100                    98624007.95046
        22.900    24084991.43446
  22076281.938 8 116011664.496 8        46.300                    90398707.92749
        36.700    22076285.14149
  23635550.172 8 124205659.789 8        46.000    23635553.777 7  96783641.30448
        33.300    23635553.31648
  21097621.078 9 110868761.592 9        53.400    21097627.844 9  86391266.89749
        46.000    21097627.03949  21097625.293 7  82791619.675 7        41.000
  20408250.805 9 107246024.570 9        53.700                    83568392.95349
        48.800    20408251.97749
  20288929.266 9 106619055.495 9        51.900                    83079805.00849
        44.800    20288932.32849
  24786979.688 6 130256445.779 6        40.600    24786984.293 5 101498550.58046
        22.000    24786983.35946
  24510352.297 7 128802763.450 7        41.400                   100365803.53946
        22.900    24510353.97746
 17  4  7  1 16 30.0000000  0 12G01G32G08G19G28G14G17G03G22G11G31G23
  20172980.547 9 106009743.099 9        56.800    20172987.863 9  82605030.68649
        50.800    20172987.51649  20172983.559 7  79163137.373 7        43.900
  23278788.766 8 122330871.073 8        45.400    23278795.320 7  95322792.88448
        31.400    23278795.00448  23278791.168 3  91350994.015 3        32.400
  23324121.648 7 122569089.973 7        44.100    23324129.523 7  95508434.15248
        31.600    23324128.71548  23324125.148 4  91528908.339 4        34.100
  24980943.125 5 131275735.928 5        37.100                   102292799.19146
        21.800    24980945.03146
  24095084.813 6 126620522.021 6        40.400                    98665351.27247
        25.600    24095088.24247
  22082438.008 8 116044012.764 8        46.400                    90423914.37349
        36.400    22082440.81649
  23619313.289 8 124120336.047 8        46.400    23619317.355 7  96717155.26348
        33.300    23619317.28948
  21087125.727 9 110813608.576 9        54.100    21087132.297 9  86348290.52949
        46.100    21087131.57049  21087130.352 7  82750433.987 7        41.700
  20406632.180 9 107237519.287 9        54.400                    83561765.46449
        48.700    20406633.45749
  20296653.094 9 106659643.935 9        51.500                    83111432.35749
        45.500    20296656.02049
  24772382.219 6 130179736.180 6        39.900    24772386.688 6 101438776.85246
        22.500    24772386.09446
  24490002.125 6 128695826.442 6        39.200                   100282476.00746
        23.000    24490004.73046
 17  4  7  1 17  0.0000000  0 12G01G32G08G19G28G14G17G03G22G11G31G23
  20172067.625 9 106004944.206 9        55.700    20172074.473 9  82601291.28649
        50.800    20172074.30149  20172070.402 7  79159553.773 7        44.300
  23293438.961 7 122407857.100 7        44.600    23293445.883 7  95382782.00548
        31.900    23293445.19548  23293441.422 3  91408483.592 3        32.400
  23344700.617 7 122677231.960 7        44.900    23344707.637 7  95592700.63548
        31.400    23344706.81348  23344704.477 3  91609663.711 3        33.200
  24960576.367 6 131168702.851 6        38.200                   102209396.77446
        23.000    24960577.00446
  24105249.164 6 126673935.567 6        40.500                    98706972.19546
        22.500    24105251.84846
  22088695.055 8 116076896.391 8        47.000                    90449537.97649
        36.000    22088698.69949
  23603135.344 8 124035322.857 8        46.800    23603139.512 7  96650911.22848
        32.100    23603139.32448
  21076697.633 9 110758809.092 9        53.900    21076704.316 9  86305589.64149
        46.100    21076703.39549  21076702.063 7  82709512.320 7        41.400
  20405083.773 9 107229382.163 9        54.100                    83555424.85549
        48.900    20405084.92249
  20304477.422 9 106700761.577 9        51.300                    83143472.06949
        44.900    20304480.64149
  24757827.164 6 130103250.372 6        40.500    24757832.152 5 101379177.51846
        22.200    24757831.94946
  24469665.289 7 128588951.233 7        41.200                   100199196.62246
        22.000    24469666.61746
 17  4  7  1 17 30.0000000  0 12G01G32G08G19G28G14G17G03G22G11G31G23
  20171231.195 9 106000548.805 9        56.400    20171238.152 9  82597866.29649
        50.800    20171237.83249  20171234.051 7  79156271.496 7        44.200
  23308164.898 7 122485245.337 7        44.400    23308172.047 7  95443084.52948
        30.900    23308171.30948  23308167.887 3  91466273.510 3        33.600
  23365313.805 7 122785554.529 7        44.600    23365321.422 7  95677107.81948
        31.000    23365320.48048  23365317.504 4  91690553.916 4        34.100
  24940245.414 5 131061866.898 5        37.300                   102126148.04246
        21.700    24940246.10246
  24115480.148 6 126727702.583 6        38.600                    98748868.54746
        22.200    24115484.37946
  22095054.258 8 116110313.909 8        46.200                    90475577.60549
        36.400    22095057.88749
  23587017.766 8 123950622.897 8        46.700    23587021.156 7  96584911.25748
        33.100    23587021.09848
  21066337.086 9 110704363.453 9        54.300    21066343.844 9  86263164.48349
        46.300    21066342.84449  21066341.449 6  82668854.879 6        40.900
  20403605.352 9 107221612.472 9        53.200                    83549370.55349
        48.800    20403606.34449
  20312402.383 9 106742407.270 9        51.800                    83175923.24949
        44.900    20312405.87149
  24743315.578 6 130026991.208 6        38.700    24743320.016 5 101319754.80046
        20.100    24743318.80546
  24449337.844 6 128482139.755 6        40.200                   100115966.88746
        22.300    24449339.85546
 17  4  7  1 18  0.0000000  0 12G01G32G08G19G28G14G17G03G22G11G31G23
  20170471.133 9 105996557.568 9        55.900    20170478.383 9  82594756.23749
        50.700    20170478.03549  20170474.313 7  79153291.023 7        44.100
  23322968.234 8 122563033.390 8        45.500    23322974.250 7  95503698.59948
        31.800    23322973.58648  23322970.219 3  91524361.995 3        32.700
  23385960.250 8 122894055.498 8        45.000    23385968.383 7  95761654.01848
        32.300    23385967.31648  23385963.984 4  91771577.354 4        34.000
  24919953.711 5 130955230.512 5        36.600                   102043054.73446
        22.000    24919954.73846
  24125778.750 6 126781820.973 6        39.300                    98791038.74246
        22.300    24125782.01246
  22101515.109 8 116144264.151 8        46.300                    90502032.34549
        36.800    22101518.19549
  23570960.234 8 123866238.450 8        47.100    23570963.605 7  96519157.13348
        32.300    23570963.45348
  21056043.703 9 110650272.142 9        54.100    21056050.914 9  86221015.41649
        46.600    21056050.09049  21056048.168 7  82628462.023 7        41.100
  20402196.883 9 107214210.050 9        54.100                    83543602.43349
        48.900    20402198.16449
  20320427.641 9 106784580.368 9        52.400                    83208785.39249
        44.900    20320430.98449
  24728846.961 6 129950962.424 6        38.400    24728852.422 6 101260511.63146
        21.800    24728851.57446
  24429026.133 7 128375394.577 7        42.500                   100032788.81346
        22.900    24429026.90246
 17  4  7  1 18 30.0000000  0 12G01G32G08G19G28G14G17G03G22G11G31G23
  20169788.820 9 105992971.135 9        54.500    20169796.090 9  82591961.61849
        50.700    20169795.62949  20169791.965 7  79150612.843 7        43.900
  23337846.070 8 122641218.793 8        45.600    23337852.672 7  95564622.28048
        30.500    23337851.90248  23337848.773 3  91582747.179 3        33.300
  23406640.914 8 123002731.770 8        45.500    23406648.469 7  95846336.83748
        31.600    23406647.33248  23406644.410 4  91852731.730 4        34.300
  24899699.164 6 130848796.610 6        39.400                   101960119.15946
        21.700    24899700.68846
  24136144.094 6 126836288.484 6        39.500                    98833480.90447
        25.100    24136147.65247
  22108076.445 8 116178745.750 8        46.300                    90528901.12949
        36.300    22108080.18849
  23554962.742 8 123782172.195 8        47.700    23554966.789 7  96453650.97348
        33.300    23554966.99648
  21045818.195 9 110596535.536 9        54.400    21045824.902 9  86179142.74649
        46.600    21045824.13749  21045822.156 6  82588334.045 6        40.800
  20400858.063 9 107207174.322 9        51.400                    83538120.05249
        48.900    20400859.00849
  20328553.188 9 106827280.242 9        51.700                    83242058.02049
        45.000    20328556.46949
  24714423.867 6 129875166.728 6        40.200    24714429.387 6 101201450.08746
        22.800    24714429.22346
  24408725.727 7 128268717.856 7        42.000                    99949664.08047
        25.300    24408727.84447
 17  4  7  1 19  0.0000000  0 12G01G32G08G19G28G14G17G03G22G11G31G23
  20169183.453 9 105989790.165 9        56.100    20169190.395 9  82589482.93349
        50.800    20169190.12149  20169186.105 7  79148237.442 7        43.900
  23352799.695 8 122719799.005 8        45.000    23352805.781 7  95625853.61748
        30.700    23352805.22748  23352801.746 3  91641427.202 3        33.000
  23427354.633 7 123111581.224 7        44.900    23427362.082 7  95931154.59248
        31.800    23427361.00448  23427358.023 3  91934015.419 3        33.300
  24879485.398 6 130742568.112 6        38.800                   101877343.66246
        20.400    24879484.90246
  24146574.891 6 126891102.890 6        39.200                    98876193.43446
        23.300    24146578.33246
  22114739.227 8 116213757.496 8        46.300                    90556183.00749
        36.200    22114742.07449
  23539026.375 9 123698426.436 9        48.000    23539030.789 7  96388394.55548
        33.100    23539030.42248
  21035659.961 9 110543154.041 9        53.700    21035666.910 9  86137546.79749
        46.500    21035665.96949  21035664.168 7  82548471.255 7        41.100
  20399588.789 9 107200504.778 9        54.000                    83532923.01349
        48.900    20399589.86749
  20336778.914 9 106870506.136 9        51.300                    83275740.52549
        44.900    20336781.97749
  24700045.180 6 129799607.369 6        40.700    24700050.469 5 101142572.63946
        21.500    24700049.11346
  24388440.578 7 128162111.912 7        42.200                    99866594.54647
        25.700    24388441.35547
 17  4  7  1 19 30.0000000  0 12G01G32G08G19G28G14G17G03G22G11G31G23
  20168655.688 9 105987015.144 9        56.400    20168662.848 9  82587320.57849
        50.800    20168662.39849  20168658.672 7  79146165.184 7        44.000
  23367827.375 7 122798771.483 7        44.700    23367833.566 7  95687390.61348
        30.600    23367832.93048  23367829.508 3  91700400.169 3        32.500
  23448099.953 8 123220601.106 8        45.000    23448107.965 7  96016105.13748
        31.300    23448106.88748  23448104.258 4  92015426.343 4        34.000
  24859310.094 5 130636547.344 5        37.200                   101794730.13146
        21.100    24859312.19146
  24157071.328 6 126946261.479 6        39.000                    98919174.12046
        22.500    24157074.34046
  22121502.258 8 116249297.933 8        47.000                    90583876.86249
        36.500    22121505.68049
  23523151.773 8 123615003.631 8        47.300    23523155.762 7  96323389.76348
        32.800    23523154.77748
  21025569.422 9 110490127.967 9        54.200    21025576.008 9  86096227.78149
        46.400    21025575.07849  21025573.742 7  82508873.880 7        41.200
  20398388.992 9 107194200.642 9        54.300                    83528010.69949
        48.800    20398389.90249
  20345104.281 9 106914256.979 9        51.500                    83309832.08349
        44.900    20345107.59449
  24685712.945 7 129724287.329 7        41.100    24685717.559 6 101083881.74446
        22.300    24685717.02046
  24368167.625 7 128055578.715 7        42.400                    99783581.67147
        25.800    24368169.32047
 17  4  7  1 20  0.0000000  0 12G01G32G08G19G28G14G17G03G22G11G31G23
  20168204.883 9 105984647.056 9        56.000    20168212.402 9  82585475.31449
        50.800    20168212.09049  20168208.188 7  79144396.802 7        43.700
  23382929.859 8 122878134.097 8        45.700    23382936.605 7  95749231.62248
        30.900    23382935.66448  23382932.125 3  91759664.466 3        32.400
  23468878.172 7 123329788.830 7        44.100    23468885.949 7  96101186.48748
        31.900    23468885.18848  23468881.504 3  92096962.640 3        33.300
  24839176.305 6 130530737.671 6        38.000                   101712281.06446
        22.200    24839176.05546
  24167631.781 6 127001761.984 6        38.300                    98962421.26046
        21.800    24167635.47346
  22128365.547 8 116285366.220 8        46.400                    90611982.02349
        36.100    22128369.07849
  23507339.102 9 123531906.605 9        48.300    23507343.199 7  96258638.85148
        33.200    23507343.05548
  21015546.461 9 110437458.035 9        54.300    21015553.531 9  86055186.28049
        46.600    21015552.51649  21015550.770 7  82469542.445 7        41.600
  20397258.844 9 107188262.530 9        52.500                    83523383.60349
        48.800    20397260.01249
  20353529.875 9 106958532.452 9        52.100                    83344332.44149
        44.700    20353532.94549
  24671425.922 6 129649210.035 6        40.500    24671430.367 5 101025379.99546
        20.900    24671428.74246
  24347908.664 7 127949120.665 7        41.100                    99700627.33647
        26.000    24347911.19547
 17  4  7  1 20 30.0000000  0 12G01G32G08G19G28G14G17G03G22G11G31G23
  20167831.617 9 105982686.274 9        55.100    20167838.785 9  82583947.42849
        50.600    20167838.74249  20167834.898 7  79142932.576 7        43.500
  23398105.586 7 122957884.062 7        44.600    23398112.250 7  95811374.46248
        30.500    23398111.30148  23398107.996 3  91819218.025 3        32.600
  23489686.758 7 123439142.178 7        43.500    23489694.570 7  96186396.86148
        30.600    23489693.60248  23489690.035 3  92178622.601 3        32.300
  24819080.016 5 130425141.21915        36.000                   101629998.05456
        21.300    24819082.27746
  24178258.516 6 127057601.481 6        39.800                    99005932.55646
        23.500    24178261.56346
  22135329.539 8 116321960.497 8        46.700                    90640497.05249
        35.900    22135332.93049
  23491588.664 8 123449137.546 8        47.700    23491592.617 7  96194143.48149
        34.100    23491592.08649
  21005591.695 9 110385144.364 9        54.000    21005598.438 9  86014422.39849
        46.600    21005597.57449  21005595.891 6  82430477.052 6        40.900
  20396198.461 9 107182689.314 9        51.700                    83519040.84049
        48.700    20396199.67649
  20362054.922 9 107003331.368 9        51.000                    83379240.67849
        44.800    20362057.95749
  24657185.023 6 129574378.450 6        39.300    24657190.230 5 100967069.60046
        21.300    24657189.44146
  24327665.359 7 127842740.040 7        41.600                    99617733.37347
        25.200    24327666.82447
 17  4  7  1 21  0.0000000  0 12G01G32G08G19G28G14G17G03G22G11G31G23
  20167536.063 9 105981133.385 9        56.300    20167543.457 9  82582737.38449
        50.800    20167543.26249  20167539.535 7  79141772.953 7        43.800
  23413355.016 7 123038018.891 7        43.600    23413361.266 7  95873817.18348
        30.900    23413360.45348  23413357.148 3  91879058.962 3        33.400
  23510527.992 7 123548658.525 7        44.300    23510534.723 7  96271734.28748
        30.700    23510533.92648  23510531.707 3  92260404.287 3        33.500
  24799027.445 5 130319761.072 5        37.100                   101547883.62246
        21.100    24799028.21946
  24188948.578 6 127113777.849 6        39.900                    99049706.32146
        22.600    24188952.17646
  22142392.836 8 116359079.463 8        46.300                    90669420.92349
        36.400    22142395.91849
  23475900.984 8 123366698.998 8        47.100    23475904.938 7  96129905.65648
        33.800    23475904.78148
  20995704.477 9 110333187.337 9        54.400    20995711.434 9  85973936.41149
        46.900    20995710.32449  20995708.871 7  82391677.986 7        41.100
  20395207.320 9 107177480.406 9        54.100                    83514981.95349
        48.900    20395207.98449
  20370679.070 9 107048652.851 9        51.100                    83414556.11249
        44.800    20370682.33249
  24642994.266 6 129499795.656 6        40.800    24642998.609 6 100908953.16946
        22.900    24642998.13746
  24307436.422 6 127736438.938 6        40.900                    99534901.32546
        22.900    24307438.87146
 17  4  7  1 21 30.0000000  0 12G01G32G08G19G28G14G17G03G22G11G31G23
  20167318.633 9 105979988.960 9        55.700    20167325.227 9  82581845.62349
        50.700    20167325.24649  20167321.289 7  79140918.349 7        44.200
  23428676.594 7 123118536.050 7        43.800    23428683.703 7  95936557.82948
        30.800    23428682.71148  23428679.051 3  91939185.409 3        32.400
  23531398.461 7 123658334.846 7        44.000    23531406.063 7  96357196.35148
        31.600    23531405.60548  23531402.508 4  92342305.415 4        34.900
  24779016.031 6 130214600.123 6        38.100                   101465939.95246
        22.800    24779016.37146
  24199702.242 6 127170288.629 6        40.100                    99093740.68146
        24.500    24199706.50046
  22149555.711 8 116396721.997 8        46.600                    90698752.77849
        36.400    22149559.42249
  23460276.773 8 123284593.427 8        47.200    23460281.020 7  96065927.29449
        34.100    23460280.60949
  20985885.391 9 110281587.288 9        54.100    20985892.160 9  85933728.59349
        46.600    20985891.39849  20985889.828 7  82353145.492 7        41.600
  20394285.211 9 107172635.049 9        54.100                    83511206.35449
        48.800    20394286.13749
  20379402.969 9 107094496.245 9        50.700                    83450278.23049
        44.700    20379406.01249
  24628848.656 7 129425464.813 7        41.700    24628853.730 5 100851033.08346
        22.500    24628852.51246
  24287224.203 7 127630219.557 7        42.500                    99452132.98346
        24.700    24287225.99246
 17  4  7  1 22  0.0000000  0 12G01G32G08G19G28G14G17G03G22G11G31G23
  20167178.508 9 105979253.831 9        54.800    20167185.918 9  82581272.79349
        50.800    20167185.69949  20167181.738 7  79140369.389 7        43.500
  23444070.727 7 123199433.237 7        43.200    23444077.547 7  95999594.60948
        30.700    23444076.30948  23444072.473 3  91999595.664 3        33.000
  23552298.781 7 123768169.217 7        42.700    23552306.941 7  96442781.56048
        30.500    23552306.21148  23552302.707 3  92424324.569 3        32.800
  24759046.664 5 130109660.825 5        36.500                   101384169.06746
        20.600    24759047.79346
  24210518.125 6 127227131.478 6        38.300                    99138033.79946
        21.700    24210522.04746
  22156818.711 8 116434886.657 8        46.000                    90728491.48149
        36.300    22156821.94949
  23444716.828 9 123202823.299 9        48.000    23444720.246 7  96002210.29848
        33.400    23444719.64548
  20976134.039 9 110230344.718 9        54.100    20976141.074 9  85893799.32349
        46.800    20976140.31649  20976138.516 7  82314879.952 7        41.300
  20393432.359 9 107168153.429 9        52.800                    83507714.19149
        48.900    20393433.60549
  20388225.664 9 107140860.672 9        51.000                    83486406.34449
        44.600    20388228.66849
  24614752.422 6 129351389.055 6        40.800    24614757.383 6 100793311.72247
        25.200    24614756.76647
  24267027.641 7 127524084.263 7        42.100                    99369430.15646
        22.800    24267029.69546
 17  4  7  1 22 30.0000000  0 12G01G32G08G19G28G14G17G03G22G11G31G23
  20167116.758 9 105978928.418 9        54.500    20167123.980 9  82581019.21949
        50.700    20167123.75049  20167119.852 7  79140126.378 7        43.900
  23459536.711 7 123280707.816 7        42.900    23459543.238 7  96062925.44547
        29.600    23459542.22347  23459538.801 3  92060287.714 3        32.600
  23573229.242 7 123878158.406 7        42.500    23573236.805 7  96528487.41448
        30.300    23573235.26648  23573232.754 3  92506459.370 3        32.800
  24739120.313 6 130004946.254 6        38.300                   101302573.35746
        22.600    24739121.05146
  24221397.773 6 127284303.950 6        38.600                    99182583.73346
        21.100    24221401.07046
  22164180.188 8 116473571.735 8        46.800                    90758635.70149
        36.700    22164183.50849
  23429220.047 9 123121391.192 9        48.300    23429224.109 7  95938756.70748
        33.900    23429223.73448
  20966451.336 9 110179460.002 9        54.600    20966458.074 9  85854148.90649
        47.200    20966457.28149  20966455.301 7  82276881.639 7        41.300
  20392648.633 9 107164034.697 9        53.200                    83504504.79949
        48.900    20392649.64149
  20397147.281 9 107187745.277 9        51.000                    83522939.79349
        44.400    20397150.57049
  24600705.914 7 129277571.553 7        41.100    24600710.434 5 100735791.60946
        22.500    24600710.03946
  24246847.289 7 127418035.149 7        41.400                    99286794.47346
        23.300    24246848.78546
 17  4  7  1 23  0.0000000  0 12G01G32G08G19G28G14G17G03G22G11G31G23
  20167133.039 9 105979013.235 9        53.800    20167139.922 9  82581085.31249
        50.900    20167139.85949  20167135.727 7  79140189.720 7        43.300
  23475074.227 7 123362357.109 7        43.900    23475080.945 7  96126548.27048
        31.200    23475080.39848  23475076.742 3  92121259.590 3        32.600
  23594188.430 7 123988300.191 7        41.400    23594196.789 7  96614312.20248
        30.400    23594195.19948  23594192.570 4  92588708.102 4        34.300
  24719236.883 6 129900459.075 6        38.500                   101221154.76046
        20.900    24719237.03146
  24232339.961 6 127341803.149 6        39.500                    99227388.31346
        22.000    24232342.68846
  22171640.297 8 116512776.487 8        46.400                    90789184.86749
        36.200    22171643.75849
  23413789.352 8 123040299.641 8        46.700    23413793.434 7  95875568.50948
        33.500    23413792.80948
  20956836.289 9 110128933.346 9        53.900    20956843.125 9  85814777.50549
        47.300    20956842.39149  20956840.648 7  82239150.708 7        41.000
  20391933.641 9 107160278.200 9        51.600                    83501577.65749
        49.000    20391934.86749
  20406168.086 9 107235149.010 9        51.100                    83559877.75549
        44.700    20406171.40249
  24586707.898 6 129204015.429 6        40.300    24586712.625 5 100678475.16246
        22.600    24586711.27746
  24226682.828 7 127312074.239 7        42.000                    99204227.51946
        23.400    24226684.69546
 17  4  7  1 23 30.0000000  0 12G01G32G08G19G28G14G17G03G22G11G31G23
  20167227.133 9 105979508.796 9        56.300    20167234.320 9  82581471.46449
        50.800    20167233.96149  20167230.117 7  79140559.780 7        43.100
  23490682.844 7 123444378.582 7        42.400    23490689.363 7  96190461.10948
        30.200    23490688.71948  23490684.711 3  92182509.410 3        32.500
  23615175.656 7 124098592.104 7        41.400    23615184.043 7  96700253.93848
        30.700    23615183.50848  23615180.000 3  92671068.923 3        33.500
  24699396.281 5 129796201.823 5        35.700                   101139915.33046
        22.000    24699399.10246
  24243343.641 6 127399626.810 6        39.400                    99272445.68946
        23.500    24243346.95746
  22179199.711 8 116552498.692 8        46.000                    90820137.23649
        36.100    22179203.08249
  23398423.148 8 122959550.945 8        46.800    23398426.875 7  95812647.42348
        33.800    23398426.23048
  20947289.578 9 110078764.976 9        54.700    20947296.621 9  85775685.26749
        47.000    20947295.62149  20947293.758 6  82201687.319 6        40.900
  20391287.727 9 107156883.107 9        53.500                    83498932.12749
        48.900    20391288.61349
  20415287.422 9 107283070.751 9        50.800                    83597219.35549
        44.500    20415290.60549
  24572760.945 6 129130723.524 6        40.500    24572765.719 5 100621364.60946
        21.700    24572764.93446
  24206536.117 6 127206203.897 6        40.400                    99121731.17147
        26.000    24206539.04347
 17  4  7  1 24  0.0000000  0 12G01G32G08G19G28G14G17G03G22G11G31G23
  20167399.992 9 105980415.939 9        56.100    20167407.219 9  82582178.32649
        50.800    20167407.10249  20167403.258 7  79141237.193 7        44.200
  23506360.766 7 123526770.010 7        43.500    23506367.301 7  96254662.20748
        30.000    23506366.21548  23506363.145 3  92244035.471 3        32.300
  23636192.844 7 124209031.484 7        43.000    23636199.660 7  96786310.56848
        31.600    23636199.08648  23636195.520 3  92753539.876 3        32.300
  24679602.453 5 129692177.830 5        37.000                   101058857.66846
        22.300    24679603.96946
  24254408.867 6 127457772.221 6        39.200                    99317753.80246
        22.500    24254412.86346
  22186856.414 8 116592737.082 8        46.800                    90851491.83049
        36.400    22186860.05149
  23383122.414 8 122879147.573 8        46.700    23383126.828 7  95749995.46448
        33.600    23383126.90248
  20937811.047 9 110028955.533 9        54.900    20937817.934 9  85736872.72549
        47.100    20937817.23049  20937815.840 7  82164491.966 7        41.900
  20390710.461 9 107153849.842 9        52.300                    83496568.55149
        48.900    20390711.30549
  20424505.172 9 107331509.953 9        51.300                    83634964.18149
        44.700    20424508.08649
  24558864.484 6 129057699.175 6        39.000    24558870.012 5 100564462.53446
        21.500    24558868.97746
  24186407.656 7 127100426.580 7        41.800                    99039307.31246
        24.500    24186409.59846
 17  4  7  1 24 30.0000000  0 12G01G32G08G19G28G14G17G03G22G11G31G23
  20167650.641 9 105981735.134 9        54.400    20167657.988 9  82583206.27549
        50.800    20167657.76649  20167653.922 7  79142222.304 7        43.900
  23522109.563 7 123609528.657 7        43.600    23522115.930 7  96319149.49347
        29.400    23522115.48447  23522112.059 3  92305835.767 3        33.100
  23657236.266 7 124319615.809 7        42.100    23657243.285 7  96872480.18347
        29.000    23657242.13347  23657239.211 3  92836119.122 3        32.300
  24659852.531 6 129588389.684 6        39.400                   100977983.74246
        24.400    24659853.75046
  24265534.141 6 127516237.134 6        39.200                    99363310.82046
        22.600    24265537.99646
  22194611.188 8 116633490.243 8        46.900                    90883247.54349
        35.800    22194614.47349
  23367889.164 8 122799092.022 8        46.600    23367892.824 7  95687614.51148
        33.700    23367891.84448
  20928401.031 9 109979505.193 9        54.100    20928407.711 9  85698340.00749
        47.200    20928406.94549  20928405.551 7  82127564.777 7        41.600
  20390202.070 9 107151177.407 9        52.500                    83494486.14249
        49.100    20390203.09849
  20433820.953 9 107380465.599 9        50.800                    83673111.43149
        44.700    20433824.16049
  24545020.898 6 128984945.384 6        40.300    24545025.074 6 100507771.27146
        22.200    24545024.40646
  24166296.953 7 126994744.302 7        41.600                    98956957.47646
        24.700    24166298.80946
 17  4  7  1 25  0.0000000  0 12G01G32G08G19G28G14G17G03G22G11G31G23
  20167980.461 9 105983466.759 9        53.900    20167987.543 9  82584555.58649
        50.700    20167987.41049  20167983.453 7  79143515.399 7        43.900
  23537927.219 7 123692651.904 7        43.400    23537933.629 7  96383920.86148
        30.400    23537932.64148  23537929.684 3  92367908.322 3        32.000
  23678306.453 7 124430342.461 7        43.500    23678314.074 7  96958760.69248
        30.200    23678313.18848  23678310.387 3  92918804.587 3        33.600
  24640146.859 6 129484840.095 6        38.000                   100897295.75446
        22.900    24640149.68046
  24276719.852 6 127575018.587 6        39.000                    99409114.53046
        22.300    24276723.52346
  22202463.984 8 116674756.575 8        46.200                    90915403.13849
        35.800    22202467.82849
  23352721.664 8 122719387.073 8        46.900    23352725.672 7  95625506.75749
        34.600    23352724.56349
  20919059.492 9 109930414.183 9        54.100    20919066.211 9  85660087.27949
        47.000    20919065.25849  20919063.746 7  82090905.922 7        41.800
  20389761.914 9 107148865.515 9        51.600                    83492684.66749
        48.900    20389763.03149
  20443234.961 9 107429936.214 9        51.900                    83711659.95649
        44.500    20443238.07449
  24531227.953 6 128912465.285 6        39.900    24531232.406 6 100451293.26646
        23.200    24531231.90246
  24146204.609 7 126889159.399 7        42.200                    98874683.54047
        25.600    24146207.15247
 17  4  7  1 25 30.0000000  0 12G01G32G08G19G28G14G17G03G22G11G31G23
  20168388.438 9 105985611.566 9        56.000    20168395.547 9  82586226.86949
        50.800    20168395.44149  20168391.602 7  79145117.047 7        43.600
  23553813.828 7 123776137.348 7        42.100    23553821.020 7  96448974.46247
        29.800    23553820.31647  23553817.066 3  92430251.353 3        32.300
  23699403.883 7 124541208.911 7        43.600    23699411.871 7  97045150.12548
        30.500    23699411.23448  23699408.020 3  93001594.453 3        33.700
  24620488.508 5 129381531.588 5        37.900                   100816795.64146
        22.300    24620490.60546
  24287965.086 6 127634114.431 6        38.700                    99455163.24945
        19.900    24287967.39545
  22210414.070 8 116716534.923 8        45.800                    90947957.69749
        36.800    22210417.75849
  23337621.594 8 122640034.884 8        47.100    23337625.195 7  95563673.87749
        34.300    23337624.72749
  20909786.039 9 109881682.994 9        54.000    20909792.805 9  85622114.92949
        47.100    20909792.01649  20909790.211 7  82054515.753 7        41.100
  20389390.711 9 107146913.370 9        53.800                    83491163.52549
        49.000    20389391.85249
  20452746.898 9 107479921.550 9        51.200                    83750609.55149
        44.200    20452750.03949
  24517488.141 6 128840261.944 6        39.600    24517493.574 6 100395030.94446
        22.900    24517492.83246
  24126130.625 6 126783673.885 6        40.500                    98792487.02446
        24.700    24126133.16046
 17  4  7  1 26  0.0000000  0 12G01G32G08G19G28G14G17G03G22G11G31G23
  20168875.539 9 105988170.080 9        54.500    20168882.703 9  82588220.51349
        50.800    20168882.39849  20168878.500 7  79147027.623 7        43.700
  23569769.367 7 123859982.443 7        42.600    23569775.637 7  96514308.30247
        29.000    23569774.71547  23569771.527 3  92492862.960 3        32.100
  23720526.273 7 124652212.560 7        43.200    23720534.613 7  97131646.47947
        29.800    23720533.77347  23720530.207 2  93084486.790 2        31.800
  24600874.266 5 129278467.543 5        36.900                   100736485.95446
        22.600    24600878.26646
  24299269.844 6 127693522.164 6        38.300                    99501454.99946
        21.700    24299272.32446
  22218461.289 8 116758823.420 8        46.600                    90980909.77349
        35.400    22218464.55549
  23322589.008 8 122561037.809 8        47.800    23322593.078 7  95502117.71949
        34.400    23322592.68049
  20900581.258 9 109833311.873 9        54.000    20900588.363 9  85584423.15449
        47.300    20900587.49249  20900585.516 7  82018394.464 7        41.300
  20389087.555 9 107145320.474 9        51.900                    83489922.30249
        49.200    20389088.34849
  20462356.563 9 107530420.360 9        51.300                    83789959.26649
        44.400    20462359.96949
  24503801.133 6 128768338.300 6        39.200    24503807.254 6 100338986.57046
        24.100    24503806.73446
  24106078.695 7 126678290.313 7        41.900                    98710369.95947
        25.200    24106080.51647
 17  4  7  1 26 30.0000000  0 12G01G32G08G19G28G14G17G03G22G11G31G23
  20169441.047 9 105991142.869 9        54.400    20169448.039 9  82590536.96749
        50.700    20169447.85949  20169444.254 7  79149247.559 7        43.900
  23585792.430 7 123944184.697 7        42.300    23585798.543 7  96579920.44247
        29.600    23585797.75847  23585794.102 2  92555741.271 2        31.300
  23741676.359 7 124763351.069 7        42.700    23741683.039 7  97218247.90847
        29.200    23741681.25047  23741679.441 3  93167479.829 3        33.600
  24581310.047 5 129175650.287 5        37.500                   100656368.62546
        21.500    24581310.59446
  24310634.469 6 127753239.121 6        40.500                    99547987.62046
        22.900    24310637.74246
  22226605.484 8 116801620.769 8        45.800                    91014258.36649
        35.100    22226609.01649
  23307624.172 8 122482398.594 8        46.800    23307627.824 7  95440840.41949
        34.500    23307627.28149
  20891445.344 9 109785301.214 9        53.500    20891452.215 9  85547012.25749
        47.000    20891451.37149  20891449.684 7  81982542.355 7        41.600
  20388852.844 9 107144086.378 9        51.500                    83488960.67149
        48.800    20388853.53149
  20472063.617 9 107581431.756 9        51.300                    83829708.39849
        44.700    20472067.14149
  24490168.531 6 128696697.669 6        40.100    24490173.434 6 100283162.72346
        22.900    24490172.50846
  24086043.195 6 126573010.623 6        40.800                    98628333.83647
        25.500    24086045.28947
 17  4  7  1 27  0.0000000  0 12G01G32G08G19G28G14G17G03G22G11G31G23
  20170085.688 9 105994530.300 9        54.100    20170092.891 9  82593176.52349
        50.900    20170092.62949  20170088.906 7  79151777.131 7        43.700
  23601883.070 7 124028741.337 7        42.000    23601889.066 7  96645808.75747
        29.300    23601888.41447  23601884.934 2  92618884.231 2        31.500
  23762850.008 7 124874621.683 7        42.300    23762858.055 7  97304952.30448
        31.500    23762857.28148  23762854.246 4  93250571.511 4        34.000
  24561792.391 6 129073083.017 6        38.300                   100576446.01646
        21.100    24561792.60546
  24322056.688 6 127813262.736 6        39.800                    99594759.25046
        22.600    24322060.32846
  22234845.820 8 116844925.129 8        45.400                    91048002.02949
        35.400    22234849.61349
  23292728.078 8 122404119.434 8        47.800    23292731.695 7  95379843.67049
        34.900    23292731.55949
  20882377.656 9 109737651.078 9        53.900    20882384.578 9  85509882.28849
        47.200    20882383.49249  20882382.273 7  81946959.470 7        41.200
  20388686.188 9 107143210.456 9        51.700                    83488278.14549
        49.300    20388687.03149
  20481868.102 9 107632954.554 9        51.100                    83869856.02449
        44.300    20481871.43049
  24476590.688 6 128625343.094 6        40.300    24476595.414 5 100227561.79346
        22.600    24476594.28146
  24066029.055 6 126467836.875 6        40.400                    98546380.26847
        26.100    24066031.61347
 17  4  7  1 27 30.0000000  0 12G01G32G08G19G28G14G17G03G22G11G31G23
  20170809.156 9 105998333.031 9        55.500    20170816.594 9  82596139.68749
        50.900    20170816.27349  20170812.551 7  79154616.828 7        44.100
  23618040.766 7 124113650.003 7        42.300    23618046.828 7  96711971.35647
        28.900    23618046.52047  23618042.625 2  92682290.064 2        31.600
  23784048.555 7 124986021.889 7        42.400    23784056.449 7  97391757.62848
        30.200    23784055.35548  23784052.023 3  93333759.949 3        33.200
  24542321.609 5 128970768.236 5        37.400                   100496720.30146
        22.500    24542324.57446
  24333534.797 5 127873590.473 5        37.300                    99641767.85145
        19.000    24333539.19945
  22243182.844 8 116888735.081 8        45.500                    91082139.65649
        36.000    22243186.63349
  23277900.656 8 122326202.852 8        46.800    23277904.824 7  95319129.44049
        34.800    23277904.71549
  20873378.680 9 109690361.946 9        54.300    20873385.797 9  85473033.62049
        47.400    20873384.89549  20873383.504 7  81911646.172 7        41.300
  20388587.273 9 107142692.239 9        53.700                    83487874.32949
        49.100    20388588.44149
  20491769.586 9 107684987.623 9        52.000                    83910401.26449
        44.600    20491772.92249
  24463067.367 6 128554277.572 6        40.400    24463071.332 5 100172186.06346
        21.500    24463070.71946
  24046036.500 7 126362771.379 7        41.800                    98464511.08447
        27.700    24046038.27347
 17  4  7  1 28  0.0000000  0 12G01G32G08G19G28G14G17G03G22G11G31G23
  20171611.945 9 106002551.441 9        56.200    20171619.305 9  82599426.76249
        50.900    20171619.08249  20171615.184 7  79157766.942 7        43.600
  23634264.492 7 124198907.965 7        42.500    23634271.117 7  96778406.13547
        29.300    23634270.18847  23634266.707 2  92745956.726 2        31.400
  23805271.648 7 125097548.932 7        42.600    23805279.602 7  97478661.81047
        29.800    23805278.13347  23805274.688 1  93417043.152 1        30.200
  24522901.664 6 128868708.834 6        38.500                   100417193.46346
        24.700    24522903.68446
  24345072.859 6 127934219.520 6        38.300                    99689011.27146
        20.100    24345075.94146
  22251615.188 8 116933048.950 8        45.800                    91116669.94949
        36.000    22251618.88349
  23263143.695 8 122248651.365 8        47.300    23263147.590 7  95258699.71549
        35.400    23263147.08249
  20864448.844 9 109643433.965 9        54.500    20864455.711 9  85436466.36649
        47.300    20864454.66049  20864452.914 7  81876602.551 7        41.700
  20388556.477 9 107142530.792 9        53.100                    83487748.53649
        49.100    20388557.41849
  20501768.008 9 107737529.766 9        51.400                    83951343.18349
        44.500    20501771.52049
  24449599.148 6 128483503.947 6        40.200    24449603.410 5 100117037.73946
        21.800    24449603.14846
  24026065.883 7 126257816.645 7        43.000                    98382728.16747
        27.700    24026066.29747
 17  4  7  1 28 30.0000000  0 12G01G32G08G19G28G14G17G03G22G11G31G23
  20172493.961 9 106007186.074 9        55.300    20172500.590 9  82603038.16349
        50.800    20172500.33249  20172496.434 7  79161227.869 7        44.300
  23650554.547 7 124284512.696 7        43.200    23650560.883 7  96845111.12247
        28.900    23650560.30947  23650556.652 2  92809882.343 2        31.200
  23826518.180 7 125209200.354 7        42.500    23826526.168 7  97565662.93947
        29.200    23826524.74247  23826522.348 3  93500419.234 3        32.400
  24503529.648 6 128766907.533 6        39.400                   100337867.78546
        20.600    24503530.28946
  24356667.422 6 127995147.260 6        39.900                    99736487.42046
        22.000    24356670.65246
  22260144.008 8 116977865.267 8        45.900                    91151591.76249
        35.700    22260147.12949
  23248455.617 8 122171467.509 8        47.100    23248459.922 7  95198556.44749
        34.500    23248459.28949
  20855587.375 9 109596867.394 9        54.500    20855594.273 9  85400180.73349
        47.300    20855593.23449  20855591.898 7  81841828.818 7        41.800
  20388593.758 9 107142725.917 9        53.000                    83487900.58749
        49.200    20388594.64849
  20511863.367 9 107790579.922 9        51.600                    83992680.94849
        44.700    20511866.42649
  24436187.938 6 128413025.428 6        39.900    24436192.504 6 100062119.44546
        22.800    24436191.04346
  24006113.055 7 126152974.763 7        41.500                    98301033.19147
        27.500    24006115.50847
 17  4  7  1 29  0.0000000  0 12G01G32G08G19G28G14G17G03G22G11G31G23
  20173455.219 9 106012237.527 9        56.200    20173462.340 9  82606974.36149
        50.800    20173461.91849  20173458.016 7  79165000.049 7        44.100
  23666910.328 7 124370461.747 7        42.300    23666916.758 7  96912084.42347
        28.200    23666915.37147  23666912.535 2  92874065.105 2        31.500
  23847787.281 7 125320973.872 7        42.000    23847795.676 7  97652759.17448
        30.600    23847795.13348  23847791.859 3  93583886.463 3        33.300
  24484206.656 5 128665367.260 5        37.300                   100258745.45246
        20.100    24484206.88346
  24368318.172 6 128056371.338 6        38.300                    99784194.49946
        20.600    24368322.08646
  22268767.563 8 117023182.670 8        46.100                    91186904.02949
        35.700    22268770.69949
  23233838.641 8 122094653.388 8        47.700    23233842.688 7  95138701.28449
        35.200    23233842.37149
  20846794.922 9 109550662.658 9        54.400    20846802.070 9  85364177.04849
        47.600    20846801.31349  20846799.625 7  81807325.293 7        41.500
  20388698.719 9 107143277.438 9        54.100                    83488330.33849
        49.300    20388699.77049
  20522054.867 9 107844137.182 9        52.400                    84034413.87249
        44.300    20522057.64549
  24422832.766 6 128342845.151 6        39.400    24422838.145 6 100007433.54846
        24.800    24422837.27046
  23986185.211 7 126048247.795 7        41.800                    98219427.76947
        27.600    23986187.16447
 17  4  7  1 29 30.0000000  0 12G01G32G08G19G28G14G17G03G22G11G31G23
  20174495.875 9 106017706.201 9        55.800    20174503.289 9  82611235.66049
        50.800    20174503.09049  20174499.016 7  79169083.799 7        43.100
  23683330.648 7 124456752.407 7        42.000    23683337.105 7  96979323.90447
        27.800    23683336.51647  23683333.328 3  92938502.934 3        32.100
  23869080.570 7 125432866.542 7        41.600    23869087.762 7  97739948.25347
        29.400    23869087.00447  23869083.496 3  93667442.674 3        32.000
  24464934.617 6 128564090.908 6        38.100                   100179828.82546
        24.100    24464936.07846
  24380024.492 6 128117889.163 6        38.800                    99832130.39846
        20.400    24380028.66446
  22277485.961 8 117068999.011 8        46.300                    91222605.07549
        35.400    22277489.25849
  23219292.094 8 122018211.639 8        47.200    23219295.969 7  95079136.28849
        34.600    23219295.37549
  20838071.070 9 109504819.896 9        53.200    20838078.051 9  85328455.41449
        47.900    20838077.06649  20838075.496 7  81773092.062 7        42.100
  20388871.133 9 107144184.348 9        53.000                    83489037.03049
        49.100    20388872.07449
  20532342.578 9 107898200.683 9        51.700                    84076541.26949
        44.100    20532345.49649
  24409534.539 6 128272966.061 6        38.000    24409540.980 6  99952982.32246
        22.600    24409539.97346
  23966277.680 7 125943638.267 7        42.100                    98137913.84747
        26.400    23966279.64847
 17  4  7  1 30  0.0000000  0 12G01G32G08G19G28G14G17G03G22G11G31G23
  20175616.063 9 106023592.650 9        55.900    20175623.035 9  82615822.50249
        50.800    20175622.78949  20175618.887 7  79173479.521 7        43.800
  23699815.492 7 124543382.150 7        41.700    23699822.383 7  97046827.59347
        28.900    23699821.74247  23699818.262 2  93003193.962 2        31.100
  23890395.078 7 125544875.965 7        41.600    23890402.543 7  97827228.34147
        29.200    23890401.62147  23890398.938 3  93751086.085 3        32.000
  24445712.070 5 128463081.340 5        37.700                   100101120.09046
        24.400    24445714.17246
  24391786.695 6 128179697.747 6        40.200                    99880292.93345
        18.300    24391788.05545
  22286299.156 8 117115312.772 8        45.900                    91258693.72049
        35.700    22286302.40249
  23204817.016 9 121942144.548 9        48.000    23204820.824 7  95019863.23149
        35.300    23204820.64149
  20829416.703 9 109459339.410 9        53.700    20829423.488 9  85293016.08149
        47.300    20829422.64849  20829421.141 7  81739129.370 7        41.800
  20389111.477 9 107145446.142 9        52.600                    83490020.24849
        49.100    20389112.37949
  20542727.086 9 107952769.085 9        51.900                    84119062.09049
        44.300    20542729.84849
  24396295.633 7 128203391.525 7        41.100    24396299.926 6  99898768.41546
        22.200    24396299.59846
  23946393.852 7 125839148.099 7        41.400                    98056492.95047
        27.500    23946396.90647
 17  4  7  1 30 30.0000000  0 12G01G32G08G19G28G14G17G03G22G11G31G23
  20176815.930 9 106029897.297 9        56.000    20176823.203 9  82620735.20649
        50.900    20176822.96949  20176819.012 7  79178187.528 7        44.200
  23716365.414 7 124630348.481 7        43.200    23716371.465 7  97114593.56147
        27.900    23716370.43447  23716367.012 1  93068136.361 1        30.200
  23911731.375 7 125656999.572 7        41.800    23911739.027 7  97914597.38147
        28.400    23911737.81647  23911735.656 3  93834814.727 3        33.700
  24426543.102 6 128362341.225 6        38.600                   100022621.31546
        24.300    24426544.93046
  24403602.703 6 128241794.505 6        39.600                    99928680.01045
        19.300    24403605.43045
  22295206.984 8 117162122.233 8        45.800                    91295168.63649
        35.500    22295210.19149
  23190413.961 9 121866455.322 9        48.300    23190417.578 7  94960884.58949
        35.000    23190416.73049
  20820830.945 9 109414221.444 9        54.300    20820838.277 9  85257859.24049
        47.800    20820837.08649  20820835.809 7  81705437.395 7        41.600
  20389418.852 9 107147062.335 9        53.500                    83491279.61849
        49.100    20389419.58649
  20553206.664 9 108007840.993 9        52.100                    84161975.25649
        44.500    20553209.77049
  24383114.898 7 128134124.102 7        42.500    24383118.691 6  99844793.82446
        24.800    24383117.46146
  23926534.891 7 125734779.487 7        43.200                    97975166.77347
        25.900    23926534.93047
 17  4  7  1 31  0.0000000  0 12G01G32G08G19G28G14G17G03G22G11G31G23
  20178095.063 9 106036620.643 9        56.400    20178102.434 9  82625974.17249
        50.700    20178102.13749  20178098.234 7  79183208.207 7        44.600
  23732977.734 7 124717648.720 7        41.900    23732983.375 6  97182619.73247
        27.900    23732982.37147  23732979.535 2  93133328.113 2        31.200
  23933089.109 7 125769234.769 7        42.800    23933096.883 7  98002053.37847
        28.200    23933095.92247  23933093.063 3  93918626.710 3        32.600
  24407423.391 5 128261873.697 5        37.200                    99944334.86246
        22.900    24407425.51646
  24415474.125 6 128304177.228 6        38.800                    99977289.98245
        17.800    24415476.50445
  22304207.930 8 117209425.875 8        45.200                    91332028.62149
        34.800    22304211.96149
  23176083.102 9 121791145.122 9        48.300    23176087.387 7  94902201.32149
        34.900    23176086.72349
  20812314.563 9 109369466.195 9        53.700    20812321.047 9  85222985.02349
        47.700    20812320.25449  20812318.863 7  81672016.274 7        42.100
  20389793.695 9 107149032.183 9        53.900                    83492814.57049
        48.900    20389794.61749
  20563782.219 9 108063415.449 9        51.800                    84205280.01649
        44.000    20563785.38349
  24369992.586 6 128065166.985 6        40.800    24369996.734 5  99791061.01046
        22.200    24369994.75446
  23906695.703 7 125630534.435 7        42.300                    97893936.85347
        27.900    23906698.21947
 17  4  7  1 31 30.0000000  0 12G01G32G08G19G28G14G17G03G22G11G31G23
  20179454.211 9 106043763.125 9        56.200    20179461.398 9  82631539.74249
        50.900    20179461.18849  20179457.465 7  79188541.874 7        43.700
  23749653.586 7 124805280.272 7        41.900    23749659.273 6  97250904.10547
        27.100    23749658.18447  23749655.934 2  93198767.279 2        31.700
  23954468.477 7 125881578.962 7        43.200    23954475.238 7  98089594.29848
        30.200    23954473.97748  23954471.348 3  94002520.089 3        32.100
  24388357.953 5 128161681.157 5        37.300                    99866262.73446
        23.200    24388359.60946
  24427398.898 6 128366843.111 6        38.000                   100026120.49046
        20.900    24427402.75046
  22313303.742 8 117257222.220 8        45.500                    91369272.52949
        35.700    22313307.25449
  23161824.883 9 121716216.906 9        48.900    23161828.363 7  94843815.69849
        35.200    23161827.91449
  20803866.844 9 109325073.943 9        54.100    20803873.664 9  85188393.66249
        47.900    20803872.77049  20803871.023 7  81638866.216 7        41.800
  20390235.758 9 107151354.911 9        53.300                    83494624.48749
        49.100    20390236.84449
  20574453.234 9 108119491.371 9        51.800                    84248975.53049
        44.000    20574456.34849
  24356929.680 6 127996523.281 6        40.900    24356934.457 6  99737572.42146
        22.300    24356933.02046
  23886883.516 7 125526415.628 7        43.000                    97812805.33647
        27.300    23886885.71147
 17  4  7  1 32  0.0000000  0 12G01G32G08G19G28G14G17G03G22G11G31G23
  20180893.320 9 106051325.194 9        56.100    20180900.633 9  82637432.25549
        51.000    20180900.36749  20180896.586 7  79194188.866 7        43.900
  23766391.477 7 124893240.613 7        41.600    23766398.113 7  97319444.61647
        28.000    23766397.58247  23766394.273 2  93264451.938 2        31.800
  23975866.195 7 125994029.591 7        43.200    23975874.117 7  98177218.17447
        29.100    23975872.96947  23975869.754 2  94086492.975 2        31.800
  24369345.016 5 128061766.665 5        37.400                    99788407.27946
        22.600    24369347.17246
  24439376.852 5 128429789.283 5        37.700                   100075169.41345
        18.300    24439380.58645
  22322492.422 8 117305509.105 8        45.500                    91406898.67049
        35.600    22322495.69949
  23147639.352 9 121641672.921 9        48.000    23147643.324 7  94785729.47549
        35.800    23147642.85249
  20795488.352 9 109281044.838 9        54.300    20795495.180 9  85154085.27649
        47.700    20795494.24249  20795492.793 7  81605987.344 7        42.600
  20390744.945 9 107154030.474 9        53.200                    83496709.34849
        49.000    20390745.60249
  20585219.117 9 108176067.448 9        52.300                    84293060.77249
        44.300    20585222.28549
  24343927.055 7 127928195.639 7        41.900    24343932.125 6  99684330.11346
        24.700    24343931.26246
  23867094.742 7 125422425.280 7        44.600                    97731773.91047
        28.100    23867095.77347
 17  4  7  1 32 30.0000000  0 12G01G32G08G19G28G14G17G03G22G11G31G23
  20182412.273 9 106059307.404 9        56.400    20182419.551 9  82643652.15749
        50.900    20182419.44949  20182415.375 7  79200149.604 7        43.700
  23783192.258 7 124981527.235 7        43.000    23783198.859 7  97388239.37047
        28.100    23783198.18847  23783195.348 3  93330380.240 3        32.300
  23997284.156 7 126106584.417 7        43.000    23997292.457 7  98264923.23448
        30.500    23997291.62548  23997288.234 3  94170543.680 3        32.300
  24350384.953 5 127962132.905 5        36.600                    99710770.65546
        22.600    24350387.57846
  24451408.648 6 128493013.391 6        39.400                   100124434.88846
        20.600    24451411.77046
  22331773.953 8 117354285.096 8        45.800                    91444905.94549
        35.100    22331777.17249
  23133527.969 9 121567515.975 9        48.500    23133532.195 7  94727944.83849
        34.800    23133531.36349
  20787179.172 9 109237379.295 9        54.400    20787186.016 9  85120060.18949
        48.100    20787184.96949  20787183.750 7  81573379.973 7        42.100
  20391320.852 9 107157058.170 9        53.500                    83499068.59549
        49.100    20391322.12149
  20596080.328 9 108233142.709 9        51.700                    84337534.99649
        43.900    20596083.56649
  24330985.734 7 127860187.558 7        41.300    24330991.203 6  99631336.82947
        25.100    24330989.71547
  23847330.469 7 125318565.166 7        43.700                    97650843.93347
        28.700    23847332.50847
 17  4  7  1 33  0.0000000  0 12G01G32G08G19G28G14G17G03G22G11G31G23
  20184011.359 9 106067709.975 9        56.900    20184018.613 9  82650199.61149
        50.800    20184018.27049  20184014.430 7  79206424.248 7        43.500
  23800054.555 7 125070137.315 7        42.800    23800060.215 6  97457286.20247
        28.300    23800059.44547  23800056.375 2  93396550.119 2        31.500
  24018721.969 7 126219240.372 7        43.200    24018729.965 7  98352707.06547
        28.900    24018729.18447  24018726.438 2  94254669.854 2        31.800
  24331479.367 5 127862782.823 5        37.400                    99633354.94046
        22.500    24331481.08246
  24463491.969 6 128556512.231 6        40.500                   100173914.54945
        19.000    24463494.86345
  22341148.992 8 117403548.336 8        45.600                    91483292.88749
        35.100    22341152.19949
  23119490.375 9 121493748.385 9        48.200    23119494.105 7  94670463.60449
        35.900    23119493.72749
  20778939.164 9 109194077.282 9        54.900    20778945.750 9  85086318.35249
        47.900    20778944.95749  20778943.270 7  81541044.054 7        41.600
  20391964.070 9 107160437.078 9        53.800                    83501701.51349
        49.100    20391964.84449
  20607035.898 9 108290715.370 9        51.000                    84382396.79549
        44.600    20607039.37149
  24318105.734 7 127792501.745 7        41.700    24318110.305 6  99578594.67246
        24.000    24318110.24246
  23827592.742 7 125214837.766 7        43.900                    97570017.40847
        29.500    23827593.89147
 17  4  7  1 33 30.0000000  0 12G01G32G08G19G28G14G17G03G22G11G31G23
  20185690.391 9 106076533.433 9        56.000    20185697.348 9  82657075.02749
        50.800    20185697.22349  20185693.266 7  79213013.189 7        44.200
  23816976.750 7 125159068.341 7        41.800    23816982.641 6  97526583.11447
        27.200    23816982.15647  23816978.676 2  93462959.657 2        31.000
  24040179.227 7 126331995.364 7        43.100    24040186.574 7  98440568.10247
        28.000    24040185.23447  24040182.375 2  94338870.005 2        31.500
  24312628.547 6 127763719.198 6        39.300                    99556162.52446
        22.900    24312630.45746
  24475626.656 6 128620283.564 6        39.200                   100223606.50545
        18.600    24475629.88345
  22350615.422 8 117453297.000 8        45.400                    91522058.08649
        35.300    22350618.85949
  23105527.156 9 121420372.250 9        48.500    23105530.805 7  94613287.38649
        35.600    23105529.93449
  20770767.852 9 109151139.017 9        54.300    20770774.742 9  85052859.96849
        48.100    20770773.94149  20770772.137 7  81508979.764 7        42.200
  20392673.727 9 107164166.994 9        54.100                    83504607.93649
        49.100    20392674.62149
  20618086.203 9 108348784.853 9        52.000                    84427645.73449
        43.900    20618089.65649
  24305287.430 6 127725141.362 6        40.200    24305292.199 6  99526106.06946
        22.500    24305291.14846
  23807879.430 7 125111245.039 7        43.200                    97489295.82147
        28.100    23807880.55147
 17  4  7  1 34  0.0000000  0 12G01G32G08G19G28G14G17G03G22G11G31G23
  20187449.797 9 106085778.188 9        56.700    20187457.191 9  82664278.73349
        50.800    20187456.82449  20187453.215 7  79219916.733 7        43.900
  23833960.594 7 125248317.777 7        43.300    23833967.074 7  97596128.14447
        28.000    23833966.27347  23833962.969 1  93529606.981 1        30.800
  24061654.141 7 126444846.561 7        43.200    24061661.039 7  98528504.09447
        26.900    24061659.50047  24061656.988 2  94423142.010 2        31.700
  24293833.063 6 127664945.089 6        39.500                    99479195.61947
        25.400    24293833.54347
  24487813.414 6 128684324.720 6        38.300                   100273508.67645
        19.300    24487816.92245
  22360174.289 8 117503529.471 8        45.400                    91561200.26749
        35.500    22360177.52749
  23091639.180 9 121347390.057 9        48.700    23091643.383 7  94556418.15549
        36.100    23091642.72349
  20762666.320 9 109108564.806 9        54.800    20762673.219 9  85019685.26749
        48.000    20762672.50849  20762670.766 7  81477187.341 7        42.000
  20393450.500 9 107168247.121 9        54.000                    83507787.25249
        49.100    20393451.12549
  20629230.570 9 108407349.304 9        52.300                    84473280.36249
        44.100    20629233.80549
  24292531.750 6 127658109.060 6        40.600    24292536.766 5  99473873.12446
        21.800    24292535.55146
  23788191.953 7 125007789.239 7        43.100                    97408680.91847
        28.900    23788193.58247
 17  4  7  1 34 30.0000000  0 12G01G32G08G19G28G14G17G03G22G11G31G23
  20189288.961 9 106095444.765 9        56.600    20189296.238 9  82671811.12049
        50.800    20189295.72349  20189292.117 7  79227135.277 7        44.100
  23851004.297 7 125337883.088 7        42.800    23851011.230 7  97665919.28047
        26.600    23851010.12947  23851006.824 1  93596490.158 1        30.900
  24083147.055 7 126557791.228 7        43.400    24083154.273 7  98616512.93447
        29.600    24083153.46547  24083150.602 3  94507483.803 3        32.700
  24275093.219 6 127566463.030 6        39.400                    99402456.36847
        25.100    24275093.05147
  24500051.867 6 128748632.927 6        40.500                   100323618.87846
        22.600    24500055.73846
  22369824.695 8 117554243.793 8        45.700                    91600717.92349
        34.600    22369828.66449
  23077826.578 9 121274804.210 9        48.200    23077830.211 7  94499857.75349
        35.500    23077829.70349
  20754634.227 9 109066354.900 9        54.500    20754641.031 9  84986794.43349
        47.900    20754640.06649  20754638.672 7  81445666.958 7        42.100
  20394293.039 9 107172677.015 9        53.200                    83511239.12749
        49.000    20394294.24249
  20640469.289 9 108466407.989 9        52.000                    84519300.11749
        43.700    20640472.55949
  24279838.898 7 127591407.967 7        41.100    24279843.574 5  99421898.26246
        23.600    24279842.12946
  23768532.352 7 124904472.945 7        43.400                    97328174.72747
        29.500    23768533.83247
 17  4  7  1 35  0.0000000  0 12G01G32G08G19G28G14G17G03G22G11G31G23
  20191208.922 9 106105533.471 9        56.500    20191216.180 9  82679672.44449
        50.800    20191215.82049  20191212.211 7  79234669.045 7        44.400
  23868107.172 7 125427761.648 7        43.400    23868114.691 7  97735954.51647
        28.200    23868113.78547  23868110.184 2  93663607.256 2        31.200
  24104656.102 7 126670827.327 7        41.900    24104664.320 7  98704592.99747
        28.100    24104663.40647  24104660.781 3  94591893.853 3        33.400
  24256407.922 6 127468275.926 6        38.900                    99325946.94646
        22.800    24256409.17646
  24512339.641 6 128813205.459 6        39.900                   100373935.15645
        19.900    24512343.46545
  22379566.625 8 117605438.223 8        45.400                    91640609.68449
        34.500    22379570.65249
  23064089.203 9 121202617.146 9        48.500    23064094.137 7  94443608.08149
        35.600    23064093.39849
  20746671.250 9 109024509.431 9        55.400    20746677.676 9  84954187.57949
        48.300    20746676.80949  20746675.531 7  81414418.718 7        42.300
  20395202.688 9 107177455.897 9        54.600                    83514962.93249
        49.000    20395203.69949
  20651801.305 9 108525959.619 9        52.000                    84565703.97249
        44.200    20651804.85249
  24267209.211 7 127525041.073 7        41.400    24267214.031 5  99370183.80846
        23.000    24267212.79746
  23748898.367 7 124801297.921 7        44.100                    97247778.61247
        29.500    23748899.55947
 17  4  7  1 35 30.0000000  0 12G01G32G08G19G28G14G17G03G22G11G31G23
  20193209.219 9 106116044.699 9        56.800    20193216.340 9  82687863.00849
        50.800    20193215.85549  20193212.074 7  79242518.339 7        43.700
  23885270.570 7 125517950.688 7        43.900    23885276.621 6  97806231.68247
        25.600    23885275.45747  23885272.211 1  93730956.226 1        30.400
  24126183.922 7 126783951.783 7        43.300    24126191.160 7  98792741.93347
        27.600    24126189.66047  24126186.684 2  94676369.905 2        31.900
  24237779.859 6 127370386.575 6        39.700                    99249669.54246
        24.100    24237781.71546
  24524675.938 6 128878039.565 6        38.700                   100424455.27945
        18.300    24524679.09045
  22389399.773 8 117657110.752 8        45.600                    91680873.99449
        34.800    22389402.83249
  23050429.031 9 121130831.253 9        48.500    23050433.031 7  94387671.01549
        35.700    23050432.32449
  20738777.695 9 108983028.484 9        55.000    20738784.293 9  84921864.75649
        48.100    20738783.32849  20738781.938 7  81383442.690 7        41.800
  20396178.367 9 107182583.211 9        54.300                    83518958.24349
        49.000    20396179.32849
  20663226.953 9 108586002.534 9        51.600                    84612490.65249
        44.100    20663230.32049
  24254644.469 6 127459011.431 6        40.900    24254649.848 5  99318732.17646
        23.000    24254648.31346
  23729293.156 7 124698266.598 7        43.500                    97167494.45947
        27.800    23729293.43447
 17  4  7  1 36  0.0000000  0 12G01G32G08G19G28G14G17G03G22G11G31G23
  20195289.859 9 106126978.630 9        57.000    20195296.891 9  82696382.95149
        50.800    20195296.65249  20195292.988 7  79250683.277 7        43.900
  23902490.883 7 125608447.584 7        43.200    23902496.781 6  97876748.76647
        28.000    23902496.03947  23902493.027 1  93798535.094 1        30.300
  24147727.328 7 126897162.180 7        41.700    24147734.715 7  98880957.86847
        29.400    24147733.74247  24147729.883 2  94760910.168 2        31.600
  24219209.391 6 127272797.844 6        38.400                    99173626.30546
        22.800    24219209.83246
  24537062.477 5 128943132.433 5        37.200                   100475176.96145
        16.900    24537065.28145
  22399323.164 8 117709259.814 8        46.100                    91721509.63049
        34.300    22399327.17249
  23036845.695 9 121059448.490 9        49.100    23036849.828 7  94332048.08449
        36.600    23036849.45349
  20730953.453 9 108941912.134 9        54.800    20730960.477 9  84889826.04849
        48.100    20730959.37549  20730957.746 7  81352738.926 7        42.300
  20397220.148 9 107188057.874 9        54.500                    83523224.21549
        49.000    20397221.14149
  20674746.383 9 108646535.369 9        52.400                    84659659.09449
        44.100    20674749.58649
  24242144.797 7 127393321.713 7        41.100    24242149.527 6  99267545.39347
        26.000    24242149.23047
  23709713.531 7 124595380.836 7        43.900                    97087323.73947
        29.000    23709714.91047
 17  4  7  1 36 30.0000000  0 12G01G32G08G19G28G14G17G03G22G11G31G23
  20197451.133 9 106138336.042 9        56.700    20197458.422 9  82705232.87049
        50.800    20197458.18449  20197454.398 7  79259164.448 7        43.600
  23919770.266 7 125699250.054 7        42.900    23919776.906 7  97947503.93047
        26.500    23919775.93447  23919772.395 1  93866342.137 1        30.600
  24169286.234 6 127010456.311 6        40.900    24169294.559 7  98969238.96947
        29.400    24169293.59047  24169290.086 3  94845512.904 3        33.700
  24200696.656 6 127175512.605 6        38.200                    99097819.59346
        22.900    24200696.79746
  24549498.539 5 129008481.743 5        37.600                   100526098.51846
        20.100    24549502.03546
  22409337.508 8 117761883.776 8        45.700                    91762515.31649
        34.400    22409340.88349
  23023339.375 9 120988471.759 9        49.200    23023343.262 7  94276741.53349
        36.000    23023343.01649
  20723198.750 9 108901160.828 9        55.300    20723205.438 9  84858071.78749
        48.300    20723204.68849  20723203.234 7  81322307.758 7        42.000
  20398328.023 9 107193880.319 9        53.900                    83527761.17849
        48.900    20398329.18049
  20686358.469 9 108707557.525 9        52.100                    84707208.82649
        43.800    20686361.71149
  24229709.758 7 127327975.200 7        42.100    24229714.340 6  99216626.05247
        26.100    24229714.13747
  23690163.141 7 124492643.244 7        43.300                    97007268.48447
        28.800    23690164.72747
 17  4  7  1 37  0.0000000  0 12G01G32G08G19G28G14G17G03G22G11G31G23
  20199692.813 9 106150117.144 9        56.600    20199700.355 9  82714412.94449
        50.700    20199700.15249  20199696.430 7  79267962.018 7        43.700
  23937106.438 7 125790355.333 7        42.400    23937113.641 7  98018495.06147
        26.600    23937112.71547  23937109.641 2  93934375.301 2        31.500
  24190860.313 7 127123831.487 7        41.300    24190867.422 7  99057583.24647
        27.700    24190866.69147  24190864.004 3  94930176.154 3        32.100
  24182242.008 6 127078533.732 6        39.200                    99022251.66747
        25.300    24182243.55947
  24561982.711 6 129074084.444 6        38.000                   100577217.45546
        21.100    24561986.95746
  22419441.469 8 117814980.519 8        46.000                    91803889.41049
        35.000    22419444.92249
  23009910.406 9 120917903.177 9        48.700    23009914.629 7  94221753.03849
        36.300    23009914.20749
  20715513.695 9 108860774.661 9        54.600    20715520.250 9  84826602.04849
        48.500    20715519.35549  20715517.785 7  81292149.257 7        42.500
  20399501.922 9 107200049.222 9        54.400                    83532568.11849
        49.000    20399502.71949
  20698063.313 9 108769066.843 9        52.100                    84755138.16149
        43.400    20698066.30949
  24217339.672 7 127262974.311 7        41.000    24217344.391 5  99165976.03946
        23.400    24217343.18846
  23670641.156 7 124390055.761 7        43.900                    96927330.19148
        30.000    23670642.71548
