     2.11           OBSERVATION DATA    G (GPS)             RINEX VERSION / TYPE
teqc  2016Nov7                          20170411 00:13:59UTCPGM / RUN BY / DATE
ZIMM                                                        MARKER NAME
14001M004                                                   MARKER NUMBER
TRIMBLE NETR9       SWISSTOPO                               OBSERVER / AGENCY
5429R49141          TRIMBLE NETR9       5.10                REC # / TYPE / VERS
99390               TRM29659.00     NONE                    ANT # / TYPE
  4331297.3480   567555.6400  4633133.7280                  APPROX POSITION XYZ
        0.0000        0.0000        0.0000                  ANTENNA: DELTA H/E/N
     1     1                                                WAVELENGTH FACT L1/2
    10    C1    L1    S1    C2    L2    S2    P2    C5    L5# / TYPES OF OBSERV
          S5                                                # / TYPES OF OBSERV
    30.0000                                                 INTERVAL
Linux 2.4.21-27.ELsmp|Opteron|gcc -static|Linux x86_64|=+   COMMENT
     2.11           OBSERVATION DATA    M (MIXED)           COMMENT
NetR9 5.10          Receiver Operator   10-APR-17 00:00:00  COMMENT
L2C CARRIER PHASE MEASUREMENTS: PHASE SHIFTS REMOVED        COMMENT
L2C PHASE MATCHES L2 P PHASE                                COMMENT
GLONASS C/A & P PHASE MATCH: PHASE SHIFTS REMOVED           COMMENT
GIOVE-A if present is mapped to satellite ID 51             COMMENT
GIOVE-B if present is mapped to satellite ID 52             COMMENT
Forced Modulo Decimation to 30 seconds                      COMMENT
teqc edited: all GLONASS satellites excluded                COMMENT
teqc edited: all Galileo satellites excluded                COMMENT
  2017     4    10     0     0    0.0000000     GPS         TIME OF FIRST OBS
                                                            END OF HEADER
 17  4 10  0  0  0.0000000  0 10G01G32G08G28G14G03G11G22G27G10
  20874960.633 9 109698674.281 9        53.400    20874967.445 9  85479537.80749
        45.700    20874967.29749  20874963.105 6  81917873.002 6        40.900
  22177068.242 8 116541302.947 8        47.700    22177074.848 9  90811427.93449
        39.200    22177073.69549  22177070.449 5  87027623.590 5        36.900
  21137095.906 9 111076207.881 9        51.900    21137102.895 9  86552928.75149
        45.800    21137101.57449  21137098.305 6  82946548.974 6        40.500
  23479827.977 7 123387330.062 7        42.900                    96145984.95447
        28.300    23479830.84047
  22162556.109 8 116465027.758 8        47.800                    90751987.61849
        36.000    22162559.88349
  22953401.234 8 120620946.408 8        47.000    22953409.141 8  93990373.13249
        35.500    22953408.29749  22953406.027 4  90074101.178 4        34.400
  20140435.203 9 105838730.148 9        49.500                    82471760.24149
        45.300    20140437.78949
  21194761.180 9 111379202.127 9        49.500                    86789032.88549
        42.400    21194762.30949
  23570205.313 7 123862293.961 7        43.900    23570212.176 8  96516117.40748
        32.800    23570211.70748  23570208.395 3  92494605.699 3        32.600
  23717489.250 7 124636299.402 7        41.600    23717495.867 7  97119233.62847
        29.900    23717495.58247  23717491.133 2  93072588.999 2        31.800
 17  4 10  0  0 30.0000000  0 10G01G32G08G28G14G03G11G22G27G10
  20865466.984 9 109648785.165 9        53.600    20865474.227 9  85440663.17549
        46.100    20865473.66849  20865469.770 7  81880618.150 7        41.200
  22178800.984 8 116550407.676 8        47.500    22178807.441 9  90818522.55449
        39.100    22178806.53949  22178802.879 5  87034422.598 5        36.600
  21149568.914 9 111141755.077 9        51.900    21149576.523 9  86604004.47149
        46.300    21149575.25849  21149571.984 6  82995496.541 6        40.500
  23478606.781 7 123380911.808 7        43.800                    96140983.72147
        28.300    23478609.25447
  22155248.453 9 116426624.075 9        48.000                    90722062.68449
        36.200    22155251.73849
  22935454.258 8 120526632.938 8        46.500    22935461.625 8  93916882.12449
        35.100    22935460.57449  22935458.301 4  90003672.309 4        34.300
  20135320.156 9 105811850.823 9        49.400                    82450815.31049
        44.500    20135323.11749
  21184035.766 9 111322840.536 9        49.100                    86745114.78149
        42.500    21184037.15649
  23590991.586 7 123971528.845 7        43.700    23590998.910 7  96601235.48448
        32.100    23590998.77748  23590994.176 3  92576177.196 3        32.600
  23736113.016 6 124734167.875 6        40.900    23736118.816 7  97195494.76947
        28.600    23736118.56347  23736114.289 2  93145672.599 2        31.600
 17  4 10  0  1  0.0000000  0 10G01G32G08G28G14G03G11G22G27G10
  20856029.188 9 109599189.195 9        53.400    20856036.270 9  85402016.96449
        46.000    20856035.99249  20856031.859 7  81843582.195 7        41.100
  22180648.281 9 116560115.659 9        48.300    22180654.395 9  90826087.23149
        39.700    22180653.63349  22180649.918 5  87041672.089 5        36.900
  21162129.734 9 111207761.939 9        51.900    21162137.168 9  86655438.36949
        46.100    21162136.06649  21162132.973 6  83044787.370 6        40.500
  23477485.258 7 123375019.566 7        43.400                    96136392.36347
        28.100    23477487.32047
  22148038.320 8 116388736.650 8        47.500                    90692540.04049
        36.000    22148041.85949
  22917552.469 8 120432559.535 8        46.400    22917559.746 8  93843578.20049
        35.800    22917558.87549  22917556.953 4  89933422.714 4        34.700
  20130297.781 9 105785458.033 9        49.300                    82430249.49649
        44.500    20130300.61749
  21173380.766 9 111266845.449 9        49.500                    86701482.27849
        42.600    21173381.93049
  23611810.617 7 124080927.778 7        44.300    23611816.629 7  96686481.39748
        31.000    23611815.90648  23611812.770 3  92657871.213 3        33.100
  23754757.281 6 124832147.128 6        40.300    23754763.590 7  97271842.23647
        26.500    23754763.61347  23754759.688 2  93218838.914 2        31.700
 17  4 10  0  1 30.0000000  0 10G01G32G08G28G14G03G11G22G27G10
  20846647.523 9 109549887.396 9        53.500    20846654.383 9  85363599.97549
        46.000    20846654.35949  20846650.520 7  81806765.909 7        41.400
  22182610.359 9 116570426.720 9        48.600    22182616.723 9  90834121.83649
        39.400    22182616.05549  22182612.633 5  87049371.931 5        37.100
  21174777.688 9 111274227.299 9        51.900    21174784.574 9  86707229.53749
        45.700    21174783.56649  21174780.707 6  83094420.564 6        40.700
  23476464.328 7 123369653.270 7        42.900                    96132210.82447
        29.600    23476467.59847
  22140927.391 8 116351367.012 8        47.300                    90663420.85549
        37.000    22140931.27349
  22899697.102 8 120338727.617 8        46.000    22899704.512 8  93770462.43249
        35.200    22899703.74249  22899701.469 4  89863353.439 4        34.600
  20125368.352 9 105759553.181 9        49.300                    82410063.89249
        44.400    20125370.82049
  21162794.781 9 111211217.384 9        49.700                    86658135.74449
        42.800    21162796.07049
  23632658.750 7 124190488.845 7        43.200    23632665.625 7  96771853.67548
        30.800    23632665.25848  23632662.066 3  92739686.275 3        33.400
  23773423.352 7 124930235.424 7        41.000    23773428.633 6  97348274.67947
        27.400    23773428.80147  23773425.051 2  93292086.652 2        31.500
 17  4 10  0  2  0.0000000  0 10G01G32G08G28G14G03G11G22G27G10
  20837321.992 9 109500881.034 9        53.700    20837329.082 9  85325413.18849
        46.000    20837328.59449  20837324.809 7  81770170.247 7        41.300
  22184687.125 8 116581340.851 8        47.800    22184693.445 8  90842626.37049
        39.400    22184692.81649  22184689.332 5  87057522.102 5        37.300
  21187512.680 9 111341149.789 9        51.800    21187519.672 9  86759376.89249
        45.700    21187518.56649  21187515.703 6  83144395.101 6        40.900
  23475543.578 7 123364812.575 7        43.200                    96128438.82747
        28.600    23475546.45347
  22133914.672 8 116314516.955 8        47.300                    90634706.54249
        36.600    22133918.52349
  22881888.063 8 120245138.785 8        46.300    22881895.285 8  93697536.08749
        36.100    22881894.56349  22881892.586 5  89793465.698 5        35.000
  20120531.938 9 105734137.808 9        49.900                    82390259.70449
        45.100    20120534.87549
  21152279.242 9 111155957.087 9        49.600                    86615075.81149
        42.900    21152280.68449
  23653537.906 7 124300210.194 7        43.600    23653544.805 7  96857350.80948
        31.100    23653544.44148  23653540.836 3  92821621.053 3        32.700
  23792109.617 6 125028431.240 6        40.400    23792115.512 7  97424790.91147
        27.500    23792115.68847  23792111.590 2  93365414.712 2        31.300
 17  4 10  0  2 30.0000000  0 10G01G32G08G28G14G03G11G22G27G10
  20828052.742 9 109452170.781 9        52.800    20828059.512 9  85287457.14649
        46.000    20828059.05949  20828055.277 7  81733795.700 7        41.400
  22186879.078 9 116592857.446 9        48.800    22186885.219 8  90851600.36249
        39.800    22186884.23449  22186880.695 5  87066122.178 5        36.700
  21200334.313 9 111408528.007 9        51.800    21200341.320 9  86811879.39549
        45.500    21200340.31349  21200337.219 6  83194709.993 6        39.900
  23474722.156 7 123360497.462 7        43.700                    96125076.37847
        28.800    23474724.61747
  22127002.078 8 116278188.071 8        47.400                    90606398.34949
        36.000    22127005.44549
  22864124.797 8 120151794.117 8        46.300    22864131.898 8  93624800.00049
        36.200    22864131.29749  22864128.789 4  89723760.285 4        34.800
  20115788.992 9 105709212.788 9        49.500                    82370837.60749
        44.700    20115791.91049
  21141833.117 9 111101064.916 9        49.600                    86572302.71249
        42.600    21141834.12549
  23674447.227 7 124410089.536 7        42.900    23674453.934 7  96942971.06048
        30.500    23674453.90248  23674450.770 3  92903673.799 3        32.800
  23810815.461 6 125126732.695 6        39.100    23810821.297 7  97501389.42847
        25.600    23810821.57847  23810817.594 1  93438821.623 1        30.300
 17  4 10  0  3  0.0000000  0 10G01G32G08G28G14G03G11G22G27G10
  20818839.828 9 109403757.366 9        51.900    20818846.523 9  85249732.41049
        45.900    20818846.51249  20818842.609 7  81697642.833 7        41.100
  22189184.953 9 116604976.112 9        48.200    22189191.254 8  90861043.49549
        39.200    22189190.32449  22189186.898 5  87075171.853 5        37.600
  21213242.320 9 111476359.728 9        51.800    21213249.605 9  86864735.26849
        45.600    21213248.46549  21213245.074 6  83245363.545 6        40.700
  23474000.789 7 123356707.943 7        42.400                    96122123.47947
        28.600    23474003.66447
  22120187.672 8 116242381.498 8        47.500                    90578497.14449
        36.000    22120191.35549
  22846408.203 8 120058694.672 8        46.800    22846415.742 8  93552254.99749
        36.300    22846415.13749  22846413.043 4  89654237.997 4        34.700
  20111139.266 9 105684778.860 9        49.100                    82351798.18249
        44.600    20111141.82849
  21131457.680 9 111046541.147 9        49.900                    86529816.65649
        43.000    21131458.96149
  23695386.258 7 124520124.578 7        44.300    23695393.016 7  97028712.65648
        31.600    23695392.60248  23695390.051 3  92985842.815 3        33.900
  23829541.289 6 125225137.739 6        40.100    23829546.820 6  97578068.67147
        25.700    23829546.63747  23829543.008 1  93512305.890 1        30.200
 17  4 10  0  3 30.0000000  0 10G01G32G08G28G14G03G11G22G27G10
  20809683.867 9 109355641.978 9        52.300    20809690.629 9  85212239.91149
        46.100    20809690.53149  20809686.457 7  81661712.525 7        41.100
  22191605.305 8 116617696.648 8        47.800    22191611.867 8  90870955.60249
        38.800    22191611.14149  22191607.715 5  87084670.959 5        37.000
  21226236.156 9 111544643.954 9        51.800    21226243.391 9  86917943.73949
        45.400    21226242.31649  21226238.984 6  83296354.999 6        39.700
  23473379.445 7 123353443.847 7        43.000                    96119580.03147
        28.000    23473383.00447
  22113473.844 8 116207098.859 8        47.200                    90551004.20949
        36.100    22113477.60249
  22828739.047 8 119965842.006 8        46.800    22828746.848 8  93479902.28349
        36.100    22828746.12149  22828744.320 4  89584899.974 4        34.700
  20106583.352 9 105660838.175 9        49.900                    82333143.10449
        44.900    20106586.34849
  21121152.867 9 110992386.446 9        50.000                    86487618.18849
        43.000    21121153.77049
  23716354.758 7 124630313.439 7        44.200    23716361.477 7  97114574.09548
        30.700    23716360.99248  23716357.918 4  93068126.688 4        34.000
  23848286.797 6 125323644.773 6        40.100    23848292.953 6  97654827.38847
        26.000    23848293.03547  23848288.879 1  93585866.365 1        30.300
 17  4 10  0  4  0.0000000  0 10G01G32G08G28G14G03G11G22G27G10
  20800584.805 9 109307825.365 9        52.300    20800591.594 9  85174980.21649
        46.600    20800591.36349  20800587.289 7  81626005.312 7        41.200
  22194140.695 8 116631018.567 8        47.500    22194146.832 8  90881336.32349
        39.200    22194145.89549  22194142.645 5  87094619.143 5        37.200
  21239316.031 9 111613378.827 9        51.700    21239323.449 9  86971503.35949
        45.300    21239322.24249  21239319.438 7  83347682.959 7        41.200
  23472858.672 7 123350704.948 7        42.900                    96117445.81347
        26.500    23472860.81347
  22106859.789 8 116172341.523 8        47.200                    90523920.57649
        35.900    22106863.07449
  22811116.914 8 119873237.214 8        47.000    22811124.461 8  93407742.71449
        36.600    22811123.79349  22811121.465 4  89515747.064 4        34.900
  20102121.289 9 105637391.084 9        49.300                    82314872.65049
        44.500    20102124.47349
  21110917.820 9 110938601.584 9        50.000                    86445707.89849
        42.600    21110919.19949
  23737351.039 7 124740653.883 7        43.000    23737358.469 7  97200553.64647
        29.800    23737357.63347  23737354.555 3  93150523.770 3        32.300
  23867050.508 6 125422251.934 6        40.000    23867056.758 6  97731664.12647
        25.800    23867056.75847  23867053.066 1  93659501.555 1        30.200
 17  4 10  0  4 30.0000000  0 10G01G32G08G28G14G03G11G22G27G10
  20791542.234 9 109260308.508 9        52.600    20791549.875 9  85137954.09749
        46.000    20791549.59049  20791545.398 7  81590521.953 7        41.100
  22196790.109 9 116644941.441 9        48.700    22196796.668 9  90892185.31549
        39.300    22196796.06349  22196792.168 5  87105016.090 5        37.400
  21252481.344 9 111682562.527 9        51.500    21252488.477 9  87025412.69549
        45.500    21252487.64149  21252484.543 6  83399346.063 6        40.300
  23472437.039 7 123348491.137 7        43.500                    96115720.75747
        27.200    23472439.93447
  22100345.891 8 116138110.961 8        47.300                    90497247.40849
        36.100    22100348.85249
  22793541.930 8 119780881.679 8        46.800    22793549.629 8  93335777.39549
        36.200    22793548.85549  22793546.875 4  89446780.308 4        34.500
  20097754.047 9 105614439.112 9        49.200                    82296987.99649
        45.000    20097756.50049
  21100753.211 9 110885187.042 9        50.200                    86404086.18949
        43.700    21100754.29749
  23758376.352 7 124851143.858 7        44.100    23758383.918 7  97286649.73148
        30.100    23758383.10548  23758380.438 3  93233032.510 3        32.300
  23885833.914 6 125520957.532 6        40.400    23885840.191 6  97808577.56247
        25.000    23885839.62547  23885836.055 1  93733210.254 1        30.000
 17  4 10  0  5  0.0000000  0 10G01G32G08G28G14G03G11G22G27G10
  20782557.367 9 109213092.425 9        52.300    20782564.531 9  85101162.35149
        46.300    20782564.25849  20782560.414 7  81555263.200 7        41.300
  22199553.891 8 116659465.030 8        47.000    22199560.383 9  90903502.38249
        39.700    22199559.93049  22199556.270 5  87115861.618 5        36.900
  21265731.516 9 111752193.866 9        51.200    21265738.996 9  87079670.83649
        44.700    21265737.93049  21265734.773 6  83451343.444 6        40.100
  23472115.648 7 123346802.098 7        42.600                    96114404.58847
        27.900    23472118.79747
  22093932.852 9 116104408.798 9        48.100                    90470985.99249
        36.500    22093936.20749
  22776015.531 8 119688776.733 8        47.500    22776022.250 8  93264007.32349
        36.100    22776021.64849  22776019.785 4  89378000.667 4        34.100
  20093480.906 9 105591983.677 9        49.000                    82279490.25849
        45.200    20093483.29749
  21090659.406 9 110832143.190 9        49.500                    86362753.31949
        43.000    21090660.44949
  23779430.867 7 124961781.310 7        44.900    23779437.781 7  97372860.74648
        30.700    23779436.37948  23779433.773 3  93315651.375 3        32.100
  23904635.281 6 125619759.851 6        40.000    23904640.984 6  97885566.44547
        25.200    23904641.06647  23904636.906 1  93806991.250 1        29.100
 17  4 10  0  5 30.0000000  0 10G01G32G08G28G14G03G11G22G27G10
  20773629.836 9 109166177.962 9        52.300    20773636.855 9  85064605.63049
        46.300    20773636.33249  20773632.547 7  81520229.676 7        41.300
  22202431.391 8 116674588.749 8        46.900    22202438.184 9  90915287.09849
        39.800    22202437.64149  22202433.984 5  87127155.306 5        36.900
  21279066.859 9 111822271.044 9        51.500    21279074.602 9  87134276.40149
        45.200    21279073.40649  21279070.250 6  83503673.773 6        39.900
  23471894.461 7 123345637.663 7        42.800                    96113497.23247
        28.400    23471897.26247
  22087620.234 9 116071236.247 9        48.000                    90445137.27249
        36.600    22087623.46149
  22758536.453 8 119596923.512 8        47.500    22758543.797 8  93192433.41149
        36.400    22758543.05949  22758540.961 4  89309409.006 4        34.900
  20089302.398 9 105570025.621 9        49.600                    82262380.08249
        44.600    20089304.60249
  21080636.227 9 110779470.643 9        49.800                    86321709.79649
        43.000    21080637.55549
  23800511.688 7 125072564.075 7        43.900    23800518.879 7  97459184.94648
        30.500    23800518.33648  23800515.199 3  93398378.758 3        32.300
  23923454.461 6 125718657.185 6        38.400    23923461.426 6  97962629.30746
        23.900    23923460.99646  23923456.602 1  93880843.161 1        30.200
 17  4 10  0  6  0.0000000  0 10G01G32G08G28G14G03G11G22G27G10
  20764759.750 9 109119566.112 9        52.100    20764766.875 9  85028284.71549
        46.300    20764766.36749  20764762.406 7  81485422.135 7        41.300
  22205423.875 8 116690312.132 8        47.300    22205430.203 9  90927539.09449
        39.300    22205429.81349  22205426.156 5  87138896.799 5        36.800
  21292486.820 9 111892792.344 9        51.700    21292494.016 9  87189228.04849
        45.100    21292492.85949  21292489.527 6  83556335.765 6        40.200
  23471771.727 7 123344997.420 7        42.300                    96112998.30547
        28.100    23471775.23047
  22081408.203 9 116038594.484 9        48.200                    90419702.15249
        36.900    22081411.87949
  22741105.508 8 119505323.318 8        47.400    22741112.492 8  93121056.65649
        36.700    22741111.85949  22741109.824 5  89241006.287 5        35.500
  20085218.617 9 105548566.119 9        49.000                    82245658.38749
        44.600    20085221.41049
  21070683.617 9 110727169.838 9        49.800                    86280955.93049
        43.400    21070684.89849
  23821620.578 7 125183490.035 7        44.500    23821627.621 7  97545620.77548
        30.700    23821626.96948  23821623.777 3  93481213.094 3        32.300
  23942292.516 6 125817647.762 6        38.900    23942298.441 6  98039764.77447
        25.200    23942298.50847  23942294.293 1  93954764.657 1        30.200
 17  4 10  0  6 30.0000000  0 10G01G32G08G28G14G03G11G22G27G10
  20755947.313 9 109073257.662 9        52.200    20755954.766 9  84992200.21349
        46.100    20755954.37149  20755950.473 7  81450841.165 7        41.400
  22208529.852 9 116706634.651 9        48.700    22208536.484 9  90940257.95449
        39.900    22208535.70349  22208532.223 5  87151085.706 5        37.500
  21305990.758 9 111963756.151 9        51.700    21305997.887 9  87244524.50549
        45.000    21305996.93449  21305993.723 6  83609328.196 6        39.800
  23471750.305 7 123344881.218 7        41.800                    96112907.71447
        27.500    23471753.22747
  22075298.320 8 116006485.115 8        47.600                    90394681.89549
        36.600    22075302.05549
  22723722.781 8 119413977.323 8        46.600    22723730.406 8  93049877.97849
        36.400    22723729.56349  22723727.527 5  89172793.396 5        35.000
  20081230.406 9 105527606.101 9        49.300                    82229325.91049
        44.800    20081232.87149
  21060801.758 9 110675241.340 9        50.200                    86240492.16849
        43.200    21060802.80149
  23842755.578 7 125294557.065 7        43.700    23842762.977 7  97632166.51247
        29.600    23842762.07447  23842759.176 3  93564152.765 3        32.200
  23961147.031 6 125916729.688 6        39.000    23961151.910 5  98116971.47546
        23.200    23961151.89146  23961147.672 1  94028754.406 1        29.300
 17  4 10  0  7  0.0000000  0 10G01G32G08G28G14G03G11G22G27G10
  20747193.195 9 109027253.557 9        52.200    20747200.352 9  84956352.87449
        46.300    20747200.04749  20747195.969 6  81416487.460 6        40.800
  22211750.063 9 116723555.711 9        48.800    22211756.445 9  90953443.20349
        39.200    22211755.63349  22211752.207 5  87163721.575 5        37.200
  21319578.547 9 112035160.710 9        51.400    21319585.871 9  87300164.39949
        45.200    21319584.87949  21319581.723 6  83662649.754 6        40.400
  23471827.648 7 123345288.769 7        42.100                    96113225.25647
        28.600    23471830.82447
  22069289.461 9 115974909.217 9        48.400                    90370077.32349
        36.400    22069293.27049
  22706388.773 8 119322886.757 8        46.700    22706396.434 8  92978898.34049
        35.900    22706395.54749  22706393.336 5  89104771.244 5        35.100
  20077336.633 9 105507146.946 9        48.700                    82213383.71249
        44.600    20077339.63749
  21050991.039 9 110623685.259 9        49.600                    86200318.61649
        43.100    21050992.23849
  23863917.063 7 125405763.005 7        43.100    23863924.945 7  97718820.47747
        29.400    23863923.80147  23863921.660 3  93647196.138 3        33.600
  23980018.500 6 126015901.298 6        38.300    23980023.961 6  98194248.06546
        23.200    23980023.47746  23980018.910 1  94102811.142 1        28.900
 17  4 10  0  7 30.0000000  0 10G01G32G08G28G14G03G11G22G27G10
  20738497.094 9 108981554.871 9        52.100    20738504.195 9  84920743.51549
        46.500    20738504.00449  20738500.219 7  81382361.821 7        41.200
  22215083.742 9 116741074.920 9        48.200    22215090.203 9  90967094.55749
        39.200    22215089.41849  22215085.816 5  87176804.115 5        37.500
  21333249.945 9 112107004.601 9        51.200    21333257.355 9  87356146.62649
        44.500    21333256.28549  21333253.363 6  83716299.388 6        39.800
  23472005.063 7 123346219.721 7        42.400                    96113950.66447
        27.100    23472008.37947
  22063382.203 8 115943868.278 8        47.500                    90345889.58949
        35.900    22063386.39149
  22689104.023 9 119232052.974 9        48.100    22689110.914 8  92908118.77649
        36.300    22689109.86349  22689107.887 5  89036940.831 5        35.600
  20073539.141 9 105487189.954 9        49.100                    82197832.81249
        45.100    20073542.05949
  21041251.125 9 110572502.447 9        50.000                    86160435.92849
        43.200    21041252.70349
  23885104.852 7 125517105.830 7        43.200    23885112.449 7  97805581.10648
        30.500    23885111.84448  23885108.941 3  93730341.731 3        32.600
  23998906.828 5 126115161.072 5        37.900    23998913.629 6  98271593.32646
        22.600    23998913.19546  23998907.922 1  94176933.698 1        29.400
 17  4 10  0  8  0.0000000  0 10G01G32G08G28G14G03G11G22G27G10
  20729859.398 9 108936162.399 9        52.500    20729866.480 9  84885372.76449
        46.700    20729866.05149  20729862.445 7  81348464.852 7        41.800
  22218530.922 9 116759191.513 9        48.600    22218537.582 8  90981211.39349
        39.600    22218536.77749  22218533.004 5  87190332.763 5        36.600
  21347004.836 9 112179285.816 9        51.300    21347012.254 9  87412469.63749
        44.900    21347011.21949  21347008.184 6  83770275.606 6        40.200
  23472282.250 7 123347673.570 7        42.700                    96115083.51247
        28.900    23472284.86347
  22057577.758 8 115913363.409 8        47.300                    90322119.58349
        36.300    22057581.14849
  22671867.750 9 119141477.109 9        48.100    22671875.168 8  92837540.21649
        37.200    22671874.34849  22671872.195 5  88969303.048 5        35.500
  20069837.266 9 105467735.614 9        48.900                    82182673.58749
        44.600    20069840.02049
  21031582.617 9 110521692.981 9        49.800                    86120844.15349
        43.400    21031583.72349
  23906319.461 7 125628583.359 7        44.300    23906326.063 7  97892446.70848
        30.200    23906325.05948  23906322.098 1  93813587.924 1        30.600
  24017811.422 5 126214507.082 5        36.700    24017818.137 6  98349005.81146
        22.800    24017817.97346  24017813.227 1  94251120.633 1        30.000
 17  4 10  0  8 30.0000000  0 10G01G32G08G28G14G03G11G22G27G10
  20721279.969 9 108891077.087 9        52.500    20721287.266 9  84850241.35349
        46.800    20721286.90249  20721283.059 7  81314797.249 7        41.700
  22222091.813 9 116777904.990 9        48.400    22222098.664 8  90995793.33649
        39.400    22222097.72349  22222094.004 5  87204307.132 5        36.600
  21360842.477 9 112252002.801 9        51.400    21360849.781 9  87469132.20649
        44.900    21360848.70749  21360845.551 6  83824577.235 6        40.300
  23472657.586 7 123349649.977 7        42.900                    96116623.54047
        28.200    23472660.94547
  22051874.906 8 115883395.842 8        47.300                    90298768.24649
        36.700    22051878.19549
  22654680.828 8 119051160.394 8        47.500    22654688.301 8  92767163.56349
        37.400    22654687.34449  22654685.305 5  88901858.767 5        35.700
  20066230.977 9 105448785.478 9        48.900                    82167907.24949
        44.600    20066233.87549
  21021985.086 9 110471257.207 9        50.000                    86081543.55949
        43.600    21021986.41449
  23927557.867 7 125740193.444 7        42.900    23927564.848 7  97979415.60347
        29.300    23927564.04747  23927560.676 3  93896933.140 3        32.100
  24036732.969 5 126313937.700 5        35.900    24036739.008 6  98426484.17546
        21.300    24036739.13746  24036734.742 2  94325370.753 2        31.300
 17  4 10  0  9  0.0000000  0 10G01G32G08G28G14G03G11G22G27G10
  20712759.250 9 108846299.986 9        52.500    20712766.016 9  84815350.10149
        46.900    20712765.71149  20712761.809 7  81281359.809 7        41.400
  22225766.477 9 116797214.754 9        48.100    22225772.879 9  91010839.90549
        38.600    22225772.34849  22225769.043 5  87218726.755 5        37.400
  21374762.570 9 112325153.852 9        51.100    21374769.648 9  87526133.01249
        45.100    21374768.40649  21374765.250 6  83879203.002 6        39.600
  23473133.508 7 123352148.640 7        42.500                    96118570.54447
        28.300    23473136.23047
  22046274.414 8 115853967.020 8        46.900                    90275836.70849
        36.400    22046278.21949
  22637543.758 8 118961104.129 8        47.700    22637550.973 8  92696989.87149
        36.700    22637550.10949  22637548.367 5  88834608.979 5        35.500
  20062721.008 9 105430340.436 9        48.900                    82153534.48549
        45.000    20062723.84449
  21012458.875 9 110421196.134 9        49.800                    86042534.94949
        43.600    21012460.05549
  23948821.063 7 125851934.097 7        42.700    23948828.414 7  98066486.23548
        30.600    23948827.73448  23948824.367 3  93980375.812 3        32.800
  24055669.781 5 126413451.415 5        36.600    24055675.617 6  98504027.30746
        22.200    24055675.52346  24055670.840 1  94399682.862 1        29.900
 17  4 10  0  9 30.0000000  0 10G01G32G08G28G14G03G11G22G27G10
  20704297.102 9 108801831.870 9        52.400    20704304.086 9  84780699.62449
        47.200    20704304.02749  20704300.012 7  81248153.095 7        41.800
  22229554.898 9 116817120.023 9        49.200    22229561.164 8  91026350.51149
        38.700    22229560.28149  22229556.855 5  87233591.083 5        37.400
  21388764.836 9 112398737.051 9        51.200    21388772.246 9  87583470.55049
        44.700    21388771.26249  21388768.344 6  83934151.470 6        40.600
  23473708.367 7 123355169.106 7        43.600                    96120924.12247
        27.500    23473711.37947
  22040777.406 8 115825077.876 8        47.300                    90253325.71349
        36.600    22040780.92649
  22620456.266 9 118871309.392 9        48.100    22620463.699 8  92627019.96849
        36.900    22620462.99249  22620460.781 5  88767554.497 5        35.500
  20059307.570 9 105412401.341 9        48.800                    82139555.97849
        44.700    20059310.37149
  21003003.852 9 110371509.596 9        50.700                    86003818.16649
        43.500    21003004.58649
  23970108.984 7 125963803.016 7        41.600    23970115.832 7  98153656.81247
        29.800    23970115.35247  23970111.863 3  94063914.289 3        32.100
  24074622.422 6 126513046.202 6        38.400    24074628.285 7  98581633.62146
        24.500    24074628.11346  24074622.723 1  94474055.598 1        28.800
 17  4 10  0 10  0.0000000  0 10G01G32G08G28G14G03G11G22G27G10
  20695894.070 9 108757673.593 9        53.100    20695900.988 9  84746290.58149
        46.700    20695900.82049  20695896.629 7  81215177.771 7        41.500
  22233455.484 9 116837620.111 9        49.100    22233461.848 9  91042324.60949
        38.800    22233461.35249  22233457.516 5  87248899.590 5        36.500
  21402849.141 9 112472750.618 9        51.000    21402856.285 9  87641143.44949
        44.600    21402855.37549  21402852.336 6  83989421.332 6        40.200
  23474382.008 7 123358711.004 7        41.700                    96123684.01447
        27.400    23474384.51647
  22035382.813 8 115796729.696 8        47.000                    90231236.23949
        36.500    22035386.05149
  22603418.758 8 118781777.364 8        47.800    22603426.043 8  92557254.77449
        38.000    22603425.47749  22603423.379 5  88700696.193 5        35.400
  20055989.969 9 105394969.438 9        48.700                    82125972.67949
        44.500    20055993.11749
  20993620.070 9 110322198.381 9        50.300                    85965393.85449
        43.500    20993621.14149
  23991420.719 7 126075798.024 7        41.900    23991428.027 7  98240925.65147
        28.600    23991426.69547  23991423.910 2  94147546.921 2        31.900
  24093589.797 5 126612720.497 5        37.500    24093595.656 7  98659301.88146
        24.300    24093595.44546  24093590.172 1  94548487.687 1        28.400
 17  4 10  0 10 30.0000000  0 11G01G32G08G28G17G14G03G11G22G27G10
  20687550.281 9 108713826.357 9        52.500    20687557.449 9  84712123.91449
        46.900    20687557.04349  20687553.027 7  81182434.714 7        41.700
  22237469.477 9 116858714.470 9        48.500    22237475.855 8  91058761.76749
        39.600    22237475.05549  22237471.281 5  87264651.868 5        36.500
  21417015.031 9 112547192.905 9        51.000    21417022.414 9  87699150.41849
        44.500    21417021.30949  21417018.270 6  84045011.345 6        39.900
  23475155.555 7 123362773.891 7        42.900                    96126849.90447
        27.000    23475157.54347
  25596496.008 6 134510495.78116        38.300    25596500.297 5 104813389.18156
        20.400    25596499.84846
  22030091.492 8 115768923.844 8        46.400                    90209569.36349
        36.600    22030095.22749
  22586431.422 8 118692509.387 8        46.800    22586439.043 8  92487695.33949
        37.500    22586438.54349  22586436.859 5  88634035.068 5        36.100
  20052769.570 9 105378045.971 9        48.700                    82112785.56549
        45.200    20052772.45349
  20984308.070 9 110273262.804 9        50.900                    85927262.25349
        43.800    20984309.10549
  24012757.063 7 126187917.230 7        43.100    24012763.742 7  98328291.24948
        30.200    24012763.02748  24012759.598 3  94231272.292 3        32.700
  24112571.148 5 126712472.887 5        37.100    24112578.152 6  98737030.95646
        22.900    24112578.00046  24112572.785 1  94622978.082 1        28.600
 17  4 10  0 11  0.0000000  0 11G01G32G08G28G17G14G03G11G22G27G10
  20679265.953 9 108670290.931 9        53.000    20679273.016 9  84678200.20449
        47.000    20679272.62549  20679268.781 7  81149924.490 7        41.700
  22241596.508 9 116880402.290 9        49.900    22241602.715 9  91075661.37349
        39.400    22241602.16049  22241598.387 5  87280847.329 5        36.900
  21431262.039 9 112622061.935 9        50.800    21431269.520 9  87757489.91549
        44.100    21431268.17649  21431265.195 6  84100920.031 6        39.900
  23476027.891 7 123367357.350 7        43.000                    96130421.47647
        28.000    23476030.55547
  25576627.094 6 134406082.199 6        38.000    25576630.699 5 104732027.94845
        19.300    25576630.71145
  22024903.594 8 115741661.238 8        47.900                    90188325.78649
        36.800    22024907.28949
  22569495.195 8 118603506.548 8        47.300    22569502.371 8  92418342.51049
        37.100    22569501.45349  22569499.941 5  88567571.950 5        35.900
  20049646.352 9 105361631.648 9        48.700                    82099995.18149
        44.700    20049648.85249
  20975067.242 9 110224703.079 9        50.400                    85889423.52249
        43.700    20975068.55949
  24034115.258 7 126300158.344 7        41.700    24034123.285 7  98415751.86548
        31.200    24034122.30948  24034119.465 3  94315088.690 3        32.700
  24131569.000 6 126812301.352 6        39.600    24131574.238 6  98814819.37846
        21.100    24131574.44546  24131569.527 1  94697525.320 1        28.600
 17  4 10  0 11 30.0000000  0 11G01G32G08G28G17G14G03G11G22G27G10
  20671040.852 9 108627068.306 9        52.700    20671048.117 9  84644520.24449
        47.000    20671047.55149  20671043.594 7  81117647.869 7        41.700
  22245836.648 9 116902682.907 9        48.800    22245843.152 8  91093022.90549
        39.200    22245842.35249  22245839.047 5  87297485.460 5        37.300
  21445590.414 9 112697356.313 9        51.300    21445597.563 9  87816160.84649
        44.500    21445596.52749  21445593.313 6  84157146.346 6        39.500
  23476998.344 7 123372460.740 7        43.200                    96134398.11747
        26.700    23477001.43447
  25556769.539 6 134301728.194 6        40.800    25556772.730 5 104650713.12446
        22.300    25556772.59446
  22019820.211 8 115714943.055 8        47.000                    90167506.45049
        36.900    22019823.23449
  22552608.898 8 118514770.159 8        47.000    22552616.113 8  92349197.28549
        38.000    22552615.11749  22552613.605 5  88501307.791 5        36.400
  20046619.969 9 105345727.589 9        48.700                    82087602.41449
        44.900    20046622.62949
  20965898.531 9 110176519.384 9        50.300                    85851877.78149
        43.900    20965899.64149
  24055496.711 7 126412519.305 7        42.300    24055504.129 7  98503305.85047
        29.400    24055503.83247  24055499.992 1  94398994.588 1        30.900
  24150579.563 6 126912204.492 6        39.800    24150585.203 6  98892665.99546
        23.000    24150585.40646  24150580.250 1  94772128.335 1        27.500
 17  4 10  0 12  0.0000000  0 11G01G32G08G28G17G14G03G11G22G27G10
  20662875.438 9 108584159.552 9        53.200    20662882.496 9  84611084.85449
        46.900    20662882.13349  20662878.527 7  81085605.618 7        41.500
  22250189.172 9 116925555.619 9        49.200    22250195.320 8  91110845.79549
        38.700    22250194.37549  22250190.949 5  87314565.731 5        36.700
  21459998.797 9 112773074.431 9        51.000    21460006.031 9  87875161.97749
        44.200    21460005.06349  21460001.965 6  84213689.084 6        39.900
  23478069.047 7 123378083.458 7        43.200                    96138779.45247
        26.600    23478071.29347
  25536923.422 6 134197435.616 6        39.800    25536927.008 6 104569446.17246
        22.800    25536926.49646
  22014839.289 8 115688770.823 8        47.400                    90147112.52849
        36.400    22014842.67249
  22535774.195 8 118426301.426 8        47.700    22535781.379 8  92280260.63049
        37.300    22535780.55549  22535779.043 5  88435243.500 5        36.000
  20043690.898 9 105330334.694 9        48.900                    82075607.94749
        44.600    20043693.19549
  20956801.031 9 110128713.083 9        50.400                    85814626.14249
        44.000    20956802.14849
  24076901.164 7 126524998.115 7        41.800    24076908.008 7  98590951.66547
        27.900    24076907.16047  24076904.316 2  94482988.494 2        31.100
  24169604.391 6 127012180.770 6        38.300    24169610.063 6  98970569.58746
        24.200    24169609.84046  24169605.625 1  94846785.903 1        29.600
 17  4 10  0 12 30.0000000  0 11G01G32G08G28G17G14G03G11G22G27G10
  20654770.086 9 108541565.276 9        53.200    20654776.805 9  84577894.52149
        47.000    20654776.66449  20654772.996 7  81053798.214 7        42.100
  22254653.961 9 116949019.304 9        49.300    22254660.824 8  91129129.19449
        39.100    22254659.62949  22254656.320 5  87332087.316 5        36.500
  21474487.633 9 112849213.484 9        50.900    21474494.742 9  87934491.09749
        44.200    21474494.03149  21474490.875 6  84270546.165 6        40.200
  23479237.414 7 123384224.932 7        41.700                    96143564.99347
        28.000    23479239.81647
  25517088.844 5 134093206.233 5        37.000    25517092.012 6 104488228.55446
        20.400    25517092.69546
  22009962.945 8 115663144.770 8        47.300                    90127144.19449
        36.000    22009966.23849
  22518990.102 9 118338101.217 9        48.700    22518997.336 8  92211533.21149
        37.700    22518996.69949  22518994.957 5  88369379.725 5        36.900
  20040859.188 9 105315453.641 9        48.800                    82064012.32449
        44.600    20040861.53949
  20947775.352 9 110081283.389 9        50.100                    85777667.95149
        44.100    20947776.66049
  24098326.836 7 126637592.293 7        41.700    24098334.863 7  98678687.38948
        30.400    24098333.76248  24098331.035 2  94567068.570 2        31.900
  24188642.766 6 127112228.103 6        39.600    24188648.523 6  99048528.51446
        23.000    24188648.62546  24188644.176 1  94921496.533 1        30.000
 17  4 10  0 13  0.0000000  0 11G01G32G08G28G17G14G03G11G22G27G10
  20646724.695 9 108499286.265 9        52.900    20646731.285 9  84544949.84049
        47.200    20646731.12549  20646727.227 7  81022226.239 7        41.600
  22259231.070 9 116973073.045 9        48.900    22259238.082 8  91147872.36749
        38.400    22259237.60949  22259233.719 5  87350049.524 5        37.800
  21489056.469 9 112925772.188 9        50.700    21489063.766 9  87994147.21849
        44.200    21489062.82449  21489059.434 6  84327716.619 6        40.500
  23480504.766 7 123390884.544 7        42.000                    96148754.29747
        27.200    23480507.26647
  25497267.438 6 133989042.343 6        38.500    25497270.758 6 104407061.77546
        22.500    25497270.47746
  22005190.070 8 115638066.136 8        47.300                    90107602.41649
        35.900    22005193.57849
  22502257.273 8 118250170.599 8        47.800    22502264.438 8  92143015.87249
        37.500    22502263.53549  22502262.199 5  88303717.282 5        35.900
  20038124.414 9 105301085.703 9        48.400                    82052816.52649
        44.800    20038127.32049
  20938821.313 9 110034230.967 9        49.700                    85741003.72449
        43.800    20938822.96549
  24119774.250 7 126750299.567 7        42.800    24119781.695 7  98766511.20447
        29.700    24119781.49247  24119777.828 3  94651233.067 3        32.100
  24207694.648 6 127212344.859 6        39.100    24207699.883 6  99126541.58446
        23.000    24207699.88346  24207695.668 1  94996259.029 1        29.100
 17  4 10  0 13 30.0000000  0 11G01G32G08G28G17G14G03G11G22G27G10
  20638739.531 9 108457324.169 9        53.000    20638746.270 9  84512252.12449
        47.100    20638746.12149  20638742.164 7  80990890.927 7        41.600
  22263921.023 9 116997716.716 9        48.700    22263927.629 9  91167075.23149
        39.200    22263927.12549  22263923.352 5  87368452.272 5        36.200
  21503704.641 9 113002748.905 9        50.900    21503712.309 9  88054129.07149
        44.100    21503710.71949  21503707.563 6  84385199.227 6        39.400
  23481870.383 7 123398062.373 7        43.800                    96154347.42047
        28.700    23481873.40647
  25477459.344 7 133884946.467 7        42.000    25477462.641 5 104325948.22546
        22.000    25477461.38746
  22000522.625 8 115613536.878 8        47.800                    90088488.72849
        36.900    22000526.51649
  22485576.500 9 118162511.443 9        48.100    22485583.660 8  92074710.05949
        37.800    22485582.57049  22485580.945 5  88238257.554 5        35.700
  20035488.688 9 105287232.563 9        48.400                    82042021.87949
        44.600    20035491.50849
  20929939.820 9 109987556.879 9        50.000                    85704634.34449
        44.000    20929940.71949
  24141242.711 7 126863118.553 7        41.800    24141249.973 7  98854422.10747
        29.200    24141249.32047  24141246.184 1  94735481.006 1        30.900
  24226759.328 6 127312530.102 6        39.200    24226765.109 6  99204608.00246
        22.000    24226764.10946  24226760.129 1  95071072.702 1        27.400
 17  4 10  0 14  0.0000000  0 11G01G32G08G28G17G14G03G11G22G27G10
  20630814.852 9 108415679.353 9        52.800    20630821.629 9  84479801.63349
        47.600    20630821.56649  20630817.254 7  80959792.546 7        42.000
  22268722.445 9 117022948.857 9        49.500    22268728.934 8  91186736.64349
        39.000    22268728.37949  22268724.781 5  87387294.466 5        37.000
  21518431.867 9 113080141.258 9        51.100    21518439.348 9  88114434.80149
        43.700    21518438.13349  21518435.035 6  84442992.214 6        39.500
  23483334.367 7 123405756.910 7        42.100                    96160343.11947
        26.700    23483337.28147
  25457662.680 6 133780920.107 6        39.200    25457666.891 5 104244888.68346
        21.100    25457665.60546
  21995959.117 9 115589557.231 9        48.600                    90069803.30449
        36.700    21995962.66049
  22468947.242 9 118075124.294 9        48.000    22468954.336 8  92006616.21349
        38.200    22468953.85549  22468951.758 5  88173000.958 5        36.000
  20032950.164 9 105273893.950 9        48.400                    82031628.15349
        44.900    20032952.88349
  20921129.961 9 109941260.617 9        50.500                    85668559.34449
        43.900    20921130.77749
  24162733.203 7 126976046.550 7        42.100    24162739.926 7  98942417.93647
        28.500    24162738.83647  24162735.758 2  94819810.354 2        31.000
  24245836.789 6 127412781.641 6        38.900    24245842.543 6  99282726.08046
        22.200    24245841.83246  24245837.910 1  95145935.872 1        27.700
 17  4 10  0 14 30.0000000  0 11G01G32G08G28G17G14G03G11G22G27G10
  20622950.500 9 108374352.771 9        53.000    20622957.770 9  84447599.11649
        47.300    20622957.10249  20622953.262 7  80928931.805 7        42.200
  22273635.633 9 117048768.572 9        48.800    22273641.969 8  91206855.91949
        38.800    22273641.26649  22273637.668 5  87406575.438 5        37.500
  21533237.984 9 113157947.503 9        50.500    21533245.426 9  88175063.04349
        43.500    21533244.54349  21533241.273 6  84501094.278 6        39.300
  23484896.969 7 123413967.875 7        42.200                    96166741.22347
        28.400    23484899.97747
  25437879.984 5 133676965.658 5        36.500    25437883.945 4 104163885.16645
        16.900    25437883.49645
  21991500.695 9 115566128.106 9        48.700                    90051546.87049
        36.700    21991504.54749
  22452370.078 9 117988010.334 9        48.100    22452377.121 8  91938735.21949
        38.600    22452376.26249  22452374.402 5  88107948.336 5        36.600
  20030510.469 9 105261071.230 9        48.600                    82021636.41849
        44.800    20030513.12949
  20912392.055 9 109895342.468 9        50.200                    85632778.96749
        44.300    20912393.21949
  24184242.883 7 127089081.353 7        41.300    24184250.133 7  99030496.98548
        30.400    24184249.65248  24184246.281 2  94904219.448 2        31.600
  24264925.328 5 127513097.902 5        37.400    24264931.215 6  99360894.53546
        20.400    24264931.55946  24264927.691 1  95220847.336 1        28.200
 17  4 10  0 15  0.0000000  0 11G01G32G08G28G17G14G03G11G22G27G10
  20615147.344 9 108333345.496 9        53.900    20615154.141 9  84415645.40949
        47.500    20615153.66449  20615149.531 7  80898309.510 7        42.000
  22278660.453 9 117075175.194 9        48.800    22278666.879 8  91227432.52649
        38.900    22278666.05949  22278662.637 5  87426294.681 5        36.700
  21548122.328 9 113236166.000 9        50.500    21548129.500 9  88236012.51149
        43.900    21548128.69949  21548125.602 6  84559504.183 6        39.400
  23486558.016 7 123422694.515 7        43.700                    96173541.14647
        26.700    23486560.26647
  25418113.961 7 133573085.351 7        41.100    25418117.680 6 104082939.53547
        26.700    25418116.87947
  21987147.344 9 115543250.786 9        48.700                    90033720.42249
        36.400    21987150.94149
  22435845.063 9 117901170.895 9        49.100    22435852.055 8  91871068.15249
        38.800    22435851.60949  22435849.453 5  88043100.742 5        35.900
  20028168.648 9 105248765.596 9        48.600                    82012047.61749
        44.700    20028171.58249
  20903726.148 9 109849803.120 9        50.800                    85597293.77249
        44.300    20903727.10249
  24205772.898 7 127202221.062 7        41.600    24205779.742 7  99118657.78347
        28.500    24205778.98847  24205776.203 3  94988706.862 3        32.800
  24284027.102 5 127613477.393 5        37.000    24284033.117 5  99439112.37445
        19.000    24284032.81345  24284028.828 1  95295806.030 1        27.400
 17  4 10  0 15 30.0000000  0 11G01G32G08G28G17G14G03G11G22G27G10
  20607404.523 9 108292658.372 9        55.000    20607411.484 9  84383941.17049
        47.500    20607411.17249  20607407.039 7  80867926.272 7        42.400
  22283797.336 9 117102167.685 9        48.200    22283803.359 8  91248465.65149
        38.300    22283802.68049  22283798.844 5  87446451.438 5        36.600
  21563084.867 9 113314794.553 9        51.100    21563092.375 9  88297281.50749
        43.600    21563091.21549  21563087.824 6  84618220.316 6        39.700
  23488316.898 7 123431936.264 7        43.500                    96180742.49647
        27.300    23488319.21947
  25398360.016 6 133469281.053 6        40.000    25398362.992 5 104002053.07046
        21.100    25398362.09846
  21982899.266 9 115520926.257 9        48.600                    90016324.69149
        37.200    21982902.90249
  22419372.008 9 117814606.958 9        48.300    22419379.539 8  91803615.75749
        38.700    22419378.88349  22419376.848 5  87978458.863 5        36.600
  20025925.328 9 105236977.559 9        48.500                    82002862.13149
        44.900    20025928.28549
  20895132.391 9 109804642.737 9        50.600                    85562103.88249
        44.300    20895133.39849
  24227321.438 6 127315463.468 6        40.900    24227328.820 7  99206898.61647
        28.200    24227328.32847  24227325.133 2  95073270.964 2        31.900
  24303140.281 5 127713918.445 5        35.800    24303146.637 5  99517378.14345
        18.300    24303145.69145  24303141.184 1  95370810.733 1        25.600
 17  4 10  0 16  0.0000000  0 11G01G32G08G28G17G14G03G11G22G27G10
  20599723.406 9 108252292.353 9        54.400    20599730.234 9  84352487.13149
        47.500    20599730.00849  20599726.051 7  80837782.818 7        42.100
  22289045.148 9 117129745.061 9        48.800    22289051.469 8  91269954.53649
        38.800    22289050.87149  22289047.039 5  87467044.960 5        36.800
  21578125.180 9 113393831.642 9        50.300    21578132.582 9  88358868.85049
        43.600    21578131.27749  21578128.063 6  84677241.515 6        39.900
  23490172.789 7 123441692.622 7        42.900                    96188344.84147
        26.500    23490175.50847
  25378619.680 6 133365554.990 6        38.300    25378624.715 4 103921227.63045
        18.300    25378623.82845
  21978756.164 9 115499154.964 9        48.500                    89999360.06049
        36.700    21978759.52049
  22402951.977 9 117728319.730 9        48.600    22402959.672 8  91736378.97649
        38.600    22402958.87549  22402956.840 5  87914023.626 5        37.300
  20023780.844 9 105225708.258 9        48.800                    81994080.85049
        44.400    20023783.79349
  20886610.734 9 109759861.604 9        50.900                    85527209.49849
        44.100    20886611.66449
  24248890.500 7 127428806.356 7        42.100    24248897.402 7  99295217.75647
        28.700    24248896.46147  24248892.738 2  95157910.166 2        31.300
  24322266.273 5 127814419.617 5        35.900    24322271.715 5  99595690.69045
        19.300    24322271.03545  24322266.293 1  95445860.291 1        25.400
 17  4 10  0 16 30.0000000  0 11G01G32G08G28G17G14G03G11G22G27G10
  20592102.969 9 108212248.188 9        54.200    20592110.016 9  84321283.87849
        47.600    20592109.60549  20592105.703 7  80807879.700 7        41.800
  22294404.094 9 117157906.104 9        48.700    22294410.258 8  91291898.23049
        38.800    22294409.56349  22294406.137 5  87488074.329 5        36.900
  21593242.781 9 113473275.017 9        50.900    21593250.297 9  88420772.77849
        43.200    21593248.93049  21593246.066 6  84736566.113 6        39.400
  23492127.539 7 123451962.513 7        43.400                    96196347.34947
        26.800    23492130.55947
  25358896.727 5 133261909.169 5        37.400    25358901.586 5 103840464.51046
        20.400    25358899.87946
  21974719.148 9 115477937.704 9        48.500                    89982827.15349
        37.400    21974721.69149
  22386585.219 9 117642310.131 9        49.600    22386592.539 8  91669358.53749
        39.200    22386591.89549  22386589.449 5  87849795.703 5        36.000
  20021735.250 9 105214958.284 9        48.300                    81985704.24549
        45.200    20021738.13749
  20878161.461 9 109715459.501 9        50.900                    85492610.46349
        44.200    20878162.44149
  24270476.977 7 127542247.448 7        41.300    24270484.785 7  99383613.39547
        29.700    24270484.13347  24270480.586 2  95242622.649 2        31.400
  24341401.156 5 127914979.022 5        35.300    24341407.199 5  99674048.64145
        18.600    24341407.37545  24341402.570 1  95520953.376 1        26.900
 17  4 10  0 17  0.0000000  0 11G01G32G08G28G17G14G03G11G22G27G10
  20584544.031 9 108172527.141 9        55.000    20584551.664 9  84290332.40149
        47.400    20584551.09449  20584547.254 7  80778217.874 7        41.800
  22299873.414 9 117186650.215 9        48.800    22299880.285 8  91314296.25449
        38.400    22299879.27049  22299875.902 5  87509539.101 5        36.200
  21608437.297 9 113553123.151 9        50.700    21608444.879 9  88482992.09949
        43.500    21608443.77749  21608440.742 6  84796192.963 6        39.400
  23494179.430 7 123462745.393 7        43.500                    96204749.53247
        26.600    23494182.25047
  25339189.602 5 133158345.992 5        37.000    25339194.742 6 103759766.03746
        21.700    25339194.62146
  21970786.977 9 115457276.074 9        49.100                    89966727.19549
        37.300    21970790.43049
  22370271.391 9 117556579.588 9        49.700    22370278.547 8  91602555.54049
        38.700    22370277.64149  22370275.719 5  87785776.167 5        36.200
  20019788.563 9 105204728.801 9        49.000                    81977733.22349
        44.700    20019791.43849
  20869784.031 9 109671437.609 9        52.100                    85458307.68249
        44.300    20869785.53949
  24292082.000 6 127655784.979 6        40.000    24292089.934 7  99472084.17747
        26.900    24292089.19947  24292086.473 3  95327407.136 3        32.300
  24360548.273 3 128015595.405 3        33.300    24360553.629 5  99752451.08244
        14.800    24360553.75844  24360550.012 1  95596088.987 1        28.100
 17  4 10  0 17 30.0000000  0 11G01G32G08G28G17G14G03G11G22G27G10
  20577047.320 9 108133130.130 9        54.300    20577054.148 9  84259633.43449
        47.400    20577053.87949  20577049.805 7  80748798.023 7        42.200
  22305454.063 9 117215976.362 9        48.000    22305460.539 8  91337147.79849
        38.400    22305459.84049  22305456.125 5  87531438.501 5        37.100
  21623708.477 9 113633373.783 9        50.700    21623715.918 9  88545525.05549
        43.200    21623714.70749  21623711.902 6  84856120.385 6        39.200
  23496328.461 7 123474040.444 7        42.500                    96213550.87347
        28.200    23496331.77347
  25319499.367 6 133054867.679 6        39.800    25319504.316 6 103679133.64946
        24.400    25319503.41046
  21966960.984 9 115437170.920 9        48.900                    89951060.85949
        37.300    21966964.95349
  22354010.578 9 117471129.235 9        50.000    22354018.102 8  91535970.88149
        38.800    22354017.01249  22354015.563 5  87721965.880 5        37.100
  20017940.852 9 105195020.482 9        48.600                    81970168.29349
        44.300    20017943.92249
  20861479.555 9 109627796.111 9        50.700                    85424301.34949
        44.100    20861480.69549
  24313706.563 7 127769416.678 7        42.100    24313712.816 7  99560628.37647
        29.500    24313712.06347  24313708.633 1  95412261.993 1        29.900
  24379705.188 3 128116267.355 3        33.400    24379710.813 5  99830896.69545
        15.600    24379710.67645  24379706.809 1  95671266.019 1        28.100
 17  4 10  0 18  0.0000000  0 11G01G32G08G28G17G14G03G11G22G27G10
  20569612.336 9 108094057.849 9        54.300    20569618.793 9  84229187.49949
        47.600    20569618.35249  20569614.453 7  80719620.675 7        42.100
  22311145.234 9 117245883.225 9        48.800    22311151.711 8  91360451.84449
        38.100    22311150.83649  22311147.410 5  87553771.546 5        36.400
  21639055.500 9 113714024.515 9        50.300    21639063.008 9  88608369.78349
        43.000    21639062.03149  21639058.992 6  84916346.572 6        39.300
  23498575.227 7 123485846.815 7        42.400                    96222750.62747
        27.500    23498577.85947
  25299824.289 6 132951476.168 6        40.700    25299828.410 6 103598568.78246
        22.600    25299828.18446
  21963241.227 9 115417622.721 9        48.900                    89935828.51449
        36.100    21963244.35249
  22337803.727 9 117385959.876 9        50.400    22337810.496 8  91469605.17349
        39.100    22337809.47749  22337808.258 5  87658365.421 5        36.700
  20016192.703 9 105185834.023 9        49.600                    81963010.01049
        44.100    20016195.68849
  20853247.078 9 109584534.640 9        51.300                    85390591.14149
        44.300    20853248.22349
  24335346.742 6 127883140.256 6        40.300    24335354.273 7  99649244.15047
        28.200    24335353.79747  24335350.250 2  95497185.458 2        31.600
  24398873.297 5 128216992.868 5        35.700    24398878.805 5  99909384.11745
        17.400    24398878.19545  24398874.504 1  95746483.082 1        26.800
 17  4 10  0 18 30.0000000  0 11G01G32G08G28G17G14G03G11G22G27G10
  20562238.984 9 108055311.402 9        53.500    20562245.859 9  84198995.46149
        47.700    20562245.80949  20562241.559 7  80690686.635 7        42.400
  22316946.688 9 117276369.909 9        48.400    22316952.852 8  91384207.70549
        38.300    22316952.21949  22316948.855 5  87576537.584 5        36.700
  21654479.227 9 113795074.160 9        50.600    21654486.855 9  88671525.33749
        43.100    21654485.83249  21654482.441 6  84976870.653 6        39.400
  23500919.531 7 123498163.848 7        42.300                    96232348.29147
        27.100    23500922.97747
  25280165.820 6 132848173.587 6        38.600    25280169.863 5 103518073.15846
        20.100    25280169.30946
  21959627.352 9 115398632.345 9        49.100                    89921030.84449
        37.800    21959630.62549
  22321650.078 9 117301072.807 9        50.000    22321657.137 8  91403459.44349
        39.000    22321656.24249  22321654.910 5  87594975.772 5        37.200
  20014544.477 9 105177170.590 9        48.600                    81956259.28549
        44.700    20014547.34449
  20845087.250 9 109541653.772 9        50.000                    85357177.49349
        44.400    20845087.97749
  24357004.648 7 127996953.739 7        41.200    24357012.543 7  99737929.93047
        28.100    24357012.16447  24357008.793 3  95582176.013 3        32.500
  24418050.344 3 128317770.662 3        33.800    24418056.188 6  99987912.24544
        14.800    24418056.56644  24418051.004 1  95821739.240 1        26.200
 17  4 10  0 19  0.0000000  0 11G01G32G08G28G17G14G03G11G22G27G10
  20554927.914 9 108016891.784 9        53.500    20554934.824 9  84169058.09749
        47.700    20554934.76249  20554930.688 7  80661996.661 7        42.500
  22322858.117 9 117307435.420 9        48.600    22322864.512 8  91408414.60749
        38.100    22322863.76249  22322860.164 5  87599735.857 5        37.100
  21669977.906 9 113876520.484 9        51.100    21669985.348 9  88734990.00649
        43.400    21669984.62149  21669981.582 6  85037690.962 6        39.600
  23503360.375 7 123510990.653 7        43.100                    96242343.18147
        27.100    23503363.55147
  25260525.953 6 132744962.526 6        38.800    25260529.125 5 103437649.01445
        19.900    25260528.43045
  21956119.938 9 115380200.563 9        49.300                    89906668.42649
        36.900    21956123.28949
  22305550.125 9 117216469.148 9        50.300    22305557.535 8  91337534.52949
        39.400    22305556.58249  22305555.133 5  87531797.744 5        36.900
  20012995.703 9 105169030.993 9        49.000                    81949916.74549
        44.900    20012998.20349
  20836999.711 9 109499153.965 9        50.300                    85324060.77949
        44.500    20837000.72349
  24378680.242 7 128110854.993 7        41.300    24378686.086 7  99826684.15747
        28.000    24378686.00047  24378682.984 2  95667232.120 2        31.700
  24437236.578 3 128418599.36113        32.000    24437243.387 6 100066480.04955
        15.600    24437243.36345  24437237.738 1  95897033.42811        26.200
 17  4 10  0 19 30.0000000  0 11G01G32G08G28G17G14G03G11G22G27G10
  20547679.633 9 107978799.618 9        54.200    20547686.129 9  84139375.89349
        47.900    20547685.80949  20547681.852 7  80633551.217 7        41.800
  22328880.164 9 117339078.286 9        48.600    22328886.309 8  91433071.39449
        38.700    22328885.80149  22328881.852 5  87623365.280 5        36.400
  21685551.250 9 113958361.338 9        50.800    21685558.359 9  88798762.10049
        42.800    21685557.59849  21685554.734 6  85098805.883 6        39.400
  23505898.063 7 123524326.367 7        43.400                    96252734.60147
        27.600    23505900.36347
  25240904.336 7 132641844.640 7        41.300    25240907.566 5 103357297.45246
        23.800    25240906.79346
  21952718.617 9 115362328.072 9        49.200                    89892741.83049
        37.300    21952722.02749
  22289504.617 9 117132149.679 9        49.900    22289511.766 8  91271831.07749
        39.500    22289510.85949  22289509.230 5  87468831.931 5        37.100
  20011546.695 9 105161415.457 9        49.200                    81943982.55849
        44.700    20011549.27049
  20828984.625 9 109457034.795 9        51.100                    85291240.65049
        44.300    20828985.55949
  24400370.758 7 128224841.578 7        41.000    24400377.531 7  99915504.88747
        28.200    24400376.79347  24400373.426 1  95752351.964 1        30.200
  24456434.219 4 128519477.02214        34.000    24456439.188 5 100145085.95355
        17.400    24456440.60245  24456435.449 1  95972364.08711        28.300
 17  4 10  0 20  0.0000000  0 11G01G32G08G28G17G14G03G11G22G27G10
  20540492.844 9 107941035.964 9        54.100    20540499.918 9  84109949.67149
        47.900    20540499.59849  20540495.465 7  80605351.091 7        42.200
  22335010.844 8 117371297.523 8        47.900    22335017.336 8  91458177.28749
        38.300    22335016.85249  22335013.020 5  87647425.099 5        36.600
  21701200.180 9 114040594.845 9        50.600    21701207.137 9  88862840.15549
        42.400    21701206.03549  21701202.996 6  85160214.016 6        39.600
  23508532.359 7 123538170.217 7        42.500                    96263521.95947
        27.800    23508535.22347
  25221300.164 7 132538822.242 7        42.600    25221303.148 6 103277020.30746
        24.600    25221302.10946
  21949424.445 9 115345015.658 9        49.100                    89879251.65249
        37.100    21949427.79349
  22273514.016 9 117048115.649 9        50.300    22273520.664 8  91206350.02949
        39.000    22273519.68449  22273518.059 5  87406079.269 5        37.300
  20010197.297 9 105154325.222 9        48.500                    81938457.69149
        44.500    20010199.73449
  20821042.258 9 109415296.722 9        51.800                    85258717.47449
        44.500    20821043.22349
  24422077.313 6 128338911.495 6        40.800    24422084.762 7 100004390.53047
        29.400    24422084.15247  24422081.078 2  95837534.062 2        31.800
  24475637.945 4 128620402.286 4        34.700    24475644.590 5 100223729.00944
        14.800    24475644.81344  24475640.652 1  96047730.297 1        26.200
 17  4 10  0 20 30.0000000  0 11G01G32G08G28G17G14G03G11G22G27G10
  20533369.867 9 107903601.963 9        54.400    20533377.020 9  84080780.32549
        48.100    20533376.41449  20533372.340 7  80577397.136 7        41.800
  22341251.664 8 117404092.184 8        47.100    22341258.023 8  91483731.57549
        37.900    22341257.32849  22341253.730 5  87671914.627 5        36.700
  21716923.188 9 114123219.061 9        50.400    21716930.160 9  88927222.65649
        42.400    21716928.99649  21716925.840 6  85221913.915 6        39.000
  23511263.586 7 123552521.208 7        42.300                    96274704.52047
        28.300    23511266.82047
  25201714.023 7 132435897.721 7        41.800    25201717.262 6 103196819.37147
        25.900    25201716.87147
  21946236.703 9 115328264.161 9        48.600                    89866198.53849
        37.300    21946240.30149
  22257576.992 9 116964368.264 9        50.000    22257584.199 8  91141092.34849
        39.700    22257583.16849  22257581.598 5  87343540.665 5        36.500
  20008947.820 9 105147761.002 9        48.900                    81933342.72249
        44.300    20008950.65249
  20813172.484 9 109373940.418 9        51.000                    85226491.78649
        44.500    20813172.94549
  24443799.711 7 128453062.815 7        41.300    24443807.090 7 100093339.58447
        28.500    24443806.38747  24443803.605 2  95922776.907 2        31.900
  24494853.852 5 128721373.772 5        36.000    24494859.102 5 100302408.08845
        16.300    24494859.19945  24494854.574 1  96123131.067 1        25.000
 17  4 10  0 21  0.0000000  0 11G01G32G08G28G17G14G03G11G22G27G10
  20526308.922 9 107866498.275 9        53.200    20526315.770 9  84051868.36549
        48.000    20526315.50849  20526311.434 7  80549689.843 7        42.400
  22347601.328 8 117437460.861 8        47.200    22347607.934 8  91509733.15149
        37.900    22347606.96149  22347603.832 5  87696832.805 5        36.400
  21732720.172 9 114206231.622 9        50.600    21732727.574 9  88991907.76349
        43.300    21732726.68449  21732723.234 6  85283903.815 6        38.700
  23514090.758 7 123567378.442 7        43.600                    96286281.58047
        26.000    23514093.77347
  25182145.609 6 132333073.268 6        38.100    25182150.133 5 103116696.47346
        20.400    25182150.00046
  21943155.453 9 115312073.819 9        48.600                    89853582.68549
        37.500    21943159.41449
  22241695.125 9 116880908.370 9        49.900    22241702.465 8  91076058.67949
        40.100    22241701.74649  22241699.883 5  87281216.734 5        37.300
  20007799.117 9 105141723.388 9        48.500                    81928638.08649
        44.700    20007801.99649
  20805375.016 9 109332965.711 9        49.900                    85194563.44349
        44.500    20805376.19549
  24465537.797 7 128567293.082 7        41.300    24465543.676 6 100182350.20747
        27.700    24465542.74247  24465540.133 1  96008078.721 1        30.600
  24514076.820 4 128822389.810 4        34.200    24514082.973 5 100381121.89245
        18.300    24514082.59445  24514076.617 1  96198565.136 1        22.600
 17  4 10  0 21 30.0000000  0 11G01G32G08G28G17G14G03G11G22G27G10
  20519311.328 9 107829725.807 9        52.900    20519318.250 9  84023214.50149
        48.000    20519317.94949  20519313.754 7  80522229.892 7        42.600
  22354060.289 8 117471402.325 8        47.600    22354066.922 8  91536181.04949
        38.000    22354065.60249  22354062.297 5  87722178.704 5        36.200
  21748590.219 9 114289630.663 9        49.900    21748597.277 9  89056894.02849
        42.600    21748596.19949  21748592.984 6  85346182.326 6        39.500
  23517014.031 7 123582741.075 7        42.600                    96298252.45847
        28.400    23517016.97747
  25162598.563 6 132230350.945 6        40.500    25162601.559 5 103036653.07246
        20.900    25162601.26246
  21940181.664 9 115296445.948 9        48.600                    89841405.14149
        38.300    21940185.56349
  22225868.406 9 116797737.023 9        49.600    22225875.414 8  91011249.85549
        40.300    22225874.62949  22225872.535 5  87219108.273 5        36.700
  20006750.461 9 105136213.114 9        48.500                    81924344.36149
        45.100    20006753.32049
  20797650.445 9 109292372.610 9        49.900                    85162932.45349
        44.700    20797651.87549
  24487289.227 6 128681600.231 6        40.900    24487296.609 7 100271420.72247
        27.200    24487295.60247  24487291.234 1  96093437.999 1        29.600
  24533306.430 4 128923448.932 4        34.200    24533313.637 5 100459869.22045
        17.800    24533313.27745  24533307.887 1  96274031.379 1        24.100
 17  4 10  0 22  0.0000000  0 11G01G32G08G28G17G14G03G11G22G27G10
  20512377.031 9 107793285.679 9        54.400    20512384.324 9  83994819.59749
        48.000    20512383.93849  20512379.863 7  80495018.108 7        42.500
  22360627.625 8 117505915.499 8        47.300    22360634.207 8  91563074.44149
        38.300    22360633.10249  22360629.559 5  87747951.537 5        36.000
  21764533.508 9 114373414.167 9        49.800    21764541.129 9  89122179.87049
        43.200    21764539.97349  21764537.109 6  85408747.917 6        39.600
  23520033.961 7 123598608.132 7        42.600                    96310616.38347
        27.100    23520036.21147
  25143072.914 7 132127733.235 7        41.700    25143076.129 6 102956691.12147
        27.000    25143075.90647
  21937315.305 8 115281381.078 8        47.800                    89829666.28649
        37.700    21937318.63749
  22210096.648 9 116714855.433 9        49.300    22210103.668 8  90946666.80449
        40.100    22210102.81649  22210101.012 5  87157216.179 5        36.700
  20005802.273 9 105131231.004 9        48.000                    81920462.20049
        44.300    20005805.32049
  20789998.586 9 109252161.732 9        50.900                    85131599.30649
        44.700    20789999.70749
  24509055.078 7 128795982.184 7        41.100    24509062.895 7 100360549.49747
        28.800    24509062.44547  24509059.191 2  96178853.112 2        31.200
  24552546.023 4 129024549.795 4        34.600    24552552.332 5 100538649.06645
        16.900    24552551.94945  24552547.207 1  96349528.751 1        27.400
 17  4 10  0 22 30.0000000  0 11G01G32G08G28G17G14G03G11G22G27G10
  20505506.070 9 107757178.372 9        52.900    20505513.105 9  83966684.03549
        48.000    20505512.88349  20505508.926 7  80468054.864 7        42.400
  22367303.781 8 117540998.696 8        47.500    22367310.391 8  91590412.00849
        38.300    22367309.64549  22367305.926 5  87774150.033 5        36.100
  21780549.742 9 114457579.977 9        50.800    21780556.871 9  89187763.60849
        42.300    21780555.66849  21780552.453 6  85471599.007 6        39.100
  23523148.719 7 123614978.318 7        42.100                    96323372.35347
        27.700    23523151.73447
  25123563.367 6 132025221.802 6        38.900    25123568.984 7 102876812.15246
        23.800    25123568.79746
  21934555.359 9 115266879.202 9        48.000                    89818366.13849
        36.900    21934558.46549
  22194379.836 9 116632264.149 9        50.700    22194386.840 8  90882309.95749
        40.000    22194386.12549  22194384.266 5  87095540.879 5        37.500
  20004954.633 9 105126777.321 9        48.100                    81916991.79649
        44.100    20004957.82049
  20782419.461 9 109212332.516 9        50.100                    85100563.56149
        45.000    20782420.13349
  24530834.625 7 128910436.395 7        41.600    24530841.863 6 100449734.58647
        25.900    24530841.16447  24530839.258 1  96264322.104 1        30.900
  24571792.586 4 129125690.424 4        34.500    24571797.309 3 100617460.00545
        16.900    24571797.78545  24571793.332 1  96425055.822 1        25.300
 17  4 10  0 23  0.0000000  0 11G01G32G08G28G17G14G03G11G22G27G10
  20498698.867 9 107721405.749 9        54.000    20498705.773 9  83938809.26849
        48.200    20498705.52749  20498701.629 7  80441341.539 7        42.500
  22374088.273 9 117576651.642 9        48.000    22374094.852 8  91618193.52749
        38.100    22374094.00449  22374090.230 5  87800773.996 5        36.200
  21796638.586 9 114542126.662 9        50.000    21796646.398 9  89253644.14449
        42.400    21796645.20749  21796641.816 6  85534734.519 6        38.600
  23526359.625 7 123631851.375 7        43.200                    96336520.19047
        27.100    23526362.75847
  25104078.859 7 131922819.938 7        43.300    25104081.965 5 102797018.62347
        26.100    25104081.62547
  21931903.273 8 115252942.064 8        47.600                    89807506.03849
        37.700    21931906.53549
  22178718.648 9 116549965.210 9        50.300    22178725.969 9  90818180.92249
        40.200    22178725.26649  22178723.109 5  87034083.878 5        37.500
  20004207.984 9 105122853.926 9        48.200                    81913934.60649
        44.400    20004211.19949
  20774913.086 9 109172886.439 9        51.300                    85069826.35449
        44.600    20774913.66849
  24552628.203 7 129024961.696 7        41.100    24552634.969 6 100538975.09647
        26.400    24552633.82847  24552630.691 1  96349844.253 1        29.400
  24591046.398 2 129226870.299 2        31.600    24591051.938 4 100696301.48045
        15.600    24591051.41045  24591046.605 1  96500612.233 1        23.400
 17  4 10  0 23 30.0000000  0 11G01G32G08G28G17G14G03G11G22G27G10
  20491955.219 9 107685968.051 9        54.500    20491961.988 9  83911195.48149
        48.100    20491961.87949  20491957.746 7  80414878.332 7        41.800
  22380981.188 8 117612872.361 8        47.900    22380987.703 8  91646417.48249
        38.400    22380986.73449  22380983.137 5  87827821.964 5        36.400
  21812799.133 9 114627051.524 9        49.700    21812806.727 9  89319819.36649
        42.100    21812805.69149  21812802.301 6  85598152.436 6        38.600
  23529665.391 7 123649225.859 7        41.800                    96350058.70747
        26.000    23529669.10947
  25084613.563 7 131820529.138 7        43.500    25084616.262 5 102717311.30146
        22.900    25084614.87146
  21929358.633 9 115239569.545 9        48.600                    89797085.90849
        37.200    21929361.96549
  22163113.664 9 116467958.961 9        50.300    22163120.852 8  90754279.96649
        39.600    22163119.97749  22163118.059 5  86972845.465 5        37.200
  20003562.531 9 105119460.414 9        48.100                    81911290.31349
        44.500    20003565.35549
  20767479.336 9 109133822.980 9        51.300                    85039387.29749
        44.700    20767480.43049
  24574435.117 6 129139555.195 6        40.800    24574442.160 7 100628268.73147
        28.200    24574441.46547  24574437.859 1  96435417.354 1        28.900
  24610307.398 1 129328087.46711        29.400    24610314.063 5 100775171.97355
        15.600    24610313.14145  24610307.691 1  96576196.46211        22.600
 17  4 10  0 24  0.0000000  0 11G01G32G08G28G17G14G03G11G22G27G10
  20485275.570 9 107650866.412 9        53.200    20485282.539 9  83883843.56249
        48.300    20485282.26649  20485278.367 7  80388666.080 7        42.300
  22387981.305 9 117649659.690 9        48.400    22387987.570 8  91675082.96049
        37.800    22387986.94949  22387983.172 5  87855293.054 5        35.500
  21829031.563 9 114712352.618 9        49.900    21829038.949 9  89386287.74249
        42.400    21829038.16849  21829034.895 6  85661851.303 6        38.900
  23533067.109 7 123667100.587 7        43.600                    96363987.06247
        27.900    23533070.28547
  25065166.023 5 131718351.502 5        35.200    25065173.813 6 102637692.46346
        20.100    25065171.73046
  21926921.297 9 115226762.247 9        48.100                    89787106.20549
        36.700    21926925.10549
  22147564.336 9 116386246.579 9        49.900    22147571.066 8  90690607.99349
        40.800    22147569.95749  22147568.563 5  86911826.492 5        37.600
  20003018.008 9 105116597.746 9        48.200                    81909059.66249
        44.500    20003021.01249
  20760118.539 9 109095142.108 9        52.100                    85009246.37249
        44.900    20760119.92249
  24596254.336 6 129254214.866 6        40.600    24596260.652 7 100717613.92747
        27.700    24596260.01247  24596257.230 1  96521039.835 1        30.400
  24629574.078 1 129429340.383 1        29.400    24629580.859 5 100854070.29144
        14.800    24629580.75844  24629575.426 1  96651807.393 1        24.000
 17  4 10  0 24 30.0000000  0 11G01G32G08G28G17G14G03G11G22G27G10
  20478659.883 9 107616101.530 9        53.600    20478666.965 9  83856754.04649
        48.100    20478666.77049  20478662.809 7  80362705.296 7        42.300
  22395089.273 9 117687012.203 9        48.300    22395095.270 8  91704188.83949
        37.300    22395094.52749  22395090.813 5  87883186.190 5        36.100
  21845334.797 9 114798027.724 9        49.800    21845342.125 9  89453047.55949
        41.800    21845341.29749  21845338.086 6  85725829.458 6        38.800
  23536563.820 7 123685474.588 7        42.200                    96378304.44847
        28.000    23536566.46147
  25045748.258 7 131616289.649 7        43.900    25045751.930 6 102558163.82547
        27.900    25045751.58247
  21924592.039 8 115214520.808 8        47.600                    89777567.43449
        36.900    21924595.25049
  22132070.797 9 116304828.913 9        50.500    22132077.973 8  90627165.65049
        40.000    22132076.70749  22132075.141 5  86851027.586 5        37.100
  20002574.523 9 105114266.586 9        48.200                    81907243.16849
        44.700    20002576.92249
  20752830.695 9 109056844.007 9        50.500                    84979403.70249
        44.800    20752831.78949
  24618085.844 6 129368938.651 6        40.800    24618091.520 6 100807009.04647
        25.600    24618091.22747  24618088.500 2  96606710.142 2        31.200
  24648850.297 3 129530627.423 3        32.000    24648854.496 5 100932995.31045
        15.600    24648855.19545  24648849.863 1  96727443.880 1        24.600
 17  4 10  0 25  0.0000000  0 11G01G32G08G28G17G14G03G11G22G27G10
  20472108.734 9 107581674.384 9        54.200    20472115.828 9  83829927.69549
        48.500    20472115.28549  20472111.617 7  80336996.712 7        42.400
  22402304.453 9 117724928.482 9        48.800    22402311.063 8  91733734.02149
        38.000    22402310.32849  22402306.730 5  87911500.319 5        36.600
  21861708.984 9 114884074.969 9        49.400    21861716.477 9  89520097.35849
        42.200    21861715.30549  21861712.148 6  85790085.516 6        38.000
  23540154.883 7 123704346.758 7        42.300                    96393010.00847
        28.200    23540158.10547
  25026347.805 7 131514345.716 7        41.100    25026352.336 5 102478726.93646
        22.300    25026351.32846
  21922370.250 9 115202845.544 9        48.600                    89768469.84749
        37.300    21922373.64549
  22116633.836 9 116223706.962 9        50.800    22116640.828 8  90563953.74949
        40.300    22116640.00049  22116638.492 5  86790449.520 5        37.200
  20002231.750 9 105112467.348 9        48.100                    81905841.16149
        44.900    20002234.62549
  20745615.961 9 109018928.689 9        51.100                    84949859.30349
        44.900    20745616.77749
  24639928.531 6 129483724.166 6        40.900    24639935.059 6 100896452.35447
        27.200    24639933.75047  24639930.910 1  96692426.615 1        30.100
  24668130.172 1 129631947.269 1        28.300    24668135.027 3 101011942.92013
        33.100                    24668131.168 1  96803104.788 1        24.700
 17  4 10  0 25 30.0000000  0 10G01G32G08G28G17G14G03G11G22G27
  20465622.031 9 107547586.077 9        53.200    20465628.762 9  83803365.38049
        48.300    20465628.44549  20465624.430 7  80311541.157 7        42.300
  22409626.828 9 117763407.364 9        49.300    22409633.395 8  91763717.59349
        38.000    22409632.78549  22409629.359 5  87940234.578 5        36.000
  21878153.711 9 114970492.057 9        50.000    21878160.949 9  89587435.34949
        41.800    21878159.48449  21878156.270 5  85854617.760 5        37.900
  23543841.063 7 123723716.191 7        42.200                    96408103.02747
        27.400    23543843.43847
  25006972.047 7 131412522.015 7        42.300    25006974.348 5 102399383.78346
        22.500    25006973.27746
  21920256.039 8 115191737.150 8        47.600                    89759813.98249
        37.500    21920259.56349
  22101253.234 9 116142881.990 9        50.900    22101260.641 8  90500973.25449
        40.600    22101259.70749  22101257.965 5  86730093.210 5        37.200
  20001990.875 9 105111201.066 9        48.400                    81904854.44349
        44.700    20001993.98449
  20738473.469 9 108981396.431 9        50.100                    84920613.40649
        45.200    20738474.32049
  24661782.180 6 129598569.544 6        40.700    24661790.035 7 100985942.23747
        26.300    24661789.31347  24661785.477 1  96778187.791 1        29.100
 17  4 10  0 26  0.0000000  0 10G01G32G08G28G17G14G03G11G22G27
  20459199.820 9 107513837.274 9        53.900    20459207.125 9  83777067.61449
        48.500    20459206.69549  20459202.797 7  80286339.125 7        42.400
  22417055.617 9 117802447.250 9        48.600    22417062.293 8  91794138.29849
        37.500    22417061.55149  22417058.129 5  87969387.762 5        36.300
  21894668.445 9 115057277.041 9        49.800    21894675.844 9  89655060.01649
        42.000    21894674.96549  21894671.574 6  85919424.737 6        38.400
  23547621.203 7 123743581.533 7        42.400                    96423582.45947
        27.100    23547624.94547
  24987619.570 7 131310820.626 7        43.000    24987622.289 6 102320135.94847
        27.900    24987621.53947
  21918250.477 9 115181195.874 9        48.000                    89751600.01149
        38.000    21918253.97749
  22085929.625 9 116062354.630 9        51.500    22085936.465 9  90438224.66949
        40.500    22085935.69149  22085934.414 5  86669959.147 5        37.600
  20001851.266 9 105110467.793 9        48.200                    81904283.05849
        44.500    20001854.16849
  20731404.398 9 108944247.314 9        51.500                    84891666.06549
        45.300    20731405.31649
  24683647.758 6 129713472.344 6        40.600    24683654.656 7 101075476.87647
        26.700    24683654.27747  24683651.316 2  96863991.833 2        31.500
 17  4 10  0 26 30.0000000  0 11G01G32G08G28G17G14G03G11G22G27G10
  20452842.477 9 107480428.858 9        54.500    20452849.703 9  83751035.08149
        48.500    20452849.24649  20452844.875 7  80261391.290 7        41.800
  22424591.156 9 117842046.711 9        49.200    22424597.938 8  91824995.03249
        37.400    22424596.91049  22424593.898 5  87998958.799 5        36.300
  21911252.367 9 115144427.298 9        49.100    21911259.922 9  89722969.30949
        41.800    21911259.18849  21911255.859 6  85984504.474 6        38.500
  23551494.844 7 123763941.734 7        41.900                    96439447.48547
        26.900    23551498.24247
  24968288.750 6 131209243.918 6        40.700    24968292.383 6 102240985.30046
        23.300    24968291.86746
  21916352.508 9 115171222.382 9        48.600                    89743828.48449
        38.100    21916356.08249
  22070662.125 9 115982125.949 9        51.700    22070669.008 8  90375708.80349
        39.800    22070668.29349  22070667.137 6  86610048.116 6        38.400
  20001813.656 9 105110268.378 9        48.200                    81904127.66849
        44.900    20001816.44149
  20724408.297 9 108907481.328 9        51.400                    84863017.24449
        45.400    20724408.93849
  24705522.586 6 129828430.476 6        39.300    24705530.063 6 101165054.64847
        26.400    24705529.68047  24705526.898 1  96949837.170 1        30.100
  24726005.383 1                        30.300

 17  4 10  0 27  0.0000000  0 11G01G32G08G28G17G14G03G11G22G27G10
  20446549.945 9 107447362.051 9        53.400    20446556.871 9  83725268.73549
        48.700    20446556.71549  20446552.520 7  80236698.539 7        42.100
  22432233.023 9 117882204.512 9        48.600    22432239.352 8  91856286.82849
        37.700    22432238.64549  22432235.398 5  88028946.777 5        36.500
  21927905.336 9 115231941.155 9        49.000    21927913.543 9  89791161.91249
        41.800    21927912.71549  21927909.324 6  86049855.719 6        38.600
  23555464.188 7 123784796.056 7        41.600                    96455697.58347
        27.000    23555466.96947
  24948984.578 7 131107794.480 7        44.100    24948986.227 4 102161933.79046
        22.800    24948985.11746
  21914562.914 8 115161816.968 8        47.600                    89736499.60749
        37.400    21914565.97349
  22055452.484 9 115902197.132 9        52.000    22055459.602 8  90313426.60749
        41.100    22055458.86749  22055457.125 6  86550361.020 6        38.400
  20001877.141 9 105110603.606 9        48.400                    81904388.88149
        44.300    20001880.07849
  20717484.680 9 108871098.860 9        50.300                    84834667.27549
        45.100    20717485.64849
  24727408.797 6 129943441.992 6        39.400    24727416.758 7 101254674.01647
        26.300    24727416.22747  24727412.035 1  97035722.396 1        29.800
  24745306.227 1 130037531.44611        29.600    24745315.027 3 101327929.30813
        33.600
 17  4 10  0 27 30.0000000  0 11G01G32G08G28G17G14G03G11G22G27G10
  20440322.828 9 107414637.583 9        54.600    20440329.949 9  83699769.15549
        48.700    20440329.49649  20440325.480 7  80212261.442 7        42.600
  22439980.766 9 117922919.106 9        48.800    22439987.277 8  91888012.49249
        37.900    22439986.20749  22439982.902 5  88059350.543 5        35.700
  21944628.102 9 115319816.458 9        49.100    21944635.133 9  89859636.17349
        41.700    21944633.99649  21944630.844 6  86115476.887 6        38.400
  23559526.156 7 123806142.915 7        41.000                    96472331.49447
        26.200    23559529.60547
  24929704.523 7 131006474.402 7        44.200    24929707.449 6 102082983.04847
        25.800    24929707.12147
  21912881.211 8 115152980.154 8        47.900                    89729613.79849
        37.600    21912884.24249
  22040300.117 9 115822569.039 9        51.700    22040307.094 9  90251378.76149
        41.000    22040306.23449  22040304.078 6  86490898.506 6        38.000
  20002042.906 9 105111473.922 9        48.400                    81905067.04749
        44.400    20002045.88349
  20710634.523 9 108835099.754 9        51.800                    84806616.04949
        45.200    20710635.43849
  24749305.570 7 130058504.629 7        41.100    24749313.020 7 101344333.22547
        27.500    24749312.15647  24749308.609 1  97121645.825 1        28.500
  24764617.289 4 130138994.47814        34.200    24764624.238 2 101406991.36612
        31.600
 17  4 10  0 28  0.0000000  0 11G01G32G08G28G17G14G03G11G22G27G10
  20434160.852 9 107382256.323 9        53.500    20434167.910 9  83674537.00049
        48.700    20434167.63749  20434163.738 7  80188080.633 7        42.200
  22447834.039 9 117964188.940 9        48.900    22447840.078 8  91920170.81049
        37.700    22447839.55949  22447835.961 5  88090168.933 5        36.300
  21961418.563 9 115408050.923 9        49.100    21961425.688 9  89928390.30849
        41.800    21961424.62549  21961421.469 6  86181366.270 6        38.500
  23563681.984 7 123827981.095 7        41.800                    96489348.23347
        27.500    23563685.03947
  24910446.867 6 130905285.835 6        40.200    24910451.547 6 102004134.83147
        26.100    24910450.89847
  21911307.398 8 115144712.121 8        47.000                    89723171.18149
        37.700    21911311.12949
  22025204.602 9 115743242.530 9        50.800    22025211.320 9  90189565.90849
        40.900    22025210.68449  22025208.586 5  86431661.176 5        37.600
  20002310.641 9 105112879.536 9        48.000                    81906162.33249
        44.800    20002313.12549
  20703856.961 9 108799484.150 9        50.300                    84778863.63849
        45.300    20703857.84049
  24771209.961 6 130173616.144 6        40.000    24771217.086 6 101434030.46846
        24.800    24771216.72346  24771213.938 1  97207605.697 1        30.400
  24783929.609 6 130240481.730 6        38.000    24783935.094 1 101486072.379 1
        28.900
 17  4 10  0 28 30.0000000  0 11G01G32G08G28G17G14G03G11G22G27G10
  20428064.266 9 107350219.236 9        53.900    20428071.410 9  83649573.03549
        48.800    20428071.00049  20428067.043 7  80164156.833 7        42.000
  22455793.016 9 118006012.637 9        48.800    22455799.289 8  91952760.71949
        36.800    22455798.69149  22455794.801 5  88121400.926 5        35.500
  21978276.313 9 115496642.205 9        48.600    21978284.273 9  89997422.47549
        40.800    21978282.89849  21978279.742 5  86247522.095 5        37.900
  23567930.563 7 123850309.386 7        41.600                    96506746.85847
        25.700    23567934.39847
  24891216.344 6 130804231.143 6        40.800    24891220.441 5 101925390.89646
        23.000    24891219.65246
  21909842.438 9 115137013.293 9        48.300                    89717172.11349
        37.500    21909845.86349
  22010166.602 9 115664218.652 9        50.900    22010173.820 9  90127988.87649
        41.400    22010173.10949  22010170.777 6  86372649.859 6        38.300
  20002679.813 9 105114821.146 9        48.200                    81907675.27649
        44.600    20002682.59849
  20697152.570 9 108764251.983 9        51.700                    84751410.00949
        45.400    20697153.41449
  24793124.094 6 130288774.511 6        39.400    24793130.922 6 101523764.29646
        24.200    24793130.12546  24793127.227 1  97293600.579 1        29.700
  24803246.359 5 130341992.056 5        37.500    24803252.336 2 101565171.459 2
        31.400
 17  4 10  0 29  0.0000000  0 11G01G32G08G28G17G14G03G11G22G27G10
  20422033.555 9 107318527.356 9        53.600    20422040.484 9  83624878.05749
        48.900    20422040.04349  20422035.789 7  80140490.809 7        43.200
  22463856.656 9 118048388.801 9        48.600    22463863.094 8  91985781.11249
        37.400    22463862.53149  22463858.754 5  88153045.469 5        35.700
  21995202.953 9 115585588.634 9        48.800    21995210.148 9  90066731.37249
        41.100    21995209.13349  21995206.387 6  86313943.117 6        38.200
  23572272.688 7 123873126.657 7        41.800                    96524526.49947
        26.200    23572275.52047
  24872014.398 7 130703312.641 7        43.700    24872016.555 5 101846753.09446
        24.800    24872015.46546
  21908485.906 8 115129883.929 8        47.000                    89711616.77349
        37.400    21908489.39549
  21995186.688 9 115585498.442 9        50.600    21995193.922 9  90066648.44949
        40.600    21995193.13349  21995191.035 5  86313865.282 5        37.900
  20003151.102 9 105117299.501 9        49.600                    81909606.45749
        44.300    20003154.21949
  20690521.258 9 108729403.609 9        50.300                    84724255.44549
        45.600    20690522.14549
  24815046.328 6 130403977.679 6        40.200    24815053.098 7 101613532.98847
        26.700    24815053.11747  24815048.926 1  97379628.952 1        28.900
  24822567.484 5 130443524.089 5        35.200    24822573.766 3 101644294.18454
        14.800    24822574.86744
 17  4 10  0 29 30.0000000  0 11G01G32G08G28G17G14G03G11G22G27G10
  20416068.797 9 107287181.637 9        53.400    20416075.660 9  83600452.81449
        48.900    20416075.43849  20416071.422 7  80117083.283 7        42.600
  22472025.805 8 118091315.905 8        47.200    22472031.719 8  92019230.80849
        37.900    22472031.35549  22472027.172 5  88185101.431 5        36.000
  22012195.688 9 115674887.607 9        49.000    22012202.617 9  90136314.98449
        41.300    22012201.83649  22012198.504 5  86380627.417 5        37.700
  23576707.891 7 123896431.887 7        41.100                    96542686.38547
        27.100    23576710.89547
  24852834.016 6 130602532.769 6        40.900    24852840.008 6 101768223.33146
        23.400    24852839.25446
  21907237.992 8 115123324.633 8        47.000                    89706505.64649
        37.400    21907241.15249
  21980264.938 9 115507082.951 9        50.500    21980271.633 9  90005545.47249
        41.000    21980270.65249  21980269.027 5  86255308.256 5        37.900
  20003725.297 9 105120315.057 9        48.900                    81911956.24049
        44.900    20003728.15649
  20683962.570 9 108694939.141 9        50.300                    84697400.03049
        45.500    20683963.58649
  24836976.656 5 130519223.615 5        37.900    24836984.098 6 101703335.00746
        22.300    24836984.28146  24836980.563 1  97465689.206 1        29.300
  24841890.422 3 130545076.57213        33.200    24841897.168 2 101723425.93653
        13.900    24841898.21943
 17  4 10  0 30  0.0000000  0 11G01G32G08G28G17G14G03G11G22G27G10
  20410169.789 9 107256182.837 9        54.800    20410176.961 9  83576297.89549
        48.800    20410176.65249  20410172.750 7  80093934.816 7        43.000
  22480298.945 9 118134792.268 9        48.100    22480305.543 8  92053108.49749
        37.200    22480304.57849  22480300.863 5  88217567.550 5        36.000
  22029255.352 9 115764536.948 9        49.300    22029262.328 9  90206171.61049
        40.600    22029261.57849  22029258.422 5  86447573.355 5        37.600
  23581234.930 7 123920223.600 7        41.300                    96561225.38147
        26.900    23581238.28547
  24833683.594 7 130501893.743 7        41.700    24833688.203 6 101689803.32946
        23.500    24833687.77346
  21906098.281 8 115117335.699 8        46.800                    89701838.96549
        37.500    21906101.89849
  21965401.250 9 115428972.880 9        51.300    21965408.184 8  89944680.48349
        41.200    21965407.18849  21965405.383 5  86196979.312 5        37.300
  20004401.398 9 105123867.953 9        48.800                    81914724.73349
        44.500    20004404.19549
  20677477.273 9 108660858.286 9        50.300                    84670843.53349
        45.500    20677477.73849
  24858914.953 6 130634509.798 6        39.200    24858921.754 6 101793168.39446
        22.800    24858921.95346  24858918.117 1  97551779.534 1        30.800
  24861220.766 3 130646647.80313        33.700    24861224.863 1 101802565.42111
        29.700
 17  4 10  0 30 30.0000000  0 11G01G32G08G28G17G14G03G11G22G27G10
  20404337.195 9 107225531.963 9        53.500    20404344.391 9  83552414.09349
        49.000    20404343.95349  20404339.820 7  80071046.177 7        42.100
  22488676.641 8 118178816.420 8        47.600    22488682.910 8  92087413.05049
        36.600    22488681.85949  22488678.496 4  88250442.747 4        34.900
  22046381.375 9 115854534.586 9        48.800    22046388.609 9  90276299.63649
        40.700    22046387.76649  22046384.961 6  86514779.381 6        38.100
  23585854.914 7 123944500.650 7        41.600                    96580142.50547
        26.400    23585858.31347
  24814560.547 7 130401398.043 7        42.000    24814564.082 6 101611494.99646
        22.300    24814563.68046
  21905066.961 9 115111917.224 9        48.300                    89697616.78249
        37.600    21905070.48449
  21950595.625 9 115351169.267 9        50.600    21950602.504 9  89884054.29349
        40.600    21950601.49649  21950599.398 6  86138879.217 6        38.600
  20005180.156 9 105127958.961 9        49.900                    81917912.52949
        44.700    20005182.72349
  20671064.938 9 108627161.209 9        50.600                    84644586.08049
        45.400    20671065.75049
  24880860.875 6 130749834.415 6        39.700    24880867.551 6 101883031.79346
        23.900    24880867.16446  24880863.855 1  97637898.556 1        29.200
  24880551.523 2                        31.900

 17  4 10  0 31  0.0000000  0 11G01G32G08G28G17G14G03G11G22G27G10
  20398570.805 9 107195229.968 9        53.500    20398577.766 9  83528802.14049
        49.100    20398577.57849  20398573.563 7  80048418.058 7        42.600
  22497157.688 8 118223386.895 8        46.500    22497164.711 8  92122143.30249
        36.500    22497163.83649  22497160.527 5  88283725.905 5        35.500
  22063573.516 9 115944878.230 9        48.800    22063580.660 8  90346697.27749
        41.100    22063579.53149  22063576.672 6  86582243.784 6        38.700
  23590567.648 7 123969261.527 7        41.700                    96599436.67947
        26.900    23590570.03547
  24795465.195 7 130301047.815 7        43.500    24795467.930 5 101533300.03846
        22.900    24795467.22746
  21904144.563 8 115107069.276 8        47.500                    89693839.17649
        37.200    21904147.75849
  21935848.469 9 115273673.151 9        51.000    21935855.234 9  89823667.70649
        41.000    21935854.59049  21935852.906 6  86081008.729 6        38.400
  20006061.031 9 105132588.410 9        48.800                    81921519.88949
        44.300    20006063.60949
  20664725.617 9 108593848.022 9        50.500                    84618627.76049
        45.800    20664726.66049
  24902812.766 6 130865195.294 6        39.000    24902820.992 6 101972923.34047
        25.100    24902820.34447  24902815.918 1  97724044.718 1        28.600
  24899886.703 3 130849842.08313        32.300    24899892.641 4 101960898.63314
        34.700
 17  4 10  0 31 30.0000000  0 11G01G32G08G28G17G14G03G11G22G27G10
  20392870.992 9 107165277.591 9        53.900    20392878.266 9  83505462.62849
        49.100    20392878.13749  20392874.063 7  80026051.022 7        42.300
  22505742.781 8 118268501.835 8        47.100    22505749.266 8  92157297.80049
        36.600    22505748.37149  22505745.180 5  88317415.636 5        35.700
  22080830.617 9 116035565.662 9        49.200    22080837.887 9  90417362.81349
        40.200    22080837.01249  22080833.855 5  86649964.921 5        37.600
  23595370.602 7 123994504.940 7        41.500                    96619106.82947
        27.400    23595374.01647
  24776396.922 7 130200845.591 7        42.500    24776401.395 6 101455220.35047
        25.600    24776400.10247
  21903330.625 8 115102792.287 8        47.500                    89690506.46249
        37.000    21903333.85949
  21921160.359 9 115196485.258 9        51.700    21921167.258 9  89763521.29049
        40.900    21921166.18449  21921164.730 6  86023368.425 6        38.000
  20007044.477 9 105137756.619 9        50.900                    81925547.05549
        45.000    20007046.75049
  20658459.359 9 108560918.830 9        50.400                    84592968.65949
        45.600    20658460.29349
  24924772.031 6 130980590.131 6        39.000    24924778.598 6 102062841.38946
        22.300    24924778.32446  24924775.777 1  97810216.152 1        29.900
  24919223.703 1                        28.600

 17  4 10  0 32  0.0000000  0 11G01G32G08G28G17G14G03G11G22G27G10
  20387237.891 9 107135675.747 9        53.600    20387245.371 9  83482396.25549
        49.300    20387245.17249  20387241.156 7  80003945.741 7        43.000
  22514431.391 8 118314159.634 8        47.900    22514437.805 8  92192875.33349
        37.000    22514436.82449  22514433.695 5  88351510.769 5        36.000
  22098152.453 9 116126594.727 9        48.200    22098159.609 9  90488294.54449
        41.100    22098158.84449  22098155.453 5  86717941.168 5        37.200
  23600265.578 6 124020229.278 6        40.700                    96639151.76547
        27.400    23600269.24247
  24757356.891 6 130100793.869 6        38.900    24757361.633 6 101377258.01746
        22.600    24757361.68846
  21902625.578 8 115099086.659 8        47.300                    89687618.97149
        37.300    21902629.25049
  21906530.352 9 115119606.453 9        51.100    21906537.789 9  89703615.72549
        41.400    21906536.78949  21906535.164 6  85965958.922 6        38.400
  20008130.234 9 105143464.120 9        50.000                    81929994.45549
        44.400    20008133.26249
  20652266.109 9 108528373.377 9        50.500                    84567608.57149
        45.900    20652267.33649
  24946737.609 6 131096016.746 6        39.400    24946744.453 6 102152784.22046
        23.000    24946743.82446  24946740.574 1  97896411.361 1        29.500
  24938564.977 3 131053095.82613        33.400    24938570.441 5 102119278.10715
        36.400                    24938564.684 1  97864292.90011        25.600
 17  4 10  0 32 30.0000000  0 11G01G32G08G28G17G14G03G11G22G27G10
  20381671.891 9 107106425.424 9        55.300    20381679.492 9  83459603.79449
        49.200    20381678.95749  20381674.824 7  79982102.978 7        42.300
  22523222.969 8 118360358.771 8        47.500    22523228.965 8  92228874.67749
        37.000    22523228.15649  22523224.793 4  88386010.141 4        34.800
  22115539.344 9 116217963.075 9        48.300    22115546.914 9  90559490.65049
        40.200    22115545.85549  22115542.699 6  86786170.771 6        38.100
  23605251.797 7 124046433.655 7        41.600                    96659570.76047
        25.800    23605254.71147
  24738347.977 7 130000894.407 7        43.400    24738351.402 6 101299414.29347
        25.500    24738350.71547
  21902028.805 8 115095952.167 8        47.400                    89685176.52049
        37.700    21902032.25449
  21891959.531 9 115043037.757 9        50.500    21891966.996 9  89643951.79549
        40.600    21891966.25849  21891964.457 6  85908780.987 6        38.100
  20009319.164 9 105149711.248 9        50.700                    81934862.34349
        44.500    20009322.06649
  20646146.023 9 108496211.685 9        51.100                    84542547.51249
        45.700    20646146.91449
  24968707.602 6 131211473.136 6        38.900    24968714.844 6 102242750.26846
        22.900    24968713.37146  24968712.109 1  97982628.761 1        29.500
  24957908.711 3 131154741.832 3        33.500    24957913.445 5 102198469.70055
        17.400    24957911.97745  24957907.816 1  97940197.341 1        22.900
 17  4 10  0 33  0.0000000  0 11G01G32G08G28G17G14G03G11G22G27G10
  20376173.031 9 107077527.200 9        55.100    20376179.945 9  83437085.69449
        49.100    20376179.53549  20376175.402 7  79960523.128 7        43.100
  22532116.852 8 118407097.274 8        47.600    22532123.168 8  92265294.29749
        36.900    22532122.28949  22532118.809 5  88420912.281 5        36.000
  22132990.414 9 116309668.337 9        48.700    22132997.930 8  90630949.29149
        40.600    22132996.83249  22132993.559 6  86854651.972 6        38.100
  23610329.422 6 124073116.560 6        40.900                    96680362.61847
        26.600    23610332.69547
  24719367.406 7 129901149.675 7        44.500    24719370.758 6 101221691.09347
        25.800    24719370.21147
  21901540.930 8 115093388.743 8        46.800                    89683179.05949
        37.800    21901544.40649
  21877448.719 9 114966779.766 9        51.100    21877455.402 9  89584529.97949
        40.800    21877454.83249  21877453.320 6  85851835.082 6        38.400
  20010610.836 9 105156498.110 9        50.000                    81940150.79449
        44.400    20010613.56349
  20640098.914 9 108464433.422 9        50.600                    84517785.23749
        45.700    20640099.83649
  24990684.023 6 131326956.936 6        40.400    24990690.801 6 102332737.57847
        26.200    24990690.39547  24990686.320 1  98068866.673 1        27.000
  24977251.063 1 131256398.488 1        29.100    24977258.426 3 102277682.68744
        14.800    24977257.83244  24977252.793 1  98016109.850 1        24.300
 17  4 10  0 33 30.0000000  0 11G01G32G08G28G17G14G03G11G22G27G10
  20370741.008 9 107048982.491 9        55.400    20370747.926 9  83414843.06249
        49.200    20370747.58649  20370743.508 7  79939207.269 7        42.100
  22541113.250 9 118454374.004 9        48.100    22541119.523 8  92302133.31249
        36.500    22541118.85249  22541115.195 5  88456216.340 5        35.400
  22150505.375 9 116401708.822 9        48.400    22150512.715 8  90702669.14749
        39.900    22150511.73049  22150508.340 5  86923383.496 5        37.500
  23615498.234 7 124100276.376 7        41.300                    96701526.11447
        26.100    23615501.54347
  24700416.047 7 129801562.300 7        43.000    24700419.117 5 101144090.54346
        24.100    24700418.93046
  21901162.164 8 115091397.097 8        47.000                    89681627.14149
        37.600    21901165.85549
  21862996.805 9 114890833.876 9        51.500    21863003.402 9  89525351.35549
        41.600    21863002.63349  21863001.414 6  85795122.232 6        38.600
  20012005.109 9 105163825.793 9        49.900                    81945860.67249
        44.600    20012008.11749
  20634124.781 9 108433039.369 9        50.600                    84493322.33949
        46.000    20634126.30949
  25012663.625 6 131442466.361 6        39.300    25012670.891 5 102422744.90446
        22.300    25012670.72746  25012668.117 2  98155123.738 2        31.200
  24996599.031 3 131358064.979 3        32.600    24996603.699 2 102356903.34843
        13.900    24996604.23443  24996600.137 1  98092029.572 1        25.100
 17  4 10  0 34  0.0000000  0 11G01G32G08G28G17G14G03G11G22G27G10
  20365376.656 9 107020792.202 9        54.900    20365383.320 9  83392876.59349
        49.300    20365383.23049  20365379.270 7  79918156.070 7        42.300
  22550211.984 8 118502187.137 8        47.000    22550218.238 8  92339390.30849
        37.200    22550217.12949  22550213.820 5  88491920.956 5        35.500
  22168083.484 9 116494081.600 9        48.400    22168090.914 8  90774647.94049
        40.600    22168089.66049  22168086.563 5  86992363.175 5        37.500
  23620756.922 7 124127911.943 7        42.000                    96723060.33147
        25.200    23620760.32047
  24681495.617 7 129702134.782 7        43.200    24681498.961 6 101066614.58547
        25.700    24681498.82847
  21900891.719 8 115089977.262 8        47.000                    89680520.80149
        37.600    21900895.30949
  21848604.039 9 114815200.895 9        51.000    21848611.289 8  89466416.59049
        41.300    21848610.25849  21848608.980 6  85738643.086 6        38.700
  20013502.531 9 105171694.339 9        50.900                    81951991.99649
        44.800    20013505.45749
  20628223.914 9 108402029.464 9        50.900                    84469158.78249
        45.900    20628224.73049
  25034650.203 6 131557999.298 6        39.700    25034656.727 6 102512770.65446
        22.200    25034655.90246  25034653.234 1  98241398.302 1        30.200
  25015946.211 3 131459739.934 3        33.000    25015951.113 3 102436130.56455
        15.600    25015951.85945  25015947.996 1  98167955.626 1        25.600
 17  4 10  0 34 30.0000000  0 11G01G32G08G28G17G14G03G11G22G27G10
  20360079.656 9 106992956.738 9        54.600    20360086.664 9  83371186.61349
        49.300    20360086.36749  20360082.410 7  79897369.836 7        42.400
  22559411.680 8 118550534.684 8        47.200    22559417.922 8  92377063.72949
        36.900    22559417.05949  22559413.578 4  88528024.655 4        34.800
  22185723.922 8 116586784.816 8        47.800    22185731.840 9  90846884.20049
        39.900    22185730.75449  22185727.598 5  87061589.594 5        37.500
  23626106.523 7 124156021.333 7        41.800                    96744963.75247
        25.900    23626109.23047
  24662606.492 7 129602869.389 7        43.900    24662610.211 6 100989264.91447
        28.500    24662609.96147
  21900730.258 8 115089128.934 8        46.600                    89679859.79049
        37.500    21900734.08649
  21834271.047 9 114739881.357 9        51.100    21834278.371 8  89407726.04449
        41.400    21834277.57049  21834276.004 6  85682397.992 6        38.400
  20015102.773 9 105180103.559 9        49.400                    81958544.62049
        45.000    20015105.81649
  20622395.797 9 108371403.084 9        51.400                    84445294.08249
        45.900    20622396.52349
  25056638.836 6 131673553.334 6        38.600    25056645.699 6 102602812.70746
        24.000    25056645.52346  25056641.629 1  98327688.653 1        27.900
  25035296.742 2 131561421.799 2        31.800    25035302.297 4 102515363.15545
        15.600    25035302.06645  25035296.324 1  98243886.849 1        22.200
 17  4 10  0 35  0.0000000  0 11G01G32G08G28G17G14G03G11G22G27G10
  20354850.414 9 106965476.910 9        55.500    20354857.148 9  83349773.73949
        49.100    20354856.93449  20354852.918 7  79876849.166 7        42.500
  22568713.586 9 118599414.796 9        48.000    22568719.633 8  92415152.14449
        36.200    22568718.85949  22568715.379 4  88564526.049 4        34.800
  22203427.383 9 116679815.676 9        48.400    22203434.402 8  90919375.76149
        39.700    22203433.56649  22203430.527 5  87131060.671 5        37.100
  23631544.938 6 124184603.447 6        40.700                    96767235.48247
        27.400    23631548.06347
  24643747.875 7 129503768.182 7        43.400    24643751.184 6 100912043.21647
        25.900    24643751.63347
  21900677.617 8 115088852.158 8        46.800                    89679644.12849
        37.500    21900681.53149
  21819998.211 9 114664876.046 9        51.900    21820005.004 9  89349280.35949
        41.700    21820004.19949  21820002.223 6  85626387.543 6        38.400
  20016805.930 9 105189053.925 9        50.200                    81965518.92249
        44.500    20016808.69549
  20616640.461 9 108341159.796 9        51.300                    84421727.87849
        45.900    20616641.20749
  25078632.266 7 131789126.161 7        42.600    25078638.863 6 102692869.44146
        24.300    25078637.87946  25078634.449 1  98413993.033 1        27.700
  25054647.016 3 131663109.177 3        33.700    25054652.465 4 102594600.05144
        14.800    25054652.39144  25054646.184 1  98319822.291 1        22.600
 17  4 10  0 35 30.0000000  0 11G01G32G08G28G17G14G03G11G22G27G10
  20349688.953 9 106938353.940 9        54.900    20349695.859 9  83328638.94249
        49.300    20349695.49249  20349691.711 7  79856594.981 7        42.900
  22578116.023 8 118648825.993 8        47.700    22578122.316 8  92453654.38249
        36.000    22578121.66049  22578118.176 5  88601424.031 5        35.400
  22221192.781 9 116773172.274 9        48.100    22221199.453 8  90992121.16049
        39.900    22221198.41849  22221195.613 5  87200775.011 5        36.900
  23637073.648 6 124213656.752 6        40.600                    96789874.43147
        26.800    23637076.81647
  24624921.180 8 129404833.731 8        45.100    24624923.984 5 100834951.40747
        26.400    24624924.26647
  21900733.633 8 115089146.969 8        46.700                    89679873.87049
        37.300    21900737.13749
  21805785.039 9 114590186.041 9        51.300    21805792.098 9  89291080.34849
        42.500    21805791.23049  21805789.133 6  85570612.533 6        38.700
  20018612.148 9 105198545.946 9        50.000                    81972915.29549
        44.500    20018615.26249
  20610958.602 9 108311300.523 9        51.500                    84398460.91849
        46.000    20610959.69149
  25100626.883 6 131904715.849 6        38.100    25100634.484 6 102782939.31146
        21.500    25100633.88346  25100631.512 1  98500310.043 1        28.400
  25073998.922 4 131764800.987 4        34.300    25074004.078 3 102673840.44845
        16.300    25074003.75845  25073999.539 1  98395760.993 1        23.900
 17  4 10  0 36  0.0000000  0 11G01G32G08G28G17G14G03G11G22G27G10
  20344595.914 9 106911588.899 9        53.700    20344603.074 9  83307783.05149
        49.400    20344602.55949  20344598.660 7  79836608.079 7        42.400
  22587619.273 8 118698766.764 8        47.800    22587625.898 8  92492569.26549
        35.300    22587625.09849  22587621.848 5  88638717.468 5        35.300
  22239019.148 9 116866852.284 9        48.100    22239026.906 8  91065118.57749
        39.300    22239025.69549  22239022.070 5  87270730.867 5        36.600
  23642691.414 6 124243180.046 6        40.800                    96812879.58047
        26.400    23642695.06347
  24606126.344 7 129306068.510 7        43.200    24606130.375 6 100757991.47946
        24.600    24606130.62946
  21900898.586 8 115090013.822 8        46.900                    89680549.35849
        37.500    21900901.82449
  21791632.102 9 114515812.413 9        52.200    21791639.438 9  89233126.88649
        41.600    21791638.93449  21791637.016 6  85515073.789 6        38.300
  20020521.547 9 105208580.052 9        50.400                    81980734.07449
        45.000    20020524.68849
  20605349.633 9 108281825.085 9        50.500                    84375493.04049
        46.200    20605350.47349
  25122626.633 7 132020320.681 7        41.100    25122632.824 5 102873020.98646
        21.100    25122632.17646  25122630.215 2  98586638.278 2        31.500
  25093349.797 4 131866496.327 4        34.500    25093355.707 3 102753083.51943
        13.900    25093355.36743  25093351.914 1  98471702.266 1        24.700
 17  4 10  0 36 30.0000000  0 11G01G32G08G28G17G14G03G11G22G27G10
  20339570.859 9 106885182.261 9        53.800    20339578.043 9  83287206.44749
        49.300    20339577.53149  20339573.691 7  79816888.831 7        42.800
  22597223.391 8 118749234.859 8        47.200    22597229.543 8  92531895.06749
        36.000    22597228.77049  22597225.109 5  88676404.687 5        35.200
  22256906.367 8 116960853.279 8        47.700    22256914.766 8  91138366.09749
        39.200    22256913.70749  22256910.141 5  87340926.415 5        36.200
  23648399.180 7 124273171.458 7        41.400                    96836249.50847
        26.000    23648401.52047
  24587365.070 7 129207474.637 7        43.700    24587369.109 7 100681165.12547
        27.300    24587369.54747
  21901172.523 8 115091452.438 8        46.700                    89681670.36849
        37.300    21901175.79349
  21777539.688 9 114441755.651 9        52.300    21777546.887 9  89175420.33949
        42.100    21777546.07849  21777544.336 6  85459771.688 6        39.100
  20022534.547 9 105219156.299 9        50.000                    81988975.30449
        44.700    20022537.10549
  20599813.398 9 108252732.673 9        51.000                    84352823.64249
        46.200    20599814.17649
  25144627.305 5 132135937.934 5        37.700    25144634.516 6 102963112.41346
        22.200    25144633.45746  25144630.906 1  98672975.781 1        27.900
  25112703.164 4 131968193.42114        34.900    25112707.695 4 102832328.08154
        14.800    25112707.74244  25112702.766 1  98547644.91611        25.500
 17  4 10  0 37  0.0000000  0 11G01G32G08G28G17G14G03G11G22G27G10
  20334614.234 9 106859135.262 9        53.500    20334621.336 9  83266910.07449
        49.300    20334620.76249  20334617.039 7  79797438.136 7        43.100
  22606927.109 8 118800228.796 8        47.800    22606933.715 8  92571630.61249
        36.300    22606932.92649  22606929.445 4  88714484.589 4        34.900
  22274855.297 8 117055173.409 8        47.500    22274862.945 8  91211862.27849
        39.600    22274861.75449  22274858.539 5  87411360.267 5        36.600
  23654195.680 7 124303629.486 7        41.300                    96859983.03047
        26.000    23654197.98047
  24568636.227 7 129109054.771 7        42.300    24568639.730 6 100604474.30247
        26.400    24568639.52747
  21901554.844 8 115093462.718 8        46.600                    89683236.83649
        37.200    21901558.37149
  21763507.906 9 114368016.835 9        53.000    21763514.852 9  89117961.52949
        42.300    21763513.91049  21763512.164 6  85404707.007 6        39.200
  20024650.039 9 105230275.222 9        50.600                    81997639.39549
        44.400    20024652.91449
  20594350.281 9 108224024.056 9        50.500                    84330453.29549
        46.300    20594351.26649
  25166630.914 6 132251565.761 6        39.900    25166637.832 6 103053211.97146
        24.200    25166637.35246  25166633.277 1  98759321.328 1        22.800
  25132054.250 3 132069891.44813        32.800    25132061.031 5 102911600.23554
        14.800    25132062.80544  25132056.125 1  98623588.16711        26.400
 17  4 10  0 37 30.0000000  0 11G01G32G08G28G17G14G03G11G22G27G10
  20329726.328 9 106833448.578 9        53.700    20329733.285 9  83246894.47049
        49.500    20329732.83249  20329728.871 7  79778256.516 7        43.100
  22616730.703 9 118851746.626 9        48.100    22616736.848 8  92611774.38749
        36.800    22616736.11349  22616732.633 4  88752955.717 4        34.900
  22292864.219 9 117149810.008 9        48.000    22292871.133 8  91285605.08149
        38.900    22292870.37949  22292867.516 5  87482030.443 5        36.700
  23660079.680 7 124334552.515 7        41.700                    96884078.92747
        27.500    23660081.95747
  24549940.297 7 129010811.225 7        42.400    24549944.336 6 100527920.90646
        22.900    24549943.77346
  21902046.180 8 115096044.833 8        46.700                    89685248.88449
        37.100    21902049.95349
  21749536.492 9 114294596.782 9        52.200    21749543.188 9  89060751.10849
        41.800    21749542.31649  21749540.105 6  85349880.353 6        38.100
  20026868.969 9 105241936.835 9        50.600                    82006726.36049
        45.300    20026871.55949
  20588960.117 9 108195698.835 9        50.500                    84308381.70349
        46.300    20588961.12949
  25188635.141 5 132367202.100 5        37.800    25188641.648 5 103143318.16245
        19.600    25188641.48445  25188639.523 1  98845673.102 1        30.400
  25151408.195 4 132171588.81914        34.600    25151412.508 5 102990844.98155
        17.800    25151412.52345  25151408.426 1  98699530.95411        26.200
 17  4 10  0 38  0.0000000  0 10G01G32G08G28G17G14G03G11G22G27
  20324907.094 9 106808123.484 9        53.800    20324914.020 9  83227160.62749
        49.400    20324913.57849  20324909.680 7  79759344.918 7        42.800
  22626633.891 9 118903786.951 9        48.100    22626639.957 8  92652325.29449
        35.800    22626639.15249  22626635.672 5  88791817.000 5        35.500
  22310932.859 8 117244760.737 8        47.800    22310940.172 8  91359592.66449
        38.700    22310938.90249  22310935.984 5  87552935.200 5        37.100
  23666052.570 7 124365939.327 7        41.800                    96908536.15347
        26.700    23666055.97347
  24531280.141 7 128912746.977 7        43.800    24531283.930 6 100451507.21247
        27.400    24531283.55947
  21902646.508 8 115099198.880 8        46.700                    89687706.60049
        36.900    21902650.13349
  21735625.969 9 114221496.475 9        51.800    21735633.164 9  89003789.83049
        42.500    21735632.49649  21735630.223 6  85295292.456 6        38.300
  20029191.734 9 105254141.565 9        49.800                    82016236.53049
        44.500    20029194.24649
  20583643.305 9 108167757.518 9        50.500                    84286609.24649
        46.300    20583644.26649
  25210642.789 7 132482845.056 7        41.100    25210649.305 6 103233429.60747
        25.400    25210648.63347  25210644.797 1  98932029.839 1        30.500
 17  4 10  0 38 30.0000000  0 10G01G32G08G28G17G14G03G11G22G27
  20320156.852 9 106783160.465 9        55.200    20320163.852 9  83207708.91749
        49.500    20320163.12549  20320159.340 7  79740703.697 7        43.000
  22636635.469 9 118956347.434 9        48.400    22636641.785 8  92693281.52849
        35.600    22636640.93449  22636637.391 5  88831066.726 5        35.000
  22329060.563 8 117340023.389 8        47.900    22329067.508 8  91433823.30349
        38.800    22329066.35249  22329063.078 5  87624072.898 5        35.800
  23672113.867 7 124397788.218 7        42.100                    96933353.49947
        27.200    23672116.23447
  24512652.945 7 128814863.781 7        42.100    24512657.184 6 100375234.61546
        24.200    24512657.04346
  21903355.227 8 115102923.770 8        46.600                    89690609.12149
        37.500    21903358.54349
  21721775.930 9 114148716.420 9        53.000    21721783.426 9  88947078.12049
        42.400    21721782.40249  21721780.777 6  85240943.730 6        39.000
  20031617.563 9 105266889.217 9        50.400                    82026169.76549
        44.700    20031620.12949
  20578398.906 9 108140199.028 9        51.100                    84265135.11249
        46.600    20578399.83249
  25232649.227 6 132598492.062 6        39.200    25232655.859 6 103323544.20646
        22.800    25232654.88346  25232651.691 1  99018389.629 1        26.200
 17  4 10  0 39  0.0000000  0 11G01G32G08G28G17G14G03G11G22G27G10
  20315475.695 9 106758560.287 9        53.900    20315482.676 9  83188539.95149
        49.500    20315482.24649  20315478.465 7  79722333.440 7        43.100
  22646736.211 8 119009426.183 8        47.900    22646742.113 8  92734641.60249
        35.500    22646741.43849  22646738.309 5  88870703.460 5        35.600
  22347247.359 9 117435595.569 9        48.000    22347254.484 8  91508295.12249
        38.700    22347253.54349  22347250.152 5  87695441.728 5        36.800
  23678260.258 6 124430097.406 6        40.700                    96958529.49047
        25.900    23678264.75047
  24494061.906 7 128717163.813 7        43.700    24494065.898 7 100299104.78547
        27.000    24494066.03547
  21904172.977 8 115107219.980 8        46.900                    89693956.82849
        37.400    21904176.16449
  21707987.898 9 114076257.343 9        53.000    21707994.836 9  88890616.52549
        42.200    21707993.77749  21707992.559 6  85186834.709 6        38.500
  20034146.656 9 105280179.992 9        50.500                    82036526.21249
        44.700    20034149.27049
  20573227.664 9 108113023.501 9        50.700                    84243959.38449
        46.400    20573228.10949
  25254656.250 6 132714141.115 6        38.400    25254662.258 5 103413660.29946
        20.600    25254662.64846  25254659.750 1  99104750.949 1        28.000
  25209460.945 1 132476662.59811        28.000    25209467.273 5 103228541.66353
        13.900    25209464.80943  25209463.582 1  98927342.65211        26.700
 17  4 10  0 39 30.0000000  0 11G01G32G08G28G17G14G03G11G22G27G10
  20310863.188 9 106734323.792 9        55.000    20310870.801 9  83169654.36149
        49.800    20310870.30949  20310866.523 7  79704234.755 7        42.700
  22656934.953 8 119063021.266 8        47.000    22656941.066 8  92776404.01649
        35.800    22656940.27749  22656936.504 4  88910725.762 4        34.700
  22365492.305 8 117531474.678 8        47.600    22365499.652 8  91583006.11049
        38.300    22365498.90649  22365495.398 5  87767039.752 5        36.600
  23684497.875 7 124462864.972 7        42.100                    96984062.69047
        26.000    23684499.48047
  24475505.773 7 128619649.695 7        44.200    24475509.523 7 100223119.78147
        27.800    24475509.76647
  21905099.008 8 115112087.498 8        46.900                    89697749.71749
        37.100    21905102.61349
  21694260.344 9 114004120.053 9        51.900    21694267.246 9  88834405.66449
        42.100    21694266.34849  21694264.840 6  85132965.974 6        39.000
  20036779.086 9 105294013.650 9        50.400                    82047305.68349
        44.600    20036781.52749
  20568128.945 9 108086230.666 9        50.900                    84223081.84549
        46.400    20568129.94549
  25276663.672 6 132829789.777 6        39.900    25276671.246 6 103503776.17446
        22.800    25276670.47346  25276666.867 1  99191111.994 1        25.600
  25228810.203 1 132578345.62011        30.800    25228816.949 4 103307775.27854
        14.800    25228816.15244  25228812.168 1  99003274.79211        26.900
 17  4 10  0 40  0.0000000  0 10G01G32G08G28G17G14G03G11G22G10
  20306321.234 9 106710452.332 9        55.100    20306328.047 9  83151053.22849
        49.800    20306327.60549  20306323.707 7  79686408.667 7        42.700
  22667231.844 8 119117131.246 8        47.900    22667238.520 8  92818567.63749
        36.100    22667237.80549  22667233.617 3  88951132.581 3        33.800
  22383796.055 8 117627658.864 8        47.500    22383803.238 8  91657954.81749
        38.900    22383801.94949  22383798.969 5  87838865.602 5        37.000
  23690819.133 7 124496090.018 7        41.400                    97009952.32647
        25.300    23690821.69947
  24456986.242 7 128522324.787 7        44.100    24456988.133 6 100147282.13647
        26.900    24456987.58647
  21906133.945 8 115117526.231 8        46.700                    89701987.70049
        37.400    21906137.43049
  21680594.320 9 113932305.790 9        51.200    21680601.934 9  88778446.53949
        42.000    21680600.85249  21680599.398 6  85079338.492 6        38.800
  20039515.398 9 105308391.552 9        49.300                    82058509.23849
        44.600    20039518.00049
  20563103.789 9 108059820.804 9        50.900                    84202502.74449
        46.300    20563104.52749
  25248158.344 3 132680022.366 3        32.800    25248165.906 5 103387003.89245
        15.600    25248165.78945  25248160.105 1  99079202.262 1        26.000
 17  4 10  0 40 30.0000000  0  9G01G32G08G28G17G14G03G11G22
  20301847.750 9 106686946.865 9        55.700    20301854.813 9  83132737.28549
        49.600    20301854.52349  20301850.391 7  79668855.887 7        42.000
  22677626.508 8 119171754.340 8        46.600    22677632.500 8  92861131.08449
        35.700    22677631.80949  22677628.035 4  88991922.553 4        34.900
  22402156.766 8 117724145.953 8        47.500    22402164.238 8  91733139.55949
        38.600    22402163.05949  22402159.785 5  87910917.642 5        36.000
  23697228.523 7 124529770.750 7        41.000                    97036197.07447
        25.300    23697231.26247
  24438500.719 7 128425190.537 7        43.300    24438504.723 6 100071593.07147
        27.500    24438504.87147
  21907277.992 8 115123536.073 8        46.900                    89706670.70549
        37.600    21907281.51249
  21666990.359 9 113860815.407 9        52.200    21666997.012 9  88722739.78649
        42.500    21666995.93049  21666994.656 6  85025952.858 6        39.600
  20042354.594 9 105323313.538 9        50.200                    82070136.75949
        44.900    20042357.45749
  20558150.867 9 108033794.162 9        51.600                    84182222.23949
        46.700    20558151.47749
 17  4 10  0 41  0.0000000  0  9G01G32G08G28G17G14G03G11G22
  20297444.891 9 106663807.726 9        55.700    20297451.668 9  83114706.78649
        49.700    20297451.24249  20297447.227 7  79651576.661 7        42.700
  22688117.594 8 119226888.147 8        47.000    22688124.078 8  92904092.49749
        35.900    22688123.03949  22688119.617 5  89033093.907 5        35.000
  22420574.719 8 117820932.807 8        47.100    22420581.988 8  91808557.87849
        38.700    22420580.94949  22420577.617 5  87983193.541 5        36.200
  23703723.383 6 124563905.134 6        40.900                    97062795.27346
        24.900    23703726.41846
  24420053.984 7 128328249.711 7        44.700    24420057.199 6  99996054.82747
        27.200    24420057.34447
  21908529.695 8 115130116.223 8        46.500                    89711798.10249
        36.800    21908533.00049
  21653448.039 9 113789649.237 9        51.900    21653454.844 9  88667285.65649
        42.600    21653454.02749  21653452.813 6  84972809.327 6        39.400
  20045297.586 9 105338779.125 9        48.900                    82082187.85749
        44.500    20045300.63749
  20553270.813 9 108008150.046 9        50.900                    84162239.80649
        46.700    20553271.69949
 17  4 10  0 41 30.0000000  0  9G01G32G08G28G17G14G03G11G22
  20293111.391 9 106641036.064 9        54.100    20293118.301 9  83096962.64349
        49.600    20293117.75049  20293114.027 7  79634571.853 7        42.900
  22698706.148 8 119282530.937 8        46.900    22698712.559 8  92947450.50849
        35.700    22698711.58649  22698708.516 5  89074645.327 5        35.000
  22439049.539 8 117918017.448 8        47.100    22439056.695 8  91884208.24249
        38.400    22439055.66849  22439052.980 5  88055691.799 5        36.100
  23710305.234 6 124598491.645 6        40.800                    97089745.77447
        27.000    23710308.62147
  24401644.289 7 128231504.429 7        44.100    24401647.246 6  99920668.88947
        28.100    24401647.36347
  21909890.539 8 115137266.955 8        47.200                    89717370.10649
        36.900    21909894.04349
  21639967.273 9 113718808.298 9        51.700    21639974.430 9  88612084.97449
        42.200    21639973.59849  21639972.262 6  84919908.687 6        39.400
  20048344.203 9 105354788.854 9        49.300                    82094662.96849
        44.600    20048347.04349
  20548463.945 9 107982888.651 9        50.700                    84142555.60749
        46.600    20548464.71949
 17  4 10  0 42  0.0000000  0  9G01G32G08G28G17G14G03G11G22
  20288848.039 9 106618632.325 9        53.700    20288855.266 9  83079505.18149
        49.800    20288854.82849  20288850.867 7  79617841.789 7        42.500
  22709390.797 8 119338680.421 8        46.300    22709397.160 8  92991203.35749
        35.300    22709396.38749  22709393.141 5  89116575.131 5        35.100
  22457580.016 8 118015397.327 8        47.500    22457587.227 8  91960088.65949
        38.300    22457586.30149  22457583.438 5  88128410.526 5        35.800
  23716972.484 7 124633528.100 7        41.400                    97117046.94047
        26.100    23716975.51247
  24383271.672 7 128134957.377 7        43.400    24383274.938 6  99845437.39947
        27.300    24383275.02047
  21911359.672 8 115144987.430 8        46.800                    89723386.05849
        37.700    21911363.31349
  21626548.664 9 113648292.900 9        50.800    21626555.563 9  88557137.95849
        42.600    21626554.73449  21626553.285 6  84867251.144 6        39.500
  20051494.625 9 105371342.220 9        48.500                    82107561.68549
        44.800    20051497.04749
  20543729.398 9 107958009.236 9        50.700                    84123169.05449
        46.600    20543730.32049
 17  4 10  0 42 30.0000000  0  9G01G32G08G28G17G14G03G11G22
  20284655.031 9 106596597.710 9        55.700    20284662.617 9  83062335.34949
        49.800    20284662.09049  20284658.070 7  79601387.367 7        43.000
  22720172.039 8 119395334.918 8        47.000    22720178.273 8  93035349.71549
        35.700    22720177.26649  22720173.668 4  89158882.063 4        34.800
  22476166.789 8 118113070.064 8        47.400    22476174.094 8  92036197.29349
        37.900    22476172.83249  22476169.328 5  88201347.968 5        35.900
  23723725.805 7 124669013.130 7        41.600                    97144697.60747
        26.000    23723727.18447
  24364937.492 7 128038610.525 7        43.000    24364941.094 6  99770361.92647
        28.100    24364941.63747
  21912937.555 8 115153277.883 8        46.900                    89729846.15749
        38.100    21912941.03549
  21613192.320 9 113578104.142 9        51.300    21613198.820 9  88502445.44449
        43.000    21613198.36349  21613196.563 6  84814837.494 6        39.200
  20054747.969 9 105388439.442 9        48.500                    82120884.18649
        44.900    20054750.93049
  20539067.813 9 107933512.038 9        51.200                    84104080.33349
        46.800    20539068.72349
 17  4 10  0 43  0.0000000  0 10G01G32G08G28G17G14G03G11G22G23
  20280532.391 9 106574932.772 9        55.200    20280539.164 9  83045453.58849
        49.800    20280538.75449  20280534.914 7  79585209.006 7        42.800
  22731048.695 8 119452492.160 8        46.400    22731054.789 7  93079887.83149
        34.500    22731053.95349  22731050.469 4  89201564.424 4        34.100
  22494808.156 8 118211033.366 8        47.300    22494816.211 8  92112532.32349
        38.300    22494815.11749  22494811.609 5  88274502.382 5        35.500
  23730562.492 6 124704945.121 6        40.800                    97172696.56947
        27.000    23730566.20747
  24346641.867 7 127942466.579 7        43.300    24346645.719 6  99695444.58847
        28.600    24346646.07447
  21914623.234 8 115162137.528 8        46.400                    89736749.77849
        37.300    21914626.82449
  21599897.883 9 113508242.544 9        51.500    21599904.895 9  88448007.85649
        43.000    21599903.77749  21599902.094 6  84762668.145 6        38.800
  20058104.672 9 105406080.727 9        48.400                    82134630.63849
        45.000    20058107.36349
  20534478.773 9 107909396.690 9        51.100                    84085289.15049
        46.900    20534479.55949
  25369187.289 5 133315976.66615        37.300                   103882581.47155
        19.000    25369187.89845
 17  4 10  0 43 30.0000000  0 10G01G32G08G28G17G14G03G11G22G23
  20276480.164 9 106553638.570 9        53.700    20276487.332 9  83028860.69549
        49.800    20276487.02749  20276483.012 7  79569307.493 7        42.700
  22742020.656 8 119510150.381 8        46.600    22742027.297 8  93124816.31849
        35.200    22742026.55549  22742022.957 3  89244620.891 3        33.500
  22513505.133 8 118309284.984 8        47.000    22513512.684 8  92189092.02349
        37.700    22513511.50049  22513508.578 5  88347872.091 5        35.700
  23737484.758 7 124741322.117 7        41.200                    97201042.25047
        26.300    23737487.56347
  24328385.750 7 127846528.028 7        44.400    24328389.637 6  99620687.27947
        27.700    24328388.87547
  21916417.258 8 115171566.089 8        47.100                    89744096.72049
        37.200    21916420.68449
  21586666.109 9 113438708.982 9        51.900    21586673.133 9  88393825.86349
        43.800    21586672.46949  21586670.547 6  84710743.729 6        39.000
  20061565.484 9 105424265.901 9        48.800                    82148800.89849
        44.500    20061568.32849
  20529962.328 9 107885663.045 9        50.700                    84066795.39749
        46.800    20529962.97749
  25348718.883 5 133208416.334 5        37.100                   103798768.26245
        18.600    25348720.09045
 17  4 10  0 44  0.0000000  0 10G01G32G08G28G17G14G03G11G22G23
  20272498.867 9 106532715.952 9        53.700    20272505.691 9  83012557.35749
        49.800    20272505.52049  20272501.504 7  79553683.462 7        42.900
  22753087.656 8 119568307.562 8        45.500    22753093.742 7  93170133.60449
        34.600    22753093.35549  22753089.172 4  89288049.955 4        34.500
  22532256.109 8 118407822.286 8        46.600    22532263.125 8  92265874.32449
        37.300    22532262.32049  22532259.047 5  88421455.131 5        35.900
  23744492.273 7 124778142.372 7        41.300                    97229733.37147
        25.900    23744494.75847
  24310167.844 7 127750797.444 7        43.300    24310171.883 6  99546092.02947
        28.200    24310171.67247
  21918320.047 8 115181563.542 8        46.900                    89751886.96649
        37.600    21918322.83249
  21573496.805 9 113369504.257 9        51.300    21573503.715 9  88339900.11649
        43.400    21573502.86349  21573501.293 6  84659064.891 6        39.000
  20065129.313 9 105442995.275 9        48.500                    82163395.21049
        44.900    20065132.10249
  20525518.750 9 107862310.858 9        50.700                    84048598.89649
        47.000    20525519.50449
  25328244.859 5 133100826.331 5        37.700                   103714931.85545
        17.400    25328245.98445
 17  4 10  0 44 30.0000000  0 10G01G32G08G28G17G14G03G11G22G23
  20268588.133 9 106512165.580 9        55.300    20268595.551 9  82996544.07749
        49.800    20268595.27749  20268591.199 7  79538337.404 7        42.900
  22764248.820 8 119626961.520 8        46.500    22764255.875 8  93215838.00149
        34.600    22764255.13749  22764251.129 4  89331849.998 4        34.700
  22551061.000 8 118506642.626 8        46.400    22551068.570 8  92342877.17749
        37.800    22551067.49249  22551063.984 5  88495249.533 5        36.200
  23751583.008 7 124815403.836 7        41.800                    97258768.27647
        25.800    23751585.81647
  24291991.891 7 127655277.699 7        43.800    24291995.250 6  99471661.03047
        27.900    24291995.34847
  21920330.414 8 115192129.227 8        46.500                    89760119.96649
        36.500    21920333.60249
  21560390.555 9 113300628.972 9        51.600    21560397.676 9  88286231.11449
        43.400    21560396.67649  21560394.934 6  84607632.108 6        39.500
  20068797.109 9 105462268.710 9        49.100                    82178413.46749
        44.800    20068799.82849
  20521147.391 9 107839339.655 9        52.000                    84030699.26349
        46.900    20521148.37949
  25307765.930 5 132993208.231 5        35.400                   103631073.56445
        16.300    25307767.30145
 17  4 10  0 45  0.0000000  0 10G01G32G08G28G17G14G03G11G22G23
  20264748.516 9 106491988.544 9        55.300    20264755.609 9  82980821.70749
        49.800    20264755.18849  20264751.172 7  79523270.134 7        42.900
  22775504.875 8 119686110.402 8        45.800    22775510.973 8  93261928.03549
        35.000    22775510.44549  22775506.379 4  89376019.619 4        34.300
  22569919.727 8 118605743.868 8        47.300    22569926.496 8  92420098.92049
        37.600    22569925.63749  22569922.484 5  88569253.703 5        36.000
  23758756.727 7 124853105.149 7        41.100                    97288145.88047
        26.000    23758760.02347
  24273854.758 7 127559970.463 7        43.100    24273858.398 6  99397395.64447
        28.700    24273858.87547
  21922449.188 8 115203262.902 8        47.200                    89768795.56049
        36.900    21922453.05549
  21547346.773 9 113232083.997 9        51.900    21547353.313 9  88232819.46649
        43.200    21547352.85549  21547350.820 6  84556445.952 6        39.200
  20072567.883 9 105482085.883 9        48.800                    82193855.41849
        44.400    20072570.51249
  20516848.914 9 107816750.140 9        52.100                    84013097.05149
        46.900    20516849.32849
  25287282.609 6 132885564.671 6        38.400                   103547195.40946
        20.100    25287284.31646
 17  4 10  0 45 30.0000000  0 10G01G32G08G28G17G14G03G11G22G23
  20260980.172 9 106472185.636 9        54.100    20260987.223 9  82965390.86549
        49.800    20260987.00449  20260982.988 7  79508482.240 7        42.800
  22786854.695 8 119745752.163 8        46.600    22786860.250 8  93308402.12549
        34.500    22786859.53549  22786856.289 4  89420557.289 4        34.300
  22588830.906 8 118705123.714 8        47.000    22588837.852 8  92497537.76349
        37.100    22588836.77749  22588834.031 5  88643465.916 5        35.700
  23766014.648 7 124891244.621 7        41.100                    97317864.90846
        24.500    23766017.05146
  24255759.734 7 127464878.338 7        43.000    24255763.918 7  99323297.88947
        28.500    24255763.72747
  21924675.625 8 115214964.083 8        46.200                    89777913.37449
        36.400    21924678.94949
  21534365.852 9 113163870.039 9        50.900    21534372.727 9  88179665.74949
        43.400    21534372.07849  21534369.980 6  84505506.978 6        39.000
  20076442.883 9 105502447.736 9        48.600                    82209721.79249
        44.300    20076445.39849
  20512622.609 9 107794541.817 9        51.600                    83995791.86549
        46.900    20512623.65249
  25266794.352 6 132777897.867 6        38.700                   103463299.17946
        22.000    25266796.60546
 17  4 10  0 46  0.0000000  0 10G01G32G08G28G17G14G03G11G22G23
  20257283.250 9 106452757.655 9        54.300    20257289.949 9  82950252.18049
        50.000    20257289.61349  20257285.477 7  79493974.333 7        42.600
  22798297.102 8 119805884.680 8        46.600    22798303.066 7  93355258.63549
        34.600    22798302.41849  22798299.227 5  89465461.435 5        35.000
  22607794.391 8 118804779.597 8        46.500    22607801.754 8  92575191.69249
        37.100    22607800.61749  22607797.402 5  88717884.253 5        35.700
  23773354.680 6 124929820.143 6        40.400                    97347923.76947
        25.800    23773358.08247
  24237705.320 7 127370003.824 7        42.900    24237709.637 6  99249369.70247
        27.600    24237708.95747
  21927010.047 8 115227232.208 8        46.900                    89787472.95449
        37.100    21927013.43849
  21521448.195 9 113095987.767 9        51.200    21521454.984 9  88126770.50649
        43.200    21521454.07449  21521452.156 6  84454815.708 6        39.600
  20080420.938 9 105523353.219 9        49.500                    82226011.77349
        44.300    20080423.42249
  20508469.016 9 107772714.209 9        51.300                    83978783.32949
        47.000    20508469.87149
  25246301.031 5 132670209.609 5        37.700                   103379386.18845
        19.600    25246302.94945
 17  4 10  0 46 30.0000000  0 10G01G32G08G28G17G14G03G11G22G23
  20253657.820 9 106433705.520 9        55.000    20253664.621 9  82935406.36849
        49.800    20253664.16049  20253660.086 7  79479747.097 7        43.000
  22809832.805 8 119866505.962 8        45.700    22809839.035 8  93402495.99448
        33.800    22809837.84448  22809834.770 4  89510730.571 4        34.400
  22626810.195 8 118904709.171 8        46.500    22626818.609 8  92653058.87749
        37.300    22626817.44949  22626813.531 5  88792506.986 5        35.500
  23780778.398 6 124968829.603 6        40.600                    97378320.73046
        24.700    23780781.27746
  24219693.773 7 127275349.643 7        43.400    24219696.977 6  99175613.21647
        27.300    24219696.11747
  21929452.930 8 115240067.115 8        46.800                    89797474.18449
        36.800    21929456.39849
  21508594.328 9 113028437.949 9        51.400    21508600.813 9  88074134.32849
        43.500    21508600.00849  21508598.320 6  84404372.710 6        39.300
  20084502.688 9 105544802.691 9        49.100                    82242725.63949
        44.300    20084505.69549
  20504387.719 9 107751267.447 9        52.200                    83962071.56549
        47.000    20504388.07849
  25225804.766 6 132562502.232 6        38.300                   103295458.36846
        21.700    25225807.51646
 17  4 10  0 47  0.0000000  0 10G01G32G08G28G17G14G03G11G22G23
  20250103.945 9 106415029.838 9        54.600    20250110.578 9  82920853.88649
        49.700    20250110.27349  20250106.371 7  79465800.971 7        43.000
  22821461.086 8 119927613.719 8        45.100    22821467.680 8  93450112.43649
        34.600    22821467.09449  22821462.852 3  89556362.996 3        33.600
  22645877.656 8 119004909.847 8        46.300    22645885.363 8  92731137.31049
        36.800    22645884.45349  22645881.238 5  88867332.167 5        35.100
  23788284.086 6 125008271.347 6        40.400                    97409054.53846
        23.200    23788286.91046
  24201723.609 7 127180918.105 7        43.400    24201727.379 6  99102030.18547
        28.300    24201727.27047
  21932002.578 8 115253468.124 8        46.200                    89807916.52349
        36.800    21932006.66049
  21495803.180 9 112961221.119 9        52.100    21495809.770 9  88021757.60749
        43.600    21495808.89149  21495807.145 6  84354178.356 6        40.000
  20088687.766 9 105566795.980 9        49.200                    82259863.25749
        44.500    20088690.34849
  20500378.781 9 107730200.826 9        52.000                    83945656.01949
        47.200    20500379.64849
  25205306.000 5 132454777.960 5        37.600                   103211517.34846
        20.900    25205307.93846
 17  4 10  0 47 30.0000000  0 10G01G32G08G28G17G14G03G11G22G23
  20246621.781 9 106396731.510 9        54.600    20246629.078 9  82906595.44949
        49.900    20246628.60549  20246624.762 7  79452136.637 7        43.200
  22833181.820 8 119989205.933 8        45.700    22833188.160 8  93498106.36249
        34.400    22833187.34849  22833183.516 3  89602357.189 3        33.600
  22664996.680 8 119105379.523 8        46.300    22665003.898 8  92809425.36249
        36.800    22665002.98049  22665000.121 5  88942358.211 5        36.100
  23795871.391 7 125048143.049 7        41.000                    97440123.36146
        24.600    23795874.48846
  24183797.336 7 127086711.711 7        43.900    24183800.762 6  99028622.62347
        28.700    24183800.60247
  21934660.789 8 115267435.021 8        46.700                    89818799.81849
        37.400    21934663.99649
  21483075.438 9 112894338.025 9        52.700    21483082.340 9  87969640.94249
        43.800    21483081.34849  21483079.836 6  84304233.217 6        39.900
  20092976.664 9 105589332.865 9        49.800                    82277424.46849
        44.800    20092979.37149
  20496442.305 9 107709514.353 9        52.100                    83929536.69449
        47.300    20496443.45749
  25184804.703 5 132347038.790 5        37.900                   103127564.76345
        19.000    25184806.29745
 17  4 10  0 48  0.0000000  0 10G01G32G08G28G17G14G03G11G22G23
  20243211.602 9 106378811.318 9        53.900    20243218.828 9  82892631.66349
        50.000    20243218.33649  20243214.375 7  79438754.675 7        43.600
  22844994.406 8 120051280.413 8        45.200    22845000.363 8  93546476.08549
        34.600    22844999.57849  22844996.504 4  89648711.507 4        34.900
  22684166.531 8 119206115.303 8        46.900    22684173.375 8  92887920.78049
        35.700    22684171.90649  22684168.809 5  89017582.982 5        35.200
  23803539.930 6 125088443.404 6        40.900                    97471526.25547
        25.200    23803543.34447
  24165913.172 7 126992732.919 7        43.300    24165916.906 6  98955392.37647
        28.400    24165916.73847
  21937426.086 8 115281966.613 8        47.600                    89830123.14449
        37.300    21937429.01649
  21470411.609 9 112827789.250 9        51.900    21470418.254 9  87917784.76149
        43.400    21470417.31349  21470415.801 6  84254537.722 6        39.700
  20097368.547 9 105612413.079 9        50.300                    82295409.04049
        44.700    20097371.52349
  20492578.359 9 107689207.647 9        50.800                    83913713.30349
        47.200    20492579.02749
  25164299.984 6 132239286.847 6        39.700                   103043602.22646
        21.700    25164301.77746
 17  4 10  0 48 30.0000000  0 10G01G32G08G28G17G14G03G11G22G23
  20239873.500 9 106361269.978 9        55.400    20239880.844 9  82878963.07749
        50.100    20239880.33649  20239876.086 7  79425655.615 7        42.900
  22856898.391 8 120113834.961 8        46.000    22856904.406 7  93595219.90249
        34.500    22856903.20749  22856900.488 4  89695424.321 4        34.100
  22703386.203 8 119307114.771 8        46.700    22703393.176 8  92966621.66749
        37.200    22703392.16049  22703388.945 5  89093004.669 5        35.400
  23811290.547 7 125129170.153 7        41.000                    97503261.37647
        25.500    23811293.36347
  24148073.477 7 126898984.268 7        42.700    24148077.352 6  98882341.46847
        27.700    24148076.52047
  21940298.586 8 115297062.460 8        46.600                    89841886.14349
        36.600    21940301.81349
  21457811.438 9 112761575.437 9        52.800    21457818.637 9  87866189.62449
        43.500    21457817.50049  21457816.051 6  84205092.396 6        40.500
  20101864.008 9 105636036.276 9        50.000                    82313816.72349
        44.500    20101866.71149
  20488786.148 9 107669280.218 9        53.100                    83898185.43749
        47.200    20488786.93849
  25143792.242 5 132131524.547 5        37.500                   102959631.56346
        20.600    25143794.89546
 17  4 10  0 49  0.0000000  0 10G01G32G08G28G17G14G03G11G22G23
  20236608.047 9 106344108.587 9        55.500    20236614.813 9  82865590.56149
        50.100    20236614.54749  20236610.355 7  79412840.281 7        43.000
  22868892.797 8 120176867.696 8        45.700    22868898.602 7  93644336.32849
        34.100    22868897.90649  22868894.660 3  89742494.230 3        33.700
  22722654.945 8 119408375.886 8        46.000    22722662.699 8  93045526.42149
        36.100    22722661.64149  22722658.543 5  89168621.726 5        35.300
  23819122.336 7 125170321.434 7        41.500                    97535327.28347
        25.700    23819124.00047
  24130277.734 7 126805468.112 7        42.900    24130281.875 7  98809471.74047
        29.000    24130281.28547
  21943278.609 8 115312722.385 8        47.800                    89854088.70749
        37.200    21943282.00449
  21445275.406 9 112695697.496 9        52.200    21445282.375 9  87814856.19749
        43.300    21445281.55949  21445279.988 6  84155897.865 6        40.200
  20106462.539 9 105660203.007 9        50.000                    82332647.93949
        45.400    20106465.41049
  20485066.492 9 107649732.472 9        52.700                    83882953.43449
        47.300    20485067.03549
  25123284.906 5 132023753.999 5        37.300                   102875654.50645
        18.300    25123286.52345
 17  4 10  0 49 30.0000000  0 10G01G32G08G28G17G14G03G11G22G23
  20233414.602 9 106327327.612 9        54.200    20233421.949 9  82852514.47249
        50.000    20233421.59849  20233417.523 7  79400309.030 7        43.200
  22880978.164 7 120240376.142 7        44.700    22880984.395 8  93693823.42749
        34.100    22880983.82449  22880979.875 3  89789919.378 3        33.500
  22741973.922 8 119509895.987 8        45.800    22741980.605 8  93124632.98549
        35.900    22741979.46549  22741976.836 5  89244432.177 5        35.300
  23827032.281 6 125211895.308 6        40.200                    97567722.49447
        25.300    23827034.95347
  24112527.328 7 126712186.749 7        43.000    24112530.914 6  98736784.98147
        29.100    24112530.05147
  21946365.609 8 115328945.291 8        47.600                    89866729.95349
        37.600    21946368.99649
  21432803.313 9 112630155.744 9        51.200    21432810.000 9  87763784.72249
        43.700    21432808.90249  21432808.094 6  84106954.369 6        40.300
  20111165.164 9 105684912.498 9        50.300                    82351902.08649
        44.500    20111167.74649
  20481418.539 9 107630563.476 9        50.800                    83868016.56149
        47.300    20481419.49249
  25102775.828 6 131915977.16716        38.700                   102791672.57156
        21.100    25102777.27046
 17  4 10  0 50  0.0000000  0 10G01G32G08G28G17G14G03G11G22G23
  20230293.844 9 106310928.084 9        53.700    20230301.152 9  82839735.61449
        50.000    20230300.82849  20230296.695 7  79388062.628 7        42.900
  22893153.656 8 120304358.314 8        45.700    22893159.730 8  93743679.67948
        33.400    22893159.10248  22893155.270 4  89837698.292 4        34.600
  22761341.219 8 119611672.610 8        45.700    22761349.141 8  93203939.43949
        35.400    22761347.87149  22761344.656 4  89320434.185 4        34.900
  23835023.328 7 125253889.864 7        41.100                    97600445.50947
        26.000    23835026.09047
  24094821.828 7 126619143.470 7        44.000    24094825.207 6  98664283.70347
        28.200    24094824.25047
  21949559.891 8 115345730.857 8        46.800                    89879809.62249
        36.600    21949563.28149
  21420395.328 9 112564951.086 9        52.700    21420402.172 9  87712975.92549
        43.600    21420400.75849  21420400.125 6  84058262.617 6        40.600
  20115969.992 9 105710164.848 9        49.100                    82371579.23949
        44.500    20115973.05949
  20477842.727 9 107611773.419 9        50.800                    83853374.95449
        47.200    20477843.66449
  25082265.680 6 131808196.119 6        38.800                   102707687.37146
        20.600    25082266.94946
 17  4 10  0 50 30.0000000  0 10G01G32G08G28G17G14G03G11G22G23
  20227245.992 9 106294910.900 9        54.800    20227253.227 9  82827254.68949
        50.100    20227253.12149  20227248.930 7  79376101.735 7        43.100
  22905418.875 8 120368812.183 8        45.300    22905424.660 7  93793903.48648
        33.500    22905423.66048  22905420.707 4  89885829.434 4        34.400
  22780757.328 8 119713703.252 8        45.800    22780764.383 8  93283443.81849
        36.700    22780763.23049  22780760.016 5  89396625.897 5        35.200
  23843094.797 7 125296303.143 7        41.000                    97633494.80446
        23.200    23843097.64846
  24077161.844 7 126526340.021 7        43.400    24077165.617 6  98591969.34147
        29.100    24077165.75447
  21952860.781 8 115363078.760 8        46.700                    89893327.48149
        36.400    21952864.18849
  21408051.563 9 112500084.240 9        52.000    21408058.051 9  87662430.33449
        43.900    21408057.19949  21408056.039 6  84009823.107 6        40.200
  20120878.727 9 105735960.087 9        50.300                    82391679.42649
        44.500    20120881.62549
  20474339.469 9 107593362.212 9        53.000                    83839028.56049
        47.300    20474340.49649
  25061756.414 6 131700413.361 6        39.200                   102623700.87145
        19.600    25061756.63345
 17  4 10  0 51  0.0000000  0 10G01G32G08G28G17G14G03G11G22G23
  20224270.945 9 106279276.712 9        53.800    20224278.051 9  82815072.19749
        50.000    20224277.80149  20224273.605 7  79364426.852 7        43.200
  22917773.133 8 120433735.365 8        45.300    22917778.922 7  93844492.98848
        33.200    22917778.00048  22917775.102 4  89934311.027 4        34.000
  22800220.734 8 119815985.616 8        46.300    22800228.098 8  93363144.36449
        35.700    22800226.82449  22800223.902 4  89473005.581 4        34.700
  23851244.633 6 125339133.140 6        40.500                    97666868.80546
        23.300    23851248.74646
  24059547.922 7 126433778.778 7        43.800    24059551.609 6  98519843.70947
        29.600    24059551.77047
  21956268.875 9 115380988.076 9        48.100                    89907282.81249
        36.400    21956272.58649
  21395772.148 9 112435555.657 9        51.700    21395778.965 9  87612148.34249
        44.100    21395777.94949  21395776.203 6  83961636.193 6        40.300
  20125890.453 9 105762297.746 9        48.800                    82412202.26049
        44.500    20125893.65649
  20470907.508 9 107575329.201 9        50.900                    83824976.86549
        47.300    20470908.47349
  25041245.703 6 131592631.143 6        39.700                   102539714.73245
        19.900    25041246.97345
 17  4 10  0 51 30.0000000  0 10G01G32G08G28G17G14G03G11G22G23
  20221368.742 9 106264026.144 9        53.900    20221376.285 9  82803188.63849
        50.100    20221376.10549  20221371.797 7  79353038.433 7        43.000
  22930216.266 8 120499125.521 8        46.000    22930222.770 7  93895446.36948
        33.400    22930222.05948  22930218.520 4  89983141.339 4        34.100
  22819732.016 8 119918517.077 8        45.700    22819738.801 7  93443039.00549
        35.000    22819737.77049  22819735.023 4  89549571.273 4        34.700
  23859474.039 6 125382377.417 6        40.300                    97700565.65946
        24.600    23859477.59446
  24041980.430 7 126341462.376 7        44.000    24041984.281 7  98447908.85747
        29.700    24041984.59047
  21959783.820 8 115399457.948 8        46.800                    89921674.92149
        36.300    21959787.20749
  21383557.117 9 112371365.812 9        52.900    21383563.977 9  87562130.25949
        44.200    21383563.27049  21383561.410 6  83913702.194 6        40.000
  20131005.969 9 105789177.189 9        50.100                    82433147.27649
        44.500    20131008.44549
  20467548.109 9 107557673.657 9        50.900                    83811219.29049
        47.200    20467548.99249
  25020735.344 6 131484851.516 6        39.400                   102455730.61646
        21.100    25020736.27046
 17  4 10  0 52  0.0000000  0 10G01G32G08G28G17G14G03G11G22G23
  20218539.930 9 106249160.239 9        55.800    20218546.664 9  82791604.81249
        50.000    20218546.39149  20218542.316 7  79341937.267 7        43.000
  22942747.883 8 120564980.660 8        45.300    22942754.391 8  93946762.06649
        34.000    22942753.94949  22942749.590 3  90032318.889 3        33.600
  22839289.195 7 120021295.030 7        44.800    22839297.461 8  93523125.71149
        34.500    22839296.60549  22839292.805 4  89626321.034 4        34.900
  23867782.234 7 125426034.122 7        41.000                    97734583.87047
        25.300    23867785.19147
  24024460.938 7 126249393.801 7        43.400    24024463.805 6  98376167.12547
        28.700    24024463.02347
  21963405.180 9 115418487.715 9        48.700                    89936503.31449
        36.700    21963408.55549
  21371406.891 9 112307515.651 9        52.200    21371413.594 9  87512376.90049
        44.100    21371412.93449  21371410.953 6  83866021.887 6        40.400
  20136223.891 9 105816598.702 9        49.000                    82454514.67649
        44.500    20136226.93049
  20464260.031 9 107540395.862 9        52.500                    83797756.06949
        47.500    20464261.21149
  25000226.953 6 131377076.730 6        39.500                   102371750.29646
        21.800    25000227.92246
 17  4 10  0 52 30.0000000  0 10G01G32G08G28G17G14G03G11G22G23
  20215784.242 9 106234679.729 9        54.600    20215791.750 9  82780321.29549
        50.100    20215791.37149  20215787.414 7  79331123.903 7        43.200
  22955368.000 8 120631298.537 8        45.400    22955374.395 8  93998438.33148
        33.400    22955373.99248  22955369.746 3  90081841.994 3        33.800
  22858893.742 8 120124317.396 8        45.300    22858901.594 8  93603402.86049
        36.000    22858900.93449  22858897.426 5  89703253.313 5        35.500
  23876167.602 6 125470101.638 6        40.200                    97768922.19446
        24.200    23876170.71146
  24006988.227 7 126157575.237 7        44.100    24006991.629 7  98304620.16848
        30.000    24006991.12148
  21967132.766 8 115438076.757 8        46.700                    89951767.50949
        37.100    21967136.21149
  21359321.344 9 112244005.698 9        52.300    21359328.227 9  87462888.63849
        44.200    21359327.34849  21359325.543 6  83818595.642 6        39.900
  20141545.266 9 105844561.802 9        49.100                    82476304.09749
        45.000    20141548.31649
  20461044.383 9 107523495.891 9        54.100                    83784587.27049
        47.500    20461045.28549
  24979718.734 6 131269308.764 6        38.400                   102287775.26646
        21.100    24979720.06646
 17  4 10  0 53  0.0000000  0 10G01G32G08G28G17G14G03G11G22G23
  20213102.336 9 106220585.693 9        56.000    20213109.559 9  82769338.93449
        50.300    20213109.37549  20213105.535 7  79320599.138 7        43.400
  22968075.594 8 120698077.210 8        45.700    22968081.555 7  94050473.66748
        33.600    22968080.70348  22968077.984 4  90131709.190 4        34.300
  22878544.867 8 120227581.472 8        45.500    22878552.043 8  93683868.36049
        34.800    22878551.17249  22878548.133 5  89780366.084 5        35.200
  23884631.039 6 125514577.897 6        40.800                    97803578.98847
        25.400    23884634.59847
  23989563.727 7 126066009.405 7        44.400    23989567.766 7  98233270.18747
        29.600    23989567.47747
  21970966.758 9 115458224.394 9        48.000                    89967466.96449
        36.900    21970970.16849
  21347300.602 9 112180836.844 9        51.700    21347307.242 9  87413666.17249
        44.300    21347306.41449  21347304.727 6  83771424.116 6        40.400
  20146969.133 9 105873066.632 9        49.700                    82498515.64949
        44.700    20146972.18449
  20457900.063 9 107506973.372 9        53.800                    83771712.59549
        47.500    20457900.87149
  24959213.078 6 131161550.141 6        38.400                   102203807.55446
        21.800    24959214.45746
 17  4 10  0 53 30.0000000  0 10G01G32G08G28G17G14G03G11G22G23
  20210494.039 9 106206878.515 9        55.900    20210501.039 9  82758658.01849
        50.200    20210500.71549  20210496.699 7  79310363.260 7        43.200
  22980870.875 8 120765313.945 8        46.400    22980876.703 7  94102865.95048
        33.100    22980875.96948  22980872.664 3  90181918.452 3        33.700
  22898241.180 8 120331084.724 8        45.400    22898248.219 7  93764520.24849
        34.500    22898247.07849  22898244.336 4  89857657.462 4        34.900
  23893172.102 6 125559460.385 6        40.600                    97838552.35146
        24.600    23893174.87546
  23972188.039 7 125974698.320 7        44.900    23972191.098 6  98162118.70147
        29.700    23972190.99647
  21974906.875 8 115478929.660 8        47.800                    89983600.95549
        36.700    21974910.41849
  21335344.914 9 112118009.349 9        51.200    21335352.316 9  87364709.70849
        43.900    21335351.03549  21335349.410 6  83724507.512 6        40.400
  20152496.477 9 105902112.150 9        48.900                    82521148.50849
        44.700    20152499.52049
  20454827.711 9 107490827.594 9        53.400                    83759131.47549
        47.500    20454828.74249
  24938708.430 5 131053802.984 5        37.800                   102119848.71046
        21.700    24938710.62946
 17  4 10  0 54  0.0000000  0 10G01G32G08G28G17G14G03G11G22G23
  20207959.469 9 106193558.974 9        56.200    20207966.203 9  82748279.16649
        50.200    20207965.96149  20207961.945 7  79300416.861 7        42.800
  22993752.102 8 120833006.608 8        46.200    22993758.223 8  94155613.49448
        33.600    22993757.73848  22993754.023 3  90232468.180 3        33.900
  22917981.875 8 120434824.632 8        45.200    22917989.336 8  93845356.54449
        35.100    22917988.14849  22917984.816 4  89935125.581 4        34.000
  23901790.094 6 125604747.113 6        40.500                    97873840.69046
        23.800    23901792.35246
  23954860.938 7 125883644.511 7        44.100    23954864.863 6  98091167.68348
        30.300    23954864.77048
  21978953.242 9 115500191.911 9        48.200                    90000168.94349
        36.800    21978956.43449
  21323454.281 9 112055523.713 9        52.200    21323461.172 9  87316019.61349
        44.100    21323460.31649  21323458.277 6  83677846.174 6        39.500
  20158126.563 9 105931698.266 9        50.200                    82544202.61249
        45.300    20158129.60549
  20451826.938 9 107475058.104 9        53.000                    83746843.56749
        47.800    20451827.81349
  24918208.586 6 130946069.353 6        38.400                   102035900.49346
        21.300    24918209.91846
 17  4 10  0 54 30.0000000  0 10G01G32G08G28G17G14G03G11G22G23
  20205498.602 9 106180627.834 9        56.800    20205505.695 9  82738202.96649
        50.000    20205505.28149  20205501.324 7  79290760.511 7        42.800
  23006719.719 8 120901152.859 8        45.200    23006726.070 7  94208714.47248
        33.000    23006725.48448  23006721.473 3  90283356.640 3        33.800
  22937767.266 8 120538798.591 8        45.100    22937774.793 7  93926375.20149
        34.600    22937773.81349  22937770.367 4  90012768.465 4        34.100
  23910484.148 6 125650435.821 6        40.800                    97909442.22046
        23.800    23910486.52046
  23937583.523 7 125792850.711 7        44.700    23937586.941 7  98020419.26748
        30.200    23937587.19548
  21983105.016 9 115522010.090 9        49.000                    90017170.12349
        37.300    21983108.23049
  21311628.609 9 111993380.599 9        51.400    21311635.625 9  87267596.43049
        44.800    21311634.63749  21311632.602 6  83631440.627 6        40.000
  20163859.180 9 105961824.513 9        49.100                    82567677.59349
        44.700    20163862.70749
  20448897.273 9 107459664.133 9        53.000                    83734848.27449
        47.600    20448898.36349
  24897709.734 6 130838351.311 6        39.000                   101951964.31146
        20.900    24897711.23446
 17  4 10  0 55  0.0000000  0 10G01G32G08G28G17G14G03G11G22G23
  20203111.883 9 106168085.886 9        56.400    20203118.949 9  82728430.02949
        50.300    20203118.68849  20203114.438 7  79281394.787 7        43.400
  23019773.180 8 120969750.462 8        45.500    23019779.336 7  94262167.16448
        33.200    23019778.56348  23019775.141 3  90334582.145 3        32.800
  22957597.031 8 120643004.422 8        45.500    22957604.871 7  94007574.53049
        34.500    22957603.48449  22957600.445 4  90090584.492 4        34.600
  23919254.375 6 125696524.657 6        39.800                    97945355.54646
        22.900    23919257.25446
  23920356.047 7 125702319.815 7        44.300    23920359.320 7  97949875.69648
        30.900    23920359.52748
  21987361.844 8 115544383.421 8        47.900                    90034603.88749
        37.100    21987365.62949
  21299868.508 9 111931580.587 9        50.900    21299875.168 9  87219440.60449
        44.200    21299874.13349  21299872.273 6  83585291.292 6        39.700
  20169694.922 9 105992490.602 9        48.800                    82591573.24349
        44.700    20169698.00049
  20446039.703 9 107444646.264 9        53.200                    83723146.03049
        47.900    20446040.55549
  24877215.539 7 130730651.092 7        41.000                   101868042.09146
        21.700    24877217.21146
 17  4 10  0 55 30.0000000  0 10G01G32G08G28G17G14G03G11G22G23
  20200799.438 9 106155933.903 9        53.900    20200806.559 9  82718960.96749
        50.100    20200806.44949  20200802.195 7  79272320.262 7        43.100
  23032912.563 8 121038797.214 8        45.400    23032918.813 7  94315969.83748
        32.600    23032918.18048  23032914.934 4  90386143.041 4        34.200
  22977470.633 8 120747439.462 8        45.000    22977477.742 8  94088952.48849
        34.600    22977476.46149  22977473.129 4  90168571.697 4        34.200
  23928100.594 6 125743011.479 6        39.600                    97981578.97446
        23.200    23928103.88346
  23903178.750 7 125612053.585 7        43.800    23903182.609 7  97879538.38248
        30.400    23903182.56648
  21991725.461 9 115567311.319 9        48.000                    90052469.78249
        36.500    21991728.64549
  21288173.766 9 111870124.296 9        51.300    21288180.746 9  87171552.60349
        44.600    21288179.99649  21288178.309 6  83539398.636 6        40.600
  20175633.273 9 106023696.302 9        49.000                    82615889.37149
        44.800    20175635.95749
  20443253.492 9 107430004.011 9        50.800                    83711736.48049
        47.800    20443254.49649
  24856724.859 6 130622970.900 6        39.900                   101784135.50646
        22.800    24856727.00846
 17  4 10  0 56  0.0000000  0 10G01G32G08G28G17G14G03G11G22G23
  20198561.430 9 106144172.674 9        53.900    20198568.551 9  82709796.38249
        50.200    20198568.23449  20198564.043 7  79263537.544 7        42.900
  23046136.758 7 121108290.792 7        44.800    23046142.570 7  94370120.67148
        32.400    23046141.40648  23046138.570 4  90438037.580 4        34.700
  22997387.102 7 120852101.288 7        44.700    22997394.625 7  94170507.14649
        34.200    22997393.57849  22997389.605 4  90246728.250 4        34.500
  23937022.367 6 125789893.996 6        39.900                    98018110.75546
        22.000    23937025.51246
  23886052.438 8 125522054.811 8        45.100    23886055.691 6  97809409.47348
        30.200    23886055.40248
  21996193.305 9 115590792.713 9        48.000                    90070766.96949
        36.900    21996197.12549
  21276544.844 9 111809012.283 9        52.400    21276551.297 9  87123932.86949
        44.800    21276550.55549  21276548.930 6  83493763.056 6        40.600
  20181674.195 9 106055441.007 9        49.400                    82640625.50249
        44.700    20181677.36349
  20440538.414 9 107415737.058 9        51.000                    83700619.37949
        47.800    20440539.24649
  24836238.422 6 130515313.250 6        40.100                   101700246.42446
        20.400    24836239.36346
 17  4 10  0 56 30.0000000  0 10G01G32G08G28G17G14G03G11G22G23
  20196397.711 9 106132802.960 9        53.900    20196404.750 9  82700936.86549
        50.200    20196404.53949  20196400.348 7  79255047.178 7        43.300
  23059444.719 7 121178228.862 7        44.900    23059451.727 7  94424617.87948
        31.600    23059450.64848  23059447.227 3  90490264.070 3        32.900
  23017345.977 8 120956987.149 8        45.000    23017353.262 7  94252236.37248
        33.500    23017352.43448  23017349.453 4  90325052.097 4        34.000
  23946018.086 6 125837170.115 6        39.400                    98054949.22246
        24.700    23946021.77746
  23868977.883 7 125432326.185 7        44.400    23868981.730 7  97739491.05548
        31.300    23868981.53948
  22000766.883 9 115614826.509 9        48.700                    90089494.60349
        36.500    22000770.19549
  21264980.961 9 111748245.114 9        51.700    21264988.168 9  87076581.84549
        45.100    21264987.03949  21264985.707 6  83448385.003 6        40.400
  20187817.547 9 106087724.405 9        49.600                    82665781.37549
        44.600    20187820.13349
  20437894.750 9 107401844.566 9        51.200                    83689794.06349
        48.000    20437895.98449
  24815755.094 6 130407680.081 6        38.000                   101616376.36646
        20.400    24815756.96146
 17  4 10  0 57  0.0000000  0 10G01G32G08G28G17G14G03G11G22G23
  20194308.734 9 106121825.455 9        55.400    20194315.566 9  82692382.96549
        50.200    20194315.16049  20194311.203 7  79246849.689 7        43.000
  23072838.297 8 121248609.136 8        46.000    23072844.785 7  94479459.66348
        31.800    23072843.65248  23072839.523 3  90542820.790 3        33.600
  23037347.563 7 121062094.653 7        44.600    23037354.273 7  94334138.33148
        33.900    23037353.02048  23037350.098 3  90403541.465 3        33.900
  23955089.055 6 125884837.551 6        39.600                    98092092.61346
        21.300    23955092.66046
  23851954.945 7 125342870.142 7        43.900    23851958.766 7  97669785.05548
        30.500    23851958.21148
  22005445.445 9 115639412.144 9        48.400                    90108652.26649
        36.900    22005448.71949
  21253483.133 9 111687823.332 9        52.400    21253489.570 9  87029499.96249
        44.800    21253488.80149  21253487.055 6  83403264.858 6        40.500
  20194063.078 9 106120546.310 9        49.600                    82691356.87849
        44.800    20194065.63749
  20435322.305 9 107388326.663 9        53.100                    83679260.63849
        47.900    20435323.59449
  24795277.844 5 130300073.935 5        37.400                   101532527.44846
        22.500    24795281.18846
 17  4 10  0 57 30.0000000  0 10G01G32G08G28G17G14G03G11G22G23
  20192294.594 9 106111240.862 9        56.700    20192301.551 9  82684135.23249
        50.100    20192301.10249  20192297.199 7  79238945.612 7        42.800
  23086315.008 8 121319429.181 8        45.500    23086321.145 7  94534644.11848
        32.100    23086320.49248  23086316.719 3  90595705.897 3        33.100
  23057390.453 7 121167421.575 7        44.000    23057397.789 7  94416211.25348
        33.700    23057396.73848  23057393.641 4  90482194.670 4        34.400
  23964234.023 6 125932894.375 6        40.200                    98129539.41346
        22.600    23964237.85946
  23834983.953 7 125253688.989 7        44.000    23834988.297 7  97600293.26148
        30.200    23834987.80548
  22010228.820 8 115664548.709 8        47.800                    90128239.21149
        36.400    22010232.32849
  21242051.141 9 111627747.461 9        52.300    21242057.754 9  86982687.63849
        44.700    21242056.87549  21242055.367 6  83358403.059 6        40.800
  20200411.414 9 106153906.005 9        49.500                    82717351.43249
        44.900    20200414.06349
  20432821.320 9 107375182.696 9        53.200                    83669018.58549
        47.900    20432822.05149
  24774808.086 6 130192496.481 6        40.500                   101448700.94246
        22.900    24774810.29346
 17  4 10  0 58  0.0000000  0 10G01G32G08G28G17G14G03G11G22G23
  20190355.234 9 106101049.964 9        56.900    20190362.473 9  82676194.28049
        50.200    20190361.98049  20190357.965 7  79231335.531 7        43.100
  23099874.750 7 121390686.755 7        44.900    23099880.977 7  94590169.52048
        31.900    23099879.72748  23099876.891 3  90648917.739 3        33.700
  23077475.172 7 121272964.826 7        44.300    23077482.184 8  94498452.73048
        33.600    23077480.78948  23077476.934 3  90561009.416 3        33.300
  23973452.813 6 125981338.213 6        39.000                    98167287.83646
        22.600    23973455.14846
  23818066.391 7 125164785.414 7        44.600    23818070.324 7  97531017.72148
        31.800    23818069.73048
  22015116.773 8 115690235.133 8        47.400                    90148254.62449
        36.900    22015119.98449
  21230684.906 9 111568018.017 9        53.000    21230691.766 9  86936145.23249
        45.300    21230691.03949  21230689.762 6  83313799.919 6        40.600
  20206861.703 9 106187802.898 9        50.000                    82743764.57949
        44.600    20206864.54749
  20430391.133 9 107362412.454 9        53.600                    83659067.74849
        48.000    20430392.08249
  24754342.320 7 130084950.154 7        41.400                   101364898.59246
        22.200    24754344.13746
 17  4 10  0 58 30.0000000  0 11G01G32G08G28G17G14G03G11G22G31G23
  20188491.383 9 106091253.593 9        53.900    20188498.273 9  82668560.74249
        50.000    20188498.04749  20188493.855 7  79224020.055 7        43.200
  23113517.578 8 121462379.549 8        45.600    23113523.523 7  94646034.04448
        33.000    23113522.94548  23113519.461 3  90702454.567 3        32.900
  23097600.273 7 121378722.489 7        44.900    23097607.543 7  94580861.28348
        33.400    23097606.24248  23097602.852 3  90639984.305 3        33.900
  23982745.211 6 126030166.773 6        40.400                    98205336.00147
        25.500    23982748.30147
  23801201.555 7 125076161.683 7        44.600    23801204.777 7  97461960.28048
        31.300    23801204.73448
  22020109.367 8 115716470.251 8        47.300                    90168697.59549
        36.600    22020112.69149
  21219385.023 9 111508635.635 9        53.000    21219391.750 9  86889873.26149
        44.800    21219390.89849  21219389.566 6  83269455.963 6        40.500
  20213414.648 9 106222236.663 9        50.200                    82770596.06249
        44.900    20213417.32849
  20428031.914 9 107350015.478 9        51.100                    83649407.76249
        47.900    20428032.88349
  24941863.852 6 131070378.36616        39.200    24941869.207 5 102132774.40955
        19.600    24941867.90245
  24733884.195 7 129977437.340 7        41.300                   101281122.40046
        22.500    24733885.94546
 17  4 10  0 59  0.0000000  0 11G01G32G08G28G17G14G03G11G22G31G23
  20186702.289 9 106081852.138 9        53.800    20186709.289 9  82661234.93149
        50.100    20186708.89549  20186704.934 7  79216999.483 7        42.600
  23127242.500 7 121534505.001 7        44.500    23127248.586 7  94702235.70048
        32.800    23127247.70348  23127243.984 4  90756314.482 4        34.400
  23117765.313 7 121484691.286 7        44.400    23117772.160 7  94663434.37348
        33.700    23117770.83648  23117768.211 4  90719116.829 4        34.400
  23992109.406 6 126079377.827 6        39.400                    98243682.21546
        22.600    23992112.23846
  23784391.211 8 124987820.406 8        45.200    23784394.758 7  97393122.90548
        31.400    23784394.04748
  22025205.555 8 115743253.184 8        47.200                    90189567.43049
        35.900    22025209.20749
  21208150.648 9 111449600.571 9        53.400    21208157.063 9  86843871.92849
        44.900    21208156.44149  21208154.695 6  83225371.354 6        40.400
  20220068.766 9 106257206.218 9        50.300                    82797845.03649
        44.500    20220071.45349
  20425743.828 9 107337990.938 9        51.000                    83640037.98949
        47.900    20425744.93449
  24926859.867 6 130991532.049 6        38.400    24926865.656 5 102071335.73346
        20.100    24926864.16446
  24713430.867 6 129869959.923 6        40.800                   101197373.74346
        22.300    24713433.24646
 17  4 10  0 59 30.0000000  0 11G01G32G08G28G17G14G03G11G22G31G23
  20184988.438 9 106072846.496 9        56.600    20184995.313 9  82654217.53349
        50.000    20184994.77349  20184990.816 7  79210274.486 7        43.000
  23141049.133 8 121607060.746 8        46.000    23141055.133 7  94758772.65548
        32.600    23141054.76648  23141050.934 3  90810495.732 3        33.200
  23137970.102 7 121590869.426 7        44.400    23137977.270 7  94746170.57848
        33.600    23137976.01248  23137972.797 4  90798405.684 4        34.200
  24001546.125 6 126128969.320 6        39.300                    98282324.91346
        22.600    24001549.63746
  23767634.328 7 124899764.286 7        43.700    23767638.512 7  97324507.75548
        30.900    23767637.94548
  22030406.000 8 115770582.862 8        47.000                    90210863.28949
        36.100    22030410.02049
  21196983.008 9 111390913.421 9        52.800    21196989.121 9  86798141.70249
        44.900    21196988.46149  21196986.777 6  83181546.562 6        40.800
  20226825.266 9 106292711.721 9        50.500                    82825511.65349
        44.500    20226828.51649
  20423526.469 9 107326339.068 9        53.200                    83630958.60949
        48.100    20423527.28949
  24911892.266 7 130912876.657 7        41.000    24911897.836 5 102010045.81946
        20.400    24911897.00046
  24692986.727 7 129762520.229 7        42.200                   101113654.48846
        22.200    24692987.98046
 17  4 10  1  0  0.0000000  0 11G01G32G08G28G17G14G03G11G22G31G23
  20183350.320 9 106064237.441 9        57.200    20183357.074 9  82647509.17349
        50.100    20183356.71949  20183352.586 7  79203845.639 7        43.100
  23154937.211 7 121680044.593 7        44.700    23154943.602 7  94815643.19448
        31.300    23154942.98448  23154939.563 3  90864996.676 3        32.700
  23158214.508 7 121697254.325 7        43.800    23158222.039 7  94829067.88948
        33.200    23158220.78148  23158217.039 3  90877848.959 3        33.300
  24011054.797 6 126178938.881 6        39.200                    98321262.16846
        22.800    24011059.09446
  23750932.688 7 124811995.797 7        44.900    23750936.336 7  97256116.74048
        30.800    23750935.48048
  22035711.008 8 115798458.379 8        47.200                    90232584.48649
        36.400    22035714.09449
  21185881.578 9 111332574.826 9        52.500    21185888.242 9  86752683.08549
        45.300    21185887.31349  21185885.977 6  83137982.058 6        40.200
  20233683.656 9 106328752.729 9        51.200                    82853595.54449
        44.700    20233686.60549
  20421380.195 9 107315059.415 9        53.100                    83622169.26649
        48.100    20421380.93049
  24896961.961 6 130834415.304 6        40.100    24896966.270 5 101948907.11645
        19.300    24896965.39545
  24672548.070 6 129655120.539 6        40.000                   101029966.47646
        22.600    24672551.14546
 17  4 10  1  0 30.0000000  0 11G01G32G08G28G17G14G03G11G22G31G23
  20181787.727 9 106056025.706 9        56.200    20181794.680 9  82641110.41349
        50.100    20181794.28149  20181790.379 7  79197713.497 7        42.700
  23168907.359 8 121753454.155 8        45.000    23168912.973 7  94872845.45648
        32.000    23168912.46948  23168909.398 3  90919815.511 3        33.600
  23178497.422 7 121803843.167 7        43.700    23178504.652 7  94912124.12748
        31.700    23178503.34048  23178500.418 3  90957444.523 3        33.300
  24020635.805 6 126229284.469 6        40.200                    98360492.46446
        22.300    24020638.87946
  23734286.445 8 124724517.144 8        45.100    23734289.707 7  97187951.55048
        31.100    23734289.13348
  22041119.344 8 115826878.368 8        46.700                    90254729.94849
        36.900    22041122.67249
  21174846.516 9 111274585.235 9        53.000    21174853.191 9  86707496.39749
        45.200    21174852.26249  21174850.695 6  83094678.147 6        40.100
  20240643.711 9 106365328.245 9        50.200                    82882095.93549
        44.300    20240646.61749
  20419304.352 9 107304151.550 9        53.500                    83613669.63449
        48.200    20419305.67649
  24882067.875 6 130756151.206 6        38.600    24882073.988 5 101887922.10045
        19.900    24882072.75045
  24652119.031 6 129547762.965 6        40.600                   100946311.22346
        21.700    24652120.60546
 17  4 10  1  1  0.0000000  0 12G01G32G08G19G28G17G14G03G11G22G31G23
  20180300.852 9 106048212.052 9        56.600    20180307.301 9  82635021.84549
        50.300    20180307.16449  20180302.852 7  79191878.614 7        43.000
  23182957.477 7 121827287.071 7        44.600    23182962.883 7  94930377.61548
        31.900    23182962.25448  23182959.359 4  90974950.485 4        34.400
  23198819.125 7 121910633.529 7        43.800    23198826.316 7  94995337.40448
        32.100    23198825.10548  23198822.422 4  91037190.550 4        34.000
  25111627.273 5 131962488.13815        35.900                   102827925.65656
        20.400    25111630.07046
  24030287.258 6 126280003.514 6        39.100                    98400013.72946
        22.600    24030290.75446
  23717695.492 8 124637331.428 8        45.900    23717699.145 7  97120014.62448
        31.200    23717697.96948
  22046630.734 8 115855842.105 8        46.400                    90277299.09149
        36.300    22046634.30949
  21163878.094 9 111216945.235 9        52.800    21163884.906 9  86662582.10349
        45.500    21163883.71149  21163882.258 6  83051635.278 6        40.500
  20247705.453 9 106402438.148 9        51.100                    82911012.73049
        44.900    20247708.20749
  20417299.539 9 107293615.175 9        53.900                    83605459.47249
        48.200    20417300.44949
  24867214.070 7 130678088.088 7        41.300    24867218.328 5 101827093.70745
        19.900    24867217.38345
  24631697.805 7 129440449.944 7        42.000                   100862690.68246
        22.500    24631700.00446
 17  4 10  1  1 30.0000000  0 12G01G32G08G19G28G17G14G03G11G22G31G23
  20178889.602 9 106040796.788 9        53.900    20178896.820 9  82629243.71949
        50.200    20178896.60549  20178892.355 7  79186341.235 7        43.000
  23197086.820 8 121901540.567 8        45.300    23197093.047 7  94988237.48548
        31.700    23197092.14548  23197088.605 3  91030399.528 3        33.000
  23219178.711 7 122017622.687 7        44.600    23219185.895 7  95078705.56148
        32.500    23219184.66848  23219181.277 3  91117085.038 3        33.200
  25091029.570 5 131854243.912 5        37.100                   102743579.50545
        18.300    25091029.56645
  24040009.531 6 126331093.638 6        39.000                    98439824.20346
        22.300    24040012.56646
  23701160.164 8 124550441.033 8        45.100    23701164.465 7  97052307.82148
        31.100    23701163.73848
  22052245.750 8 115885348.405 8        46.500                    90300291.02049
        36.700    22052248.93849
  21152975.766 9 111159654.907 9        52.900    21152982.738 9  86617940.29949
        45.200    21152981.58649  21152980.313 6  83008853.553 6        40.800
  20254868.797 9 106440081.156 9        50.700                    82940344.93449
        44.400    20254871.46149
  20415364.945 9 107283449.176 9        51.200                    83597537.91849
        48.100    20415365.57449
  24852396.719 6 130600227.920 6        40.200    24852402.414 5 101766423.43046
        20.400    24852400.92646
  24611286.141 6 129333183.301 6        40.800                   100779106.33546
        21.500    24611288.64546
 17  4 10  1  2  0.0000000  0 12G01G32G08G19G28G17G14G03G11G22G31G23
  20177554.398 9 106033780.889 9        54.700    20177561.563 9  82623776.77549
        50.300    20177561.25849  20177557.242 7  79181102.084 7        43.100
  23211296.211 7 121976212.522 7        44.700    23211302.801 7  95046423.42148
        32.100    23211301.71548  23211298.113 3  91086161.057 3        32.500
  23239575.484 7 122124808.164 7        44.000    23239582.734 7  95162226.69248
        32.300    23239581.80948  23239578.125 3  91197126.138 3        33.200
  25070464.570 5 131746179.489 5        35.900                   102659373.48646
        21.500    25070467.54746
  24049801.391 6 126382553.161 6        38.400                    98479922.49346
        22.300    24049805.59046
  23684682.188 7 124463847.935 7        44.700    23684685.988 7  96984832.69648
        30.900    23684684.80948
  22057963.930 8 115915396.281 8        46.500                    90323704.96449
        36.800    22057967.09849
  21142140.688 9 111102715.089 9        52.900    21142147.441 9  86573571.63549
        45.000    21142146.19549  21142145.152 6  82966333.593 6        40.700
  20262133.289 9 106478257.458 9        50.400                    82970092.68749
        44.300    20262136.50849
  20413500.773 9 107273654.167 9        52.200                    83589905.45449
        48.200    20413501.69949
  24837620.125 6 130522574.600 6        39.900    24837625.805 6 101705914.38346
        21.700    24837625.01246
  24590884.375 7 129225965.630 7        43.000                   100695560.07546
        22.600    24590884.48046
 17  4 10  1  2 30.0000000  0 12G01G32G08G19G28G17G14G03G11G22G31G23
  20176295.492 9 106027165.115 9        55.900    20176302.742 9  82618621.62049
        50.300    20176302.44949  20176298.434 7  79176161.733 7        43.600
  23225585.695 7 122051300.607 7        44.700    23225591.387 7  95104933.62348
        31.600    23225590.24648  23225586.531 3  91142233.342 3        32.300
  23260008.898 7 122232187.632 7        44.500    23260016.270 7  95245899.00548
        32.200    23260015.17248  23260011.723 3  91277312.111 3        33.000
  25049937.445 5 131638297.389 5        37.500                   102575309.52046
        20.400    25049937.66446
  24059663.297 5 126434379.122 5        37.500                    98520306.28746
        22.300    24059667.24646
  23668261.563 8 124377555.082 8        46.400    23668265.414 7  96917591.49948
        32.300    23668264.21148
  22063784.211 8 115945984.453 8        46.200                    90347539.89949
        36.200    22063787.74249
  21131372.211 9 111046126.313 9        53.000    21131378.836 9  86529476.52349
        45.300    21131377.98049  21131376.590 6  82924075.786 6        40.600
  20269499.234 9 106516966.148 9        50.400                    83000255.29149
        44.400    20269502.39149
  20411707.789 9 107264229.326 9        54.100                    83582561.41349
        48.300    20411708.37949
  24822883.656 7 130445131.054 7        41.100    24822889.184 5 101645568.78046
        21.800    24822888.04346
  24570489.484 6 129118799.252 6        39.700                   100612053.80046
        23.000    24570492.24246
 17  4 10  1  3  0.0000000  0 12G01G32G08G19G28G17G14G03G11G22G31G23
  20175113.000 9 106020950.047 9        56.500    20175119.926 9  82613778.70749
        50.300    20175119.53149  20175115.570 7  79171520.605 7        43.500
  23239952.563 7 122126802.301 7        44.500    23239958.563 7  95163766.12848
        30.500    23239958.23448  23239954.695 3  91198614.493 3        32.400
  23280478.805 7 122339758.394 7        44.500    23280486.352 7  95329720.37348
        31.800    23280484.96148  23280482.453 3  91357640.915 3        33.900
  25029442.930 5 131530600.047 5        35.600                   102491389.56645
        19.000    25029444.07845
  24069595.711 6 126486569.429 6        39.400                    98560974.00446
        22.600    24069598.48446
  23651898.289 8 124291564.697 8        45.700    23651901.602 7  96850586.00448
        32.300    23651900.77348
  22069707.320 8 115977111.623 8        46.700                    90371794.83749
        36.100    22069710.65649
  21120670.297 9 110989888.841 9        52.900    21120677.453 9  86485655.12849
        45.200    21120676.66049  21120674.859 6  82882080.292 6        40.900
  20276966.484 9 106556206.295 9        51.300                    83030832.02549
        44.600    20276969.76249
  20409984.305 9 107255173.922 9        53.700                    83575505.26049
        48.300    20409985.35249
  24808185.859 6 130367900.489 6        39.200    24808192.352 6 101585389.12946
        21.500    24808191.18846
  24550105.859 6 129011685.780 6        40.600                   100528588.79946
        24.400    24550108.90646
 17  4 10  1  3 30.0000000  0 12G01G32G08G19G28G17G14G03G11G22G31G23
  20174006.391 9 106015136.218 9        56.300    20174013.980 9  82609248.44749
        50.300    20174013.42249  20174009.461 7  79167179.099 7        43.200
  23254398.414 7 122202715.030 7        43.900    23254404.734 7  95222918.88748
        31.100    23254403.62548  23254400.551 3  91255302.560 3        32.800
  23300984.414 7 122447517.954 7        43.700    23300992.648 7  95413688.85948
        31.600    23300991.49648  23300988.227 3  91438110.692 3        33.400
  25008983.602 3 131423090.225 3        33.900                   102407615.66145
        19.300    25008985.45745
  24079595.797 6 126539121.227 6        40.300                    98601923.45346
        22.500    24079599.20746
  23635592.391 8 124205879.175 8        45.100    23635596.160 7  96783818.08448
        32.100    23635595.77048
  22075733.219 8 116008776.836 8        46.200                    90396469.04949
        36.000    22075735.97349
  21110035.609 9 110934003.035 9        52.700    21110042.523 9  86442107.76849
        45.400    21110041.71549  21110039.914 6  82840347.405 6        40.200
  20284534.781 9 106595977.296 9        50.900                    83061822.40949
        44.500    20284537.79749
  20408331.219 9 107246487.107 9        53.900                    83568736.32249
        48.300    20408332.19549
  24793530.953 6 130290886.007 6        40.100    24793536.957 5 101525377.86346
        22.600    24793535.60546
  24529734.695 6 128904627.863 6        40.800                   100445167.04646
        22.500    24529736.14846
 17  4 10  1  4  0.0000000  0 12G01G32G08G19G28G17G14G03G11G22G31G23
  20172976.922 9 106009724.458 9        56.700    20172983.965 9  82605031.48349
        50.300    20172983.72349  20172979.469 7  79163137.845 7        43.200
  23268922.203 7 122279036.516 7        44.500    23268927.578 7  95282390.18648
        31.300    23268927.62548  23268923.676 3  91312295.881 3        33.000
  23321525.719 7 122555463.758 7        43.400    23321533.852 7  95497802.44748
        31.900    23321532.69948  23321528.723 3  91518719.577 3        33.000
  24988561.750 5 131315770.924 5        36.000                   102323990.19446
        20.900    24988563.23846
  24089664.922 6 126592032.837 6        39.600                    98643153.24546
        22.900    24089668.69546
  23619345.742 8 124120501.427 8        46.700    23619349.375 7  96717289.94348
        32.600    23619349.18848
  22081861.055 8 116040978.664 8        45.900                    90421561.39849
        36.000    22081864.22749
  21099468.016 9 110878469.532 9        53.500    21099474.813 9  86398834.92449
        46.100    21099473.91849  21099471.879 6  82798877.590 6        40.800
  20292203.719 9 106636278.508 9        51.300                    83093225.93649
        44.400    20292206.80549
  20406748.453 9 107238169.147 9        54.400                    83562254.79749
        48.300    20406749.16049
  24778918.086 6 130214090.595 6        39.600    24778923.238 5 101465537.28546
        21.100    24778922.85546
  24509372.594 6 128797627.467 6        39.400                   100361790.13046
        23.600    24509374.60546
 17  4 10  1  4 30.0000000  0 12G01G32G08G19G28G17G14G03G11G22G31G23
  20172023.406 9 106004715.523 9        56.700    20172031.000 9  82601128.41049
        50.200    20172030.68449  20172026.488 7  79159397.397 7        43.100
  23283522.688 8 122355764.371 8        45.600    23283529.070 7  95342178.12648
        31.000    23283528.77748  23283524.418 3  91369592.661 3        32.700
  23342102.172 8 122663593.402 8        45.000    23342109.813 7  95582059.31148
        30.900    23342108.35548  23342105.785 3  91599465.727 3        32.600
  24968177.586 5 131208644.688 5        36.000                   102240515.25246
        20.900    24968178.11746
  24099802.195 6 126645301.731 6        39.900                    98684661.46546
        23.800    24099805.40646
  23603158.109 8 124035433.936 8        46.700    23603162.039 7  96651003.60248
        32.300    23603161.81348
  22088090.648 8 116073716.074 8        46.100                    90447071.07149
        35.700    22088093.77049
  21088967.367 9 110823288.806 9        53.700    21088974.000 9  86355836.96149
        45.700    21088973.12149  21088971.613 6  82757671.211 6        40.600
  20299973.516 9 106677109.206 9        51.000                    83125042.05249
        44.300    20299976.91049
  20405235.477 9 107230219.776 9        54.100                    83556060.48349
        48.400    20405236.25449
  24764346.648 6 130137517.646 6        39.600    24764351.000 5 101405870.00646
        20.600    24764349.54346
  24489021.898 6 128690687.213 6        39.000                   100278460.09546
        22.500    24489024.81646
 17  4 10  1  5  0.0000000  0 12G01G32G08G19G28G17G14G03G11G22G31G23
  20171147.492 9 106000109.790 9        53.800    20171154.422 9  82597539.51949
        50.300    20171154.08249  20171150.008 7  79155958.047 7        43.400
  23298200.375 7 122432895.920 7        44.400    23298206.824 7  95402280.64148
        30.800    23298205.91048  23298202.430 3  91427190.907 3        32.100
  23362713.188 7 122771904.063 7        44.500    23362721.008 7  95666457.20948
        31.200    23362719.83648  23362716.914 4  91680347.033 4        34.000
  24947827.242 3 131101714.209 3        33.300                   102157192.80145
        19.600    24947829.93445
  24110005.305 6 126698925.310 6        38.100                    98726446.06846
        22.800    24110009.25046
  23587030.031 8 123950678.947 8        46.400    23587033.129 7  96584960.75248
        32.700    23587033.18048
  22094422.336 8 116106987.812 8        46.500                    90472997.11149
        36.300    22094425.80549
  21078533.914 9 110768461.084 9        53.600    21078541.090 9  86313114.05749
        45.500    21078540.11749  21078538.668 6  82716728.439 6        40.900
  20307844.031 9 106718468.409 9        51.400                    83157269.98049
        44.300    20307846.99649
  20403792.977 9 107222638.279 9        51.300                    83550152.81349
        48.500    20403793.98849
  24749817.805 6 130061170.192 6        40.400    24749823.352 5 101346378.49546
        21.800    24749822.21946
  24468684.461 6 128583808.840 6        40.000                   100195178.25946
        22.300    24468686.21546
 17  4 10  1  5 30.0000000  0 12G01G32G08G19G28G17G14G03G11G22G31G23
  20170347.531 9 105995908.233 9        55.900    20170354.563 9  82594265.57649
        50.200    20170354.25449  20170350.238 7  79152820.511 7        43.000
  23312954.328 7 122510428.990 7        43.800    23312960.348 7  95462696.02248
        30.200    23312960.15648  23312956.203 3  91485088.980 3        33.400
  23383358.383 8 122880393.463 8        45.200    23383366.070 7  95750994.39248
        31.500    23383364.96948  23383360.875 3  91761361.837 3        32.800
  24927516.672 4 130994982.604 4        34.400                   102074025.25946
        20.100    24927518.60946
  24120277.406 6 126752901.443 6        39.200                    98768505.34446
        22.000    24120279.75446
  23570960.977 8 123866239.120 8        46.100    23570965.098 7  96519163.47048
        31.800    23570964.88748
  22100855.211 8 116140792.801 8        46.100                    90499338.67149
        36.400    22100858.52049
  21068167.977 9 110713987.013 9        52.800    21068174.867 9  86270666.74149
        46.000    21068174.15249  21068172.234 7  82676049.760 7        41.000
  20315815.055 9 106760356.465 9        51.300                    83189909.99749
        44.200    20315817.99649
  20402420.203 9 107215424.239 9        53.900                    83544531.47449
        48.500    20402420.98849
  24735332.953 6 129985051.414 6        39.000    24735337.766 5 101287065.19846
        20.400    24735337.18846
  24448359.469 6 128476994.836 6        40.400                   100111946.58246
        22.000    24448359.33646
 17  4 10  1  6  0.0000000  0 12G01G32G08G19G28G17G14G03G11G22G31G23
  20169625.023 9 105992111.234 9        55.500    20169632.328 9  82591306.86849
        50.000    20169632.13749  20169628.063 7  79149985.083 7        42.900
  23327784.070 7 122588360.834 7        44.700    23327790.402 7  95523422.14647
        29.900    23327789.92247  23327786.262 3  91543284.845 3        33.000
  23404036.438 8 122989058.836 8        45.800    23404043.746 7  95835668.70648
        31.500    23404043.23448  23404039.848 3  91842508.063 3        33.200
  24907245.992 5 130888452.088 5        37.700                   101991014.53445
        18.600    24907247.43445
  24130614.813 6 126807227.593 6        39.000                    98810837.40046
        24.100    24130618.75046
  23554953.766 8 123782116.730 8        47.000    23554957.617 7  96453613.55648
        32.100    23554957.17248
  22107389.164 8 116175129.418 8        46.000                    90526094.48949
        36.000    22107392.39549
  21057869.484 9 110659866.852 9        54.300    21057875.945 9  86228495.19249
        46.000    21057875.45349  21057873.297 6  82635635.360 6        40.000
  20323886.398 9 106802771.752 9        51.800                    83222960.86949
        44.400    20323889.70749
  20401117.016 9 107208576.588 9        53.800                    83539195.63349
        48.300    20401118.07849
  24720891.836 6 129909164.337 6        38.100    24720898.215 6 101227932.40946
        21.300    24720896.53946
  24428045.648 7 128370247.510 7        42.100                   100028766.84446
        22.500    24428046.21946
 17  4 10  1  6 30.0000000  0 12G01G32G08G19G28G17G14G03G11G22G31G23
  20168979.492 9 105988719.500 9        53.700    20168986.715 9  82588663.95649
        50.200    20168986.44149  20168982.422 7  79147452.297 7        43.400
  23342689.391 7 122666689.087 7        43.900    23342696.031 7  95584457.14247
        29.700    23342694.75447  23342691.563 3  91601776.720 3        32.400
  23424747.898 7 123097897.666 7        44.700    23424754.602 7  95920478.20048
        30.200    23424753.99248  23424750.602 3  91923783.816 3        33.000
  24887011.680 5 130782125.471 5        37.400                   101908162.59545
        19.000    24887013.18045
  24141019.148 6 126861901.351 6        39.500                    98853440.33046
        24.800    24141023.43846
  23539006.602 8 123698314.411 8        47.400    23539010.082 7  96388313.05448
        32.600    23539009.85948
  22114023.742 8 116209996.328 8        46.400                    90553263.50749
        36.400    22114027.23849
  21047637.992 9 110606101.047 9        54.000    21047644.840 9  86186599.75949
        46.000    21047644.25049  21047642.035 6  82595485.560 6        40.500
  20332058.008 9 106845713.451 9        51.100                    83256421.93649
        44.200    20332061.35549
  20399883.445 9 107202095.406 9        51.300                    83534145.34849
        48.300    20399884.50849
  24706496.047 6 129833512.377 6        40.300    24706502.320 6 101168982.84046
        22.600    24706501.98846
  24407745.109 7 128263568.932 7        42.100                    99945640.69447
        25.700    24407746.99647
 17  4 10  1  7  0.0000000  0 12G01G32G08G19G28G17G14G03G11G22G31G23
  20168411.414 9 105985733.690 9        55.500    20168418.895 9  82586337.35449
        50.000    20168418.34849  20168414.387 7  79145222.630 7        43.300
  23357670.148 7 122745411.306 7        44.900    23357676.215 7  95645799.13548
        30.400    23357675.72348  23357672.004 3  91660562.786 3        32.400
  23445491.891 8 123206907.589 8        45.200    23445498.699 7  96005420.96548
        30.700    23445498.09048  23445494.992 3  92005187.294 3        33.200
  24866817.297 4 130676005.649 4        34.600                   101825471.81546
        20.400    24866820.51246
  24151488.328 6 126916920.341 6        39.000                    98896312.20646
        22.800    24151491.98046
  23523120.836 8 123614834.802 8        47.900    23523124.328 7  96323263.99548
        32.000    23523123.61348
  22120759.750 8 116245392.682 8        46.000                    90580845.10049
        35.800    22120762.81349
  21037474.305 9 110552690.070 9        53.200    21037481.113 9  86144980.84349
        45.700    21037480.10949  21037478.250 6  82555600.772 6        40.400
  20340329.828 9 106889180.796 9        51.600                    83290292.58749
        44.600    20340332.38749
  20398719.906 9 107195980.415 9        54.100                    83529380.41549
        48.300    20398720.99649
  24692145.586 7 129758098.542 7        41.400    24692150.402 5 101110218.81046
        22.500    24692149.64146
  24387459.570 7 128156961.369 7        43.400                    99862569.89546
        22.600    24387460.23846
 17  4 10  1  7 30.0000000  0 12G01G32G08G19G28G17G14G03G11G22G31G23
  20167920.938 9 105983154.496 9        55.800    20167927.980 9  82584327.59049
        50.200    20167927.61749  20167923.250 7  79143296.610 7        43.500
  23372724.820 8 122824525.047 8        45.400    23372730.684 7  95707446.21447
        29.800    23372730.00847  23372726.234 2  91719641.242 2        31.900
  23466267.516 8 123316085.727 8        45.600    23466275.773 7  96090494.84748
        30.200    23466274.77048  23466270.910 3  92086716.431 3        32.100
  24846663.773 5 130570095.621 5        36.600                   101742944.50846
        21.500    24846665.66846
  24162023.508 6 126972282.154 6        38.500                    98939451.28446
        22.000    24162027.53546
  23507297.219 8 123531680.171 8        47.500    23507301.086 7  96258468.19448
        33.900    23507301.01248
  22127595.820 8 116281317.002 8        46.000                    90608838.08749
        36.200    22127598.87149
  21027377.859 9 110499634.329 9        53.900    21027384.641 9  86103638.72649
        46.000    21027383.91049  21027382.051 6  82515981.250 6        40.800
  20348701.219 9 106933173.519 9        51.700                    83324572.63349
        44.200    20348704.18849
  20397626.211 9 107190231.308 9        53.700                    83524900.58849
        48.400    20397626.96149
  24677840.734 7 129682925.943 7        41.100    24677844.770 5 101051642.79446
        21.500    24677843.36746
  24367186.594 7 128050427.078 7        42.500                    99779556.19946
        22.900    24367188.13346
 17  4 10  1  8  0.0000000  0 12G01G32G08G19G28G17G14G03G11G22G31G23
  20167507.492 9 105980982.405 9        55.200    20167514.891 9  82582635.04749
        50.300    20167514.67249  20167510.246 7  79141674.589 7        43.100
  23387853.734 7 122904027.641 7        44.700    23387860.117 7  95769396.29248
        30.200    23387859.44548  23387855.496 2  91779010.066 2        31.900
  23487074.914 7 123425429.732 7        44.800    23487082.633 7  96175697.93548
        30.200    23487082.14148  23487078.105 2  92168369.395 2        31.900
  24826550.375 6 130464397.939 6        38.200                   101660582.65946
        20.600    24826551.02746
  24172623.336 6 127027984.172 6        39.800                    98982855.40446
        23.800    24172627.18846
  23491535.766 8 123448853.197 8        47.300    23491539.211 7  96193927.69448
        33.700    23491539.26648
  22134532.313 8 116317767.784 8        46.400                    90637241.30649
        35.400    22134535.63349
  21017349.461 9 110446933.890 9        53.800    21017356.117 9  86062573.45649
        46.000    21017355.32849  21017353.582 6  82476627.033 6        40.300
  20357172.563 9 106977690.207 9        51.100                    83359260.95549
        44.100    20357175.73849
  20396601.586 9 107184846.849 9        53.300                    83520704.91049
        48.200    20396602.49249
  24663581.195 6 129607997.599 6        40.600    24663587.055 5 100993257.07246
        21.300    24663585.33646
  24346926.500 6 127943968.177 6        40.500                    99696601.23447
        25.700    24346928.90647
 17  4 10  1  8 30.0000000  0 12G01G32G08G19G28G17G14G03G11G22G31G23
  20167171.727 9 105979218.131 9        53.700    20167178.430 9  82581260.29649
        50.200    20167178.54349  20167174.234 7  79140357.116 7        43.900
  23403056.266 8 122983916.747 8        45.300    23403062.863 7  95831647.54847
        29.400    23403061.91447  23403058.258 3  91838667.529 3        32.200
  23507913.813 7 123534937.192 7        44.000    23507921.148 7  96261028.41548
        30.300    23507919.60548  23507917.152 3  92250144.446 3        32.800
  24806477.266 5 130358915.207 5        35.500                   101578388.31845
        18.300    24806478.03145
  24183287.625 6 127084024.115 6        39.200                    99026522.87846
        22.300    24183291.41046
  23475837.023 8 123366356.308 8        47.200    23475840.465 7  96129644.40048
        33.300    23475840.01648
  22141568.039 8 116354743.833 8        46.100                    90666053.81249
        35.700    22141571.22749
  21007388.719 9 110394589.642 9        53.400    21007395.074 9  86021785.74349
        46.100    21007394.47349  21007392.496 6  82437538.820 6        40.500
  20365743.094 9 107022730.411 9        51.200                    83394357.20349
        44.300    20365746.28549
  20395646.344 9 107179827.018 9        51.400                    83516793.35349
        48.300    20395646.96949
  24649370.031 6 129533316.816 6        40.100    24649375.867 5 100935064.16946
        22.000    24649374.63746
  24326683.938 6 127837586.838 6        40.900                    99613706.70746
        23.400    24326684.76246
 17  4 10  1  9  0.0000000  0 12G01G32G08G19G28G17G14G03G11G22G31G23
  20166913.563 9 105977862.186 9        54.900    20166920.969 9  82580203.71049
        50.100    20166920.55949  20166916.543 7  79139344.564 7        43.000
  23418331.727 7 123064189.806 7        43.700    23418337.688 7  95894197.97948
        30.400    23418336.93448  23418333.395 3  91898611.682 3        32.700
  23528782.703 7 123644605.163 7        43.700    23528790.410 7  96346483.99048
        31.100    23528789.75448  23528786.832 3  92332039.348 3        32.800
  24786446.258 5 130253650.211 5        36.600                   101496363.69945
        19.000    24786446.68045
  24194015.805 6 127140399.486 6        39.600                    99070451.75346
        22.200    24194019.69146
  23460201.828 8 123284192.221 8        47.900    23460205.141 7  96065620.45949
        34.100    23460205.06349
  22148704.594 8 116392243.472 8        47.300                    90695274.33149
        36.000    22148707.34049
  20997495.633 9 110342601.642 9        54.500    20997502.465 9  85981275.63449
        46.200    20997501.29749  20997499.258 6  82398716.627 6        40.800
  20374413.500 9 107068293.256 9        51.600                    83429860.71649
        44.100    20374416.74249
  20394759.961 9 107175170.773 9        53.900                    83513165.10649
        48.200    20394760.55549
  24635207.352 6 129458886.562 6        40.400    24635211.605 5 100877066.62946
        22.600    24635210.78546
  24306454.531 7 127731285.455 7        41.500                    99530874.46246
        23.300    24306455.77346
 17  4 10  1  9 30.0000000  0 12G01G32G08G19G28G17G14G03G11G22G31G23
  20166733.609 9 105976915.346 9        56.200    20166740.477 9  82579465.91249
        50.300    20166740.29749  20166736.102 7  79138637.502 7        43.400
  23433679.797 7 123144844.399 7        43.900    23433685.730 7  95957045.72148
        30.100    23433684.78548  23433681.242 2  91958840.758 2        31.600
  23549681.531 7 123754431.373 7        43.000    23549689.605 7  96432062.83748
        30.200    23549689.32048  23549685.461 3  92414052.411 3        33.200
  24766457.922 6 130148605.889 6        38.000                   101414511.01746
        21.700    24766458.80146
  24204806.750 6 127197107.897 6        39.300                    99114640.08546
        22.500    24204810.25446
  23444630.789 9 123202363.122 9        48.000    23444633.281 7  96001857.51348
        33.700    23444633.02348
  22155939.586 8 116430265.756 8        45.700                    90724902.09949
        35.700    22155943.19549
  20987670.609 9 110290970.492 9        54.100    20987677.637 9  85941043.57649
        46.400    20987676.59449  20987674.848 6  82360160.909 6        40.700
  20383183.148 9 107114377.958 9        50.900                    83465770.86349
        44.100    20383186.16449
  20393943.469 9 107170878.538 9        53.400                    83509820.51449
        48.200    20393944.07449
  24621092.023 6 129384710.127 6        40.300    24621096.902 6 100819266.83546
        23.200    24621096.21546
  24286241.234 7 127625066.108 7        41.200                    99448106.13646
        22.800    24286243.67646
 17  4 10  1 10  0.0000000  0 12G01G32G08G19G28G17G14G03G11G22G31G23
  20166630.844 9 105976378.057 9        53.800    20166638.293 9  82579047.24649
        50.100    20166638.18049  20166634.047 7  79138236.285 7        42.800
  23449099.594 7 123225877.930 7        43.600    23449105.578 7  96020188.73447
        29.200    23449105.06347  23449101.520 2  92019352.820 2        31.700
  23570611.219 7 123864413.293 7        42.200    23570618.309 7  96517763.02347
        29.700    23570617.37147  23570613.688 3  92496181.772 3        32.800
  24746511.227 5 130043785.313 5        36.900                   101332832.61846
        20.900    24746511.55546
  24215661.141 6 127254147.064 6        38.900                    99159086.15646
        21.300    24215664.43846
  23429122.180 8 123120871.228 8        47.200    23429126.270 7  95938357.32748
        33.600    23429125.68848
  22163274.523 8 116468809.134 8        46.200                    90754935.90649
        36.000    22163277.11349
  20977913.305 9 110239696.355 9        54.100    20977920.539 9  85901089.71449
        46.300    20977919.58249  20977917.664 6  82321871.799 6        40.700
  20392052.016 9 107160983.349 9        50.300                    83502086.74449
        44.300    20392055.09449
  20393195.766 9 107166949.292 9        51.200                    83506758.76649
        48.100    20393196.40649
  24607024.891 6 129310790.257 6        40.900    24607030.473 6 100761666.92546
        22.800    24607029.22746
  24266045.758 7 127518930.884 7        43.000                    99365403.38146
        23.900    24266046.99646
 17  4 10  1 10 30.0000000  0 12G01G32G08G19G28G17G14G03G11G22G31G23
  20166607.055 9 105976250.849 9        53.700    20166613.781 9  82578948.12549
        50.200    20166613.46949  20166609.336 7  79138141.291 7        43.300
  23464591.875 7 123307287.784 7        43.200    23464597.988 7  96083624.98047
        29.700    23464597.00447  23464593.230 2  92080145.886 2        31.900
  23591568.992 7 123974548.083 7        42.500    23591576.234 7  96603582.35747
        29.300    23591574.85547  23591571.992 3  92578425.278 3        33.100
  24726606.711 5 129939191.019 5        36.800                   101251330.58946
        20.900    24726608.23046
  24226578.063 6 127311514.007 6        39.100                    99203787.63346
        22.000    24226580.63346
  23413679.859 8 123039719.361 8        47.000    23413683.414 7  95875122.11648
        33.700    23413683.14848
  22170707.828 8 116507872.089 8        45.900                    90785374.58949
        35.900    22170711.25449
  20968224.430 9 110188779.538 9        54.500    20968230.609 9  85861414.29449
        46.400    20968229.94149  20968227.844 6  82283849.521 6        40.600
  20401019.508 9 107208108.435 9        51.100                    83538807.56949
        44.500    20401022.74249
  20392516.664 9 107163382.489 9        51.300                    83503979.44649
        48.400    20392517.73849
  24593008.047 6 129237130.491 6        40.400    24593013.332 6 100704269.73446
        23.000    24593012.60246
  24245864.164 6 127412882.084 6        40.900                    99282767.95546
        22.800    24245866.59046
 17  4 10  1 11  0.0000000  0 12G01G32G08G19G28G17G14G03G11G22G31G23
  20166660.742 9 105976534.352 9        53.800    20166668.309 9  82579169.03549
        50.200    20166668.13749  20166664.063 7  79138352.994 7        43.100
  23480154.859 7 123389071.504 7        43.800    23480161.570 7  96147352.54548
        31.200    23480160.87948  23480156.695 3  92141218.151 3        32.100
  23612555.094 7 124084833.245 7        41.100    23612563.578 7  96689518.82848
        30.600    23612562.81348  23612559.188 3  92660781.061 3        32.800
  24706747.242 6 129834825.444 6        38.800                   101170006.73346
        22.500    24706747.98846
  24237555.461 6 127369206.304 6        38.800                    99248742.67646
        22.200    24237559.23046
  23398302.406 8 122958910.387 8        47.600    23398306.129 7  95812154.07248
        33.000    23398305.64548
  22178239.344 8 116547453.048 8        46.600                    90816216.90049
        35.800    22178243.29749
  20958603.297 9 110138220.458 9        54.200    20958609.992 9  85822017.61449
        46.800    20958608.94549  20958606.910 7  82246094.372 7        41.300
  20410085.625 9 107255752.389 9        50.700                    83575932.72149
        44.400    20410089.09049
  20391906.945 9 107160177.670 9        51.200                    83501482.18149
        48.400    20391908.00849
  24579040.773 6 129163733.727 6        39.400    24579045.863 5 100647077.45546
        21.100    24579044.74246
  24225701.406 6 127306922.195 6        40.800                    99200201.81746
        23.800    24225702.51246
 17  4 10  1 11 30.0000000  0 12G01G32G08G19G28G17G14G03G11G22G31G23
  20166793.250 9 105977229.197 9        54.500    20166800.336 9  82579710.47949
        50.300    20166800.13749  20166796.180 7  79138871.880 7        43.300
  23495788.367 7 123471226.620 7        43.500    23495794.609 7  96211369.51947
        29.300    23495794.09847  23495789.738 2  92202567.759 2        31.800
  23633570.617 7 124195266.398 7        43.700    23633577.594 7  96775570.60348
        30.200    23633576.60948  23633573.105 2  92743247.351 2        31.500
  24686931.844 6 129730691.885 6        38.000                   101088863.66346
        21.700    24686932.44146
  24248595.852 6 127427221.653 6        38.700                    99293949.42546
        22.300    24248599.64546
  23382990.633 8 122878445.975 8        47.500    23382994.703 7  95749454.54348
        32.700    23382994.59448
  22185869.906 8 116587550.862 8        46.700                    90847461.95649
        35.500    22185873.28549
  20949050.352 9 110088019.486 9        54.100    20949057.020 9  85782899.97049
        46.400    20949056.02749  20949054.285 7  82208606.634 7        41.000
  20419250.586 9 107303914.781 9        50.700                    83613461.83949
        44.000    20419254.00049
  20391366.086 9 107157334.290 9        51.200                    83499266.56049
        48.300    20391366.58649
  24565125.438 6 129090602.839 6        40.000    24565130.141 6 100590092.38446
        22.200    24565128.89846
  24205553.781 6 127201053.203 6        39.700                    99117706.53646
        23.500    24205557.28146
 17  4 10  1 12  0.0000000  0 12G01G32G08G19G28G17G14G03G11G22G31G23
  20167003.695 9 105978335.892 9        55.600    20167010.582 9  82580572.83749
        50.300    20167010.10249  20167006.145 7  79139698.308 7        43.600
  23511492.328 7 123553750.538 7        43.400    23511497.820 7  96275673.86847
        29.200    23511497.02747  23511493.430 2  92264192.755 2        31.900
  23654612.523 7 124305844.984 7        43.100    23654620.066 7  96861735.74147
        28.900    23654619.10947  23654615.426 2  92825822.307 2        31.600
  24667159.531 5 129626792.704 5        37.300                   101007903.27046
        20.900    24667161.46546
  24259696.844 6 127485557.476 6        38.400                    99339405.85546
        21.800    24259700.94546
  23367744.883 8 122798328.890 8        47.300    23367748.059 7  95687025.64248
        33.200    23367747.02348
  22193598.617 8 116628164.025 8        45.900                    90879108.58949
        35.400    22193601.96149
  20939565.508 9 110038176.935 9        53.900    20939572.645 9  85744061.63349
        46.800    20939571.79349  20939570.051 7  82171386.556 7        41.100
  20428513.875 9 107352594.200 9        50.500                    83651393.83949
        44.100    20428517.34849
  20390893.547 9 107154851.952 9        53.200                    83497332.27149
        48.400    20390894.46149
  24551260.508 6 129017741.336 6        39.700    24551264.547 5 100533317.17846
        22.200    24551264.15246
  24185426.203 6 127095277.446 6        40.600                    99035283.89847
        25.800    24185428.37547
 17  4 10  1 12 30.0000000  0 12G01G32G08G19G28G17G14G03G11G22G31G23
  20167292.836 9 105979855.154 9        55.000    20167299.980 9  82581756.68349
        50.100    20167299.60549  20167295.590 7  79140832.831 7        43.400
  23527266.023 7 123636640.871 7        42.900    23527272.051 7  96340263.76647
        28.600    23527270.63747  23527267.566 2  92326091.384 2        31.800
  23675682.594 7 124416566.329 7        43.200    23675689.051 7  96948012.12148
        30.000    23675687.82848  23675685.551 3  92908503.816 3        33.100
  24647433.992 6 129523131.071 6        38.600                   100927127.99847
        25.600    24647435.37147
  24270858.219 6 127544210.832 6        38.000                    99385109.74846
        21.300    24270862.04346
  23352565.523 9 122718561.827 9        48.000    23352569.305 7  95624869.48748
        33.300    23352568.44148
  22201424.633 8 116669291.059 8        46.100                    90911155.63449
        36.300    22201428.34049
  20930149.078 9 109988693.240 9        54.500    20930155.730 9  85705502.91449
        46.600    20930155.13749  20930153.453 7  82134434.457 7        41.200
  20437875.953 9 107401789.818 9        50.500                    83689728.07749
        43.900    20437878.84849
  20390489.742 9 107152730.326 9        52.300                    83495679.06049
        48.400    20390490.85549
  24537447.039 6 128945152.015 6        40.500    24537451.398 5 100476754.07546
        21.800    24537449.93846
  24165316.539 7 126989597.348 7        41.800                    98952935.78647
        26.000    24165318.23447
 17  4 10  1 13  0.0000000  0 12G01G32G08G19G28G17G14G03G11G22G31G23
  20167660.555 9 105981787.246 9        53.800    20167667.574 9  82583262.21549
        50.400    20167667.40649  20167663.215 7  79142275.626 7        43.600
  23543108.266 7 123719894.775 7        41.700    23543114.473 7  96405136.92347
        29.300    23543113.50847  23543110.086 2  92388261.505 2        31.900
  23696779.117 7 124527427.896 7        43.200    23696786.434 7  97034397.75448
        31.000    23696785.62948  23696782.883 3  92991290.029 3        33.300
  24627754.195 5 129419709.527 5        37.700                   100846539.79646
        22.600    24627755.74646
  24282080.023 6 127603179.692 6        39.200                    99431059.47646
        20.900    24282083.19546
  23337453.797 9 122639147.249 9        48.300    23337457.238 7  95562987.99149
        34.600    23337456.76249
  22209348.523 8 116710929.953 8        45.800                    90943601.54249
        35.400    22209351.68849
  20920800.969 9 109939568.487 9        53.800    20920807.707 9  85667223.92049
        46.600    20920806.60249  20920805.031 6  82097750.430 6        40.900
  20447335.477 9 107451500.516 9        50.800                    83728463.67149
        43.900    20447338.85249
  20390154.742 9 107150968.298 9        51.300                    83494306.05249
        48.600    20390155.52349
  24523685.992 6 128872837.935 6        40.000    24523690.609 6 100420405.47846
        22.900    24523689.59846
  24145224.258 7 126884014.684 7        42.200                    98870663.57346
        24.800    24145225.98046
 17  4 10  1 13 30.0000000  0 12G01G32G08G19G28G17G14G03G11G22G31G23
  20168106.773 9 105984132.876 9        53.900    20168114.066 9  82585089.97949
        50.400    20168113.97349  20168109.719 7  79144027.244 7        43.300
  23559020.242 7 123803509.921 7        42.900    23559026.137 7  96470291.59647
        29.600    23559025.06647  23559021.645 3  92450701.398 3        32.000
  23717901.039 7 124638427.242 7        41.900    23717908.098 7  97120890.74547
        28.800    23717907.53147  23717903.906 2  93074179.148 2        31.600
  24608120.023 6 129316530.979 6        38.600                   100766140.92946
        23.000    24608121.37146
  24293361.945 6 127662461.348 6        39.300                    99477252.98746
        20.900    24293363.17246
  23322409.156 8 122560087.489 8        47.500    23322412.535 7  95501382.98649
        34.600    23322412.31649
  22217369.258 8 116753079.358 8        45.700                    90976445.23649
        35.800    22217372.23449
  20911521.281 9 109890803.165 9        53.900    20911528.113 9  85629224.97949
        46.700    20911527.43449  20911525.457 7  82061334.775 7        41.100
  20456893.414 9 107501725.573 9        51.200                    83767600.06149
        43.800    20456896.09049
  20389887.563 9 107149565.773 9        51.300                    83493213.17849
        48.400    20389888.67649
  24509977.313 6 128800802.427 6        39.800    24509983.449 6 100364273.90346
        24.000    24509982.19146
  24125150.508 7 126778531.610 7        41.200                    98788468.99247
        25.300    24125152.52347
 17  4 10  1 14  0.0000000  0 12G01G32G08G19G28G17G14G03G11G22G31G23
  20168631.828 9 105986892.595 9        55.400    20168639.109 9  82587240.41849
        50.300    20168638.83649  20168634.879 7  79146088.075 7        43.200
  23574999.164 7 123887483.701 7        41.400    23575005.570 7  96535725.70347
        28.800    23575004.59047  23575001.168 3  92513409.081 3        32.200
  23739049.164 7 124749561.714 7        42.100    23739056.543 7  97207489.03547
        27.400    23739055.10547  23739052.828 3  93157169.181 3        32.800
  24588531.633 5 129213598.215 5        37.000                   100685933.59446
        20.900    24588532.14846
  24304701.188 6 127722053.364 6        40.000                    99523688.27446
        22.800    24304705.14846
  23307432.625 8 122481385.033 8        47.300    23307436.145 7  95440056.40349
        34.200    23307435.61349
  22225486.930 8 116795738.342 8        45.700                    91009686.00849
        35.200    22225490.02749
  20902309.805 9 109842397.508 9        52.500    20902316.691 9  85591506.29349
        46.500    20902315.78949  20902313.809 7  82025187.699 7        41.000
  20466548.242 9 107552463.582 9        50.900                    83807136.16149
        44.000    20466551.22749
  20389689.031 9 107148522.228 9        54.500                    83492400.03649
        48.500    20389689.57849
  24496323.219 6 128729048.146 6        38.500    24496328.871 6 100308361.51346
        22.000    24496328.07846
  24105098.242 7 126673150.648 7        41.100                    98706353.94346
        24.600    24105099.55546
 17  4 10  1 14 30.0000000  0 12G01G32G08G19G28G17G14G03G11G22G31G23
  20169236.039 9 105990066.970 9        53.800    20169243.352 9  82589713.96349
        50.300    20169243.14549  20169239.184 7  79148458.557 7        43.600
  23591046.859 7 123971813.666 7        41.400    23591052.566 7  96601437.37347
        29.300    23591051.88347  23591048.402 1  92576382.778 1        30.100
  23760223.008 7 124860828.478 7        42.600    23760230.203 7  97294190.41448
        30.200    23760229.14548  23760226.164 3  93240257.972 3        32.600
  24568990.914 6 129110914.072 6        38.100                   100605919.99746
        20.600    24568992.17246
  24316100.188 6 127781953.109 6        39.700                    99570363.35446
        22.000    24316104.20346
  23292524.398 9 122403042.365 9        48.000    23292528.234 7  95379010.15849
        35.000    23292527.96149
  22233701.227 8 116838904.783 8        45.700                    91043322.20749
        35.300    22233704.48449
  20893166.984 9 109794351.930 9        53.800    20893173.863 9  85554068.19049
        46.600    20893172.85949  20893170.879 6  81989309.526 6        40.800
  20476301.109 9 107603714.182 9        51.200                    83847071.67949
        43.700    20476304.12949
  20389558.664 9 107147837.085 9        51.400                    83491866.15949
        48.500    20389559.80149
  24482723.086 6 128657578.782 6        39.000    24482727.621 6 100252671.10746
        21.700    24482727.05146
  24085063.695 6 126567874.060 6        39.600                    98624320.25046
        24.600    24085065.73446
 17  4 10  1 15  0.0000000  0 12G01G32G08G19G28G17G14G03G11G22G31G23
  20169919.266 9 105993656.541 9        55.500    20169926.066 9  82592511.03249
        50.300    20169925.81649  20169921.859 7  79151139.086 7        43.500
  23607162.039 7 124056497.217 7        42.400    23607167.219 7  96667424.55647
        29.100    23607166.60547  23607163.008 2  92639620.489 2        31.500
  23781420.461 7 124972225.521 7        42.900    23781428.758 7  97380993.27448
        30.300    23781427.39548  23781424.180 3  93323444.048 3        32.100
  24549499.266 6 129008481.381 6        38.100                   100526102.22746
        22.600    24549500.28946
  24327555.359 6 127842157.999 6        39.200                    99617276.25946
        20.600    24327559.06646
  23277685.008 8 122325061.657 8        47.100    23277688.684 7  95318245.95749
        34.000    23277688.55549
  22242011.328 8 116882577.459 8        45.300                    91077352.85749
        34.800    22242014.64549
  20884092.984 9 109746666.667 9        54.000    20884099.688 9  85516910.85249
        46.600    20884098.62949  20884097.063 7  81953700.415 7        41.100
  20486151.219 9 107655475.934 9        50.600                    83887405.50349
        44.100    20486154.19149
  20389496.281 9 107147509.607 9        53.200                    83491610.98449
        48.500    20389497.26649
  24469177.883 6 128586397.182 6        40.900    24469182.348 5 100197204.95846
        22.000    24469181.39546
  24065049.883 6 126462703.593 6        40.000                    98542369.23846
        24.700    24065052.89146
 17  4 10  1 15 30.0000000  0 12G01G32G08G19G28G17G14G03G11G22G31G23
  20170681.117 9 105997661.586 9        55.000    20170688.184 9  82595631.84949
        50.300    20170687.90249  20170683.828 7  79154129.866 7        43.400
  23623343.086 7 124141531.606 7        42.900    23623349.000 7  96733685.11647
        28.900    23623348.70347  23623344.809 1  92703120.205 1        30.400
  23802642.898 7 125083749.753 7        42.100    23802650.934 7  97467895.25247
        29.600    23802649.88747  23802646.320 1  93406725.135 1        30.600
  24530055.859 6 128906302.825 6        39.400                   100446482.65446
        22.500    24530056.00046
  24339069.063 5 127902665.229 5        37.600                    99664424.70645
        17.800    24339073.32445
  23262915.016 8 122247445.621 8        47.000    23262919.402 7  95257765.94249
        34.000    23262918.83649
  22250417.992 8 116926754.460 8        45.500                    91111776.49649
        35.200    22250421.83249
  20875087.391 9 109699341.858 9        53.800    20875093.926 9  85480034.39449
        46.800    20875092.94549  20875091.434 6  81918360.473 6        40.900
  20496098.188 9 107707747.470 9        51.400                    83928136.56749
        44.100    20496101.36749
  20389502.164 9 107147538.891 9        52.900                    83491633.81949
        48.600    20389502.85249
  24455687.266 6 128515506.068 6        40.000    24455691.828 5 100141965.11046
        21.300    24455691.35546
  24045058.375 7 126357641.803 7        41.700                    98460502.95447
        26.000    24045060.80147
 17  4 10  1 16  0.0000000  0 12G01G32G08G19G28G17G14G03G11G22G31G23
  20171522.547 9 106002082.878 9        56.000    20171529.711 9  82599077.00949
        50.300    20171529.16849  20171525.328 7  79157431.486 7        43.200
  23639591.422 7 124226914.504 7        41.900    23639597.160 7  96800217.24447
        27.900    23639596.48447  23639592.418 2  92766880.160 2        31.000
  23823889.430 7 125195399.004 7        42.400    23823896.258 7  97554894.69547
        29.700    23823895.19147  23823892.566 2  93490099.600 2        31.900
  24510660.703 6 128804381.483 6        39.200                   100367063.43846
        24.400    24510661.69546
  24350641.789 6 127963472.404 6        40.200                    99711806.92646
        21.300    24350644.34446
  23248215.133 8 122170196.726 8        47.500    23248218.465 7  95197572.00849
        34.100    23248217.96949
  22258920.508 8 116971434.218 8        45.500                    91146591.90349
        34.900    22258924.05949
  20866150.422 9 109652377.987 9        53.400    20866157.086 9  85443439.16649
        46.700    20866156.06649  20866154.379 6  81883290.049 6        40.900
  20506141.383 9 107760528.061 9        51.300                    83969264.29549
        43.900    20506144.78149
  20389575.602 9 107147924.815 9        53.900                    83491934.54749
        48.600    20389576.72749
  24442253.641 6 128444908.861 6        40.100    24442258.305 6 100086954.28946
        22.500    24442257.44146
  24025089.039 7 126252690.871 7        43.700                    98378723.01347
        27.000    24025089.22747
 17  4 10  1 16 30.0000000  0 12G01G32G08G19G28G17G14G03G11G22G31G23
  20172443.148 9 106006920.684 9        55.800    20172450.301 9  82602846.73149
        50.200    20172450.00049  20172446.039 7  79161044.135 7        43.400
  23655904.828 7 124312643.099 7        43.300    23655910.195 6  96867018.75247
        28.400    23655909.53147  23655905.406 1  92830898.281 1        29.500
  23845158.617 7 125307170.267 7        42.100    23845166.625 7  97641989.16648
        30.500    23845165.75048  23845162.418 2  93573565.142 2        31.900
  24491314.500 6 128702719.861 6        38.300                   100287846.55946
        21.300    24491315.38346
  24362269.266 6 128024576.855 6        39.500                    99759420.81946
        20.900    24362272.75046
  23233585.508 8 122093317.221 8        47.400    23233589.656 7  95137665.88749
        34.000    23233589.26249
  22267518.531 8 117016615.144 8        45.500                    91181797.81849
        35.000    22267521.62149
  20857281.930 9 109605775.089 9        53.200    20857288.879 9  85407125.22349
        46.900    20857287.87149  20857286.184 7  81848489.193 7        41.100
  20516282.188 9 107813816.526 9        51.400                    84010787.76949
        43.700    20516285.16449
  20389716.680 9 107148666.994 9        54.100                    83492512.87849
        48.600    20389717.48049
  24428875.391 6 128374608.184 6        39.400    24428880.633 6 100032174.57246
        22.600    24428880.00846
  24005137.594 7 126147853.262 7        42.500                    98297031.39847
        27.400    24005139.12947
 17  4 10  1 17  0.0000000  0 12G01G32G08G19G28G17G14G03G11G22G31G23
  20173443.375 9 106012175.801 9        56.800    20173450.637 9  82606941.63349
        50.300    20173450.43049  20173446.238 7  79164968.413 7        43.600
  23672283.336 7 124398715.108 7        42.800    23672289.320 6  96934087.87347
        28.200    23672288.45347  23672285.324 1  92895172.852 1        30.500
  23866450.344 7 125419061.416 7        42.000    23866458.230 7  97729177.07047
        28.800    23866457.55547  23866453.641 2  93657120.213 2        31.200
  24472018.852 5 128601320.740 5        37.100                   100208834.20246
        21.300    24472019.47746
  24373953.414 6 128085976.063 6        39.300                    99807264.31046
        20.400    24373956.80546
  23219026.641 8 122016809.702 8        47.800    23219030.031 7  95078049.64149
        34.800    23219029.59049
  22276210.914 8 117062295.680 8        46.400                    91217393.05149
        34.700    22276213.93049
  20848482.766 9 109559533.764 9        54.100    20848489.211 9  85371093.04649
        47.300    20848488.41049  20848486.547 7  81813958.364 7        41.400
  20526519.023 9 107867611.927 9        51.600                    84052706.25849
        43.700    20526521.75449
  20389925.438 9 107149764.899 9        54.400                    83493368.39249
        48.600    20389926.29749
  24415555.398 6 128304607.625 6        40.200    24415560.629 6  99977628.71446
        24.300    24415559.61746
  23985209.430 7 126043131.090 7        42.200                    98215429.70747
        26.800    23985211.01247
 17  4 10  1 17 30.0000000  0 12G01G32G08G19G28G17G14G03G11G22G31G23
  20174522.719 9 106017848.544 9        53.900    20174529.535 9  82611361.94749
        50.200    20174529.41049  20174525.332 7  79169204.550 7        43.300
  23688727.031 7 124485127.807 7        41.800    23688733.590 7  97001422.43147
        27.000    23688732.53547  23688729.289 1  92959701.800 1        30.800
  23887765.391 6 125531069.923 6        40.800    23887772.648 7  97816456.41447
        28.100    23887771.64547  23887768.434 2  93740762.924 2        31.600
  24452774.219 6 128500187.178 6        39.500                   100130028.87846
        22.900    24452775.72346
  24385693.047 6 128147667.264 6        38.500                    99855335.33945
        18.300    24385695.13345
  23204538.648 8 121940676.441 8        47.700    23204542.156 7  95018725.02349
        34.000    23204541.80949
  22284998.531 8 117108474.267 8        45.800                    91253376.36649
        35.200    22285001.76649
  20839752.117 9 109513654.052 9        54.100    20839758.734 9  85335342.62049
        47.200    20839758.29349  20839756.137 7  81779697.535 7        41.000
  20536852.242 9 107921912.942 9        51.400                    84095018.73249
        43.700    20536855.10949
  20390202.000 9 107151217.666 9        51.400                    83494500.42049
        48.600    20390202.49249
  24402291.563 6 128234909.937 6        39.600    24402296.773 6  99923318.85846
        22.800    24402296.72746
  23965303.578 7 125938526.176 7        41.300                    98133919.37947
        26.600    23965305.09847
 17  4 10  1 18  0.0000000  0 12G01G32G08G19G28G17G14G03G11G22G31G23
  20175681.758 9 106023939.317 9        54.700    20175688.859 9  82616108.01049
        50.300    20175688.66449  20175684.410 7  79173752.857 7        43.300
  23705235.148 7 124571878.555 7        42.200    23705242.137 7  97069020.40747
        27.800    23705241.14547  23705237.254 2  93024483.193 2        31.000
  23909101.406 7 125643192.702 7        42.300    23909109.258 7  97903824.81447
        27.600    23909107.91047  23909105.223 3  93824490.963 3        33.000
  24433579.109 5 128399321.878 5        37.500                   100051432.52446
        22.300    24433581.28546
  24397487.469 6 128209648.167 6        38.700                    99903632.17045
        17.800    24397489.47745
  23190122.969 9 121864920.086 9        48.400    23190126.367 7  94959694.09049
        34.400    23190125.78549
  22293880.422 8 117155149.149 8        45.500                    91289746.40249
        35.200    22293883.77349
  20831090.414 9 109468136.139 9        53.900    20831097.063 9  85299874.12049
        46.700    20831095.93849  20831094.309 7  81745706.892 7        41.100
  20547281.477 9 107976718.376 9        51.800                    84137724.24949
        43.800    20547284.42649
  20390545.867 9 107153024.708 9        51.500                    83495908.51049
        48.400    20390546.82049
  24389086.523 6 128165518.258 6        40.200    24389091.867 6  99869247.41746
        21.300    24389091.48846
  23945420.336 7 125834040.964 7        42.000                    98052502.35247
        25.100    23945422.67247
 17  4 10  1 18 30.0000000  0 12G01G32G08G19G28G17G14G03G11G22G31G23
  20176920.563 9 106030448.743 9        54.500    20176927.469 9  82621180.28849
        50.200    20176927.03149  20176923.133 7  79178613.792 7        42.900
  23721807.633 7 124658964.936 7        41.800    23721812.957 7  97136879.91947
        26.900    23721812.30147  23721808.645 1  93089515.234 1        29.900
  23930459.844 7 125755427.595 7        42.200    23930466.688 7  97991280.57047
        29.100    23930465.69147  23930462.770 3  93908302.694 3        32.400
  24414437.055 6 128298727.739 6        38.200                    99973047.46446
        22.500    24414437.87946
  24409336.063 6 128271915.626 6        39.200                    99952152.26945
        19.000    24409339.03145
  23175779.391 9 121789542.684 9        48.500    23175782.918 7  94900958.44649
        34.700    23175782.48849
  22302856.289 8 117202318.616 8        45.200                    91326501.83749
        34.600    22302859.36749
  20822497.391 9 109422980.467 9        54.100    20822503.906 9  85264687.89949
        47.200    20822502.96149  20822501.508 7  81711986.754 7        41.100
  20557806.352 9 108032027.363 9        51.700                    84180822.14949
        43.800    20557809.41449
  20390956.750 9 107155185.716 9        52.500                    83497592.41849
        48.600    20390957.77749
  24375941.523 7 128096435.682 7        41.300    24375945.559 5  99815416.85446
        24.400    24375944.43446
  23925563.258 7 125729677.811 7        42.800                    97971180.44347
        26.300    23925563.43847
 17  4 10  1 19  0.0000000  0 12G01G32G08G19G28G17G14G03G11G22G31G23
  20178239.047 9 106037377.125 9        56.300    20178245.953 9  82626579.02449
        50.200    20178245.54349  20178241.762 7  79183787.583 7        43.400
  23738442.945 7 124746384.184 7        41.500    23738449.027 6  97204998.85047
        25.600    23738447.39147  23738444.730 1  93154795.858 1        30.500
  23951837.953 7 125867772.275 7        42.600    23951845.113 7  98078821.86547
        29.300    23951844.43447  23951841.336 2  93992196.431 2        31.500
  24395348.172 6 128198407.705 6        39.400                    99894876.03946
        24.100    24395348.00446
  24421239.234 6 128334467.192 6        38.300                   100000893.76445
        18.600    24421242.84045
  23161507.977 9 121714546.868 9        48.600    23161512.000 7  94842520.14049
        34.700    23161511.00049
  22311926.383 8 117249980.980 8        45.200                    91363641.34749
        35.100    22311929.68849
  20813973.445 9 109378187.125 9        54.500    20813980.227 9  85229784.00449
        47.200    20813979.50049  20813977.641 7  81678537.201 7        41.800
  20568426.867 9 108087838.246 9        51.300                    84224311.12349
        43.800    20568429.94949
  20391435.500 9 107157699.997 9        53.800                    83499551.60449
        48.600    20391436.43449
  24362854.086 6 128027664.805 6        40.300    24362858.914 6  99761829.15346
        22.200    24362857.89546
  23905725.664 7 125625438.509 7        43.200                    97889955.04047
        27.000    23905726.31347
 17  4 10  1 19 30.0000000  0 12G01G32G08G19G28G17G14G03G11G22G31G23
  20179637.031 9 106044725.004 9        55.600    20179644.453 9  82632304.64749
        50.500    20179644.19949  20179640.125 7  79189274.633 7        43.800
  23755141.063 7 124834133.767 7        41.300    23755146.688 7  97273375.15347
        27.200    23755145.30547  23755142.469 2  93220323.150 2        31.000
  23973236.445 7 125980223.782 7        44.100    23973243.773 7  98166446.41548
        30.200    23973242.55148  23973239.398 1  94076169.974 1        30.700
  24376309.586 5 128098364.468 5        37.900                    99816920.24547
        25.800    24376311.72747
  24433196.422 6 128397300.275 6        38.800                   100049854.57646
        20.400    24433200.07846
  23147309.797 8 121639934.845 8        47.900    23147313.516 7  94784380.90649
        34.800    23147313.01249
  22321089.766 8 117298134.476 8        45.900                    91401163.54249
        35.200    22321093.37149
  20805518.570 9 109333756.395 9        55.100    20805525.590 9  85195162.67649
        47.300    20805524.94949  20805523.027 7  81645358.427 7        41.500
  20579142.758 9 108144150.483 9        52.100                    84268190.77249
        43.500    20579145.67649
  20391981.016 9 107160566.839 9        53.900                    83501785.50449
        48.500    20391981.89549
  24349827.219 6 127959208.845 6        40.900    24349832.145 6  99708486.85746
        22.600    24349831.55146
  23885913.320 7 125521325.811 7        43.200                    97808828.26847
        26.200    23885914.53147
 17  4 10  1 20  0.0000000  0 12G01G32G08G19G28G17G14G03G11G22G31G23
  20181115.234 9 106052492.816 9        56.500    20181122.512 9  82638357.48449
        50.300    20181122.26649  20181117.957 7  79195075.271 7        43.400
  23771901.586 7 124922211.131 7        41.900    23771907.504 7  97342006.85147
        28.000    23771907.25447  23771903.594 1  93286095.197 1        30.300
  23994655.102 7 126092779.295 7        42.700    23994662.680 7  98254152.01447
        28.900    23994661.53147  23994658.434 1  94160221.187 1        30.900
  24357324.563 5 127998600.825 5        37.500                    99739182.38346
        22.600    24357326.96946
  24445205.664 5 128460412.582 5        37.800                   100099032.95245
        19.300    24445210.01645
  23133184.664 9 121565709.312 9        48.000    23133189.082 7  94726542.82149
        35.000    23133188.44549
  22330345.719 8 117346777.430 8        45.500                    91439067.14349
        34.700    22330349.32849
  20797132.578 9 109289688.469 9        54.500    20797139.180 9  85160824.05849
        47.300    20797138.57049  20797136.766 7  81612450.593 7        41.800
  20589953.453 9 108200962.562 9        51.000                    84312459.91249
        43.700    20589956.72749
  20392593.633 9 107163785.456 9        52.200                    83504293.52449
        48.300    20392594.23849
  24336861.914 7 127891070.814 7        41.600    24336866.098 5  99655392.31346
        22.200    24336865.43046
  23866126.102 7 125417341.510 7        43.600                    97727801.53647
        27.300    23866127.43847
 17  4 10  1 20 30.0000000  0 12G01G32G08G19G28G17G14G03G11G22G31G23
  20182673.617 9 106060681.078 9        56.300    20182680.754 9  82644737.94149
        50.300    20182680.25049  20182676.176 7  79201189.873 7        43.400
  23788723.844 7 125010613.751 7        42.800    23788730.176 6  97410892.00347
        27.600    23788729.10247  23788726.207 2  93352110.122 2        31.200
  24016093.602 7 126205436.883 7        42.900    24016100.516 7  98341937.11147
        28.300    24016099.59447  24016096.438 2  94244348.579 2        31.800
  24338394.953 6 127899119.718 6        38.800                    99661664.65646
        24.100    24338395.95746
  24457268.813 6 128523800.824 6        39.900                   100148426.42045
        18.600    24457271.40645
  23119134.453 9 121491872.672 9        48.900    23119138.246 8  94669007.78049
        35.600    23119138.10249
  22339695.289 8 117395908.207 8        45.600                    91477350.87249
        35.400    22339698.76249
  20788816.133 9 109245983.681 9        53.600    20788822.492 9  85126768.41149
        47.300    20788821.68849  20788820.473 7  81579813.935 7        42.000
  20600859.359 9 108258273.289 9        51.800                    84357117.61049
        43.500    20600862.43049
  20393272.969 9 107167355.865 9        52.900                    83507075.66249
        48.500    20393273.87949
  24323956.422 6 127823253.865 6        40.900    24323961.281 5  99602547.98446
        22.000    24323960.74646
  23846362.727 7 125313487.870 7        43.900                    97646876.61747
        27.300    23846364.02747
 17  4 10  1 21  0.0000000  0 12G01G32G08G19G28G17G14G03G11G22G31G23
  20184311.688 9 106069290.283 9        56.100    20184318.527 9  82651446.40349
        50.200    20184318.34449  20184314.207 7  79207618.821 7        43.200
  23805608.023 7 125099339.100 7        42.400    23805613.840 6  97480028.64247
        26.900    23805612.62547  23805609.438 1  93418366.070 1        30.700
  24037549.984 7 126318193.723 7        43.600    24037557.707 7  98429799.58547
        28.600    24037556.41447  24037552.965 2  94328550.105 2        31.000
  24319517.828 5 127799923.902 5        37.500                    99584369.20346
        22.500    24319518.48046
  24469383.406 6 128587462.678 6        40.500                   100198033.10145
        17.800    24469385.27745
  23105158.211 9 121418427.128 9        48.700    23105162.602 7  94611777.46749
        35.600    23105161.61349
  22349137.227 8 117445525.193 8        45.000                    91516013.46849
        35.100    22349140.88749
  20780568.461 9 109202642.274 9        54.500    20780574.938 9  85092995.89249
        47.400    20780573.95349  20780572.207 7  81547448.611 7        41.400
  20611860.156 9 108316081.589 9        51.400                    84402163.02949
        43.800    20611863.29749
  20394019.219 9 107171277.308 9        53.800                    83510131.33349
        48.500    20394020.07449
  24311112.727 7 127755760.948 7        41.800    24311117.844 6  99549956.10346
        22.500    24311116.97746
  23826625.750 7 125209767.018 7        42.900                    97566055.20547
        27.900    23826627.71147
 17  4 10  1 21 30.0000000  0 12G01G32G08G19G28G17G14G03G11G22G31G23
  20186030.102 9 106078320.559 9        55.600    20186037.082 9  82658482.98749
        50.300    20186036.75049  20186032.676 7  79214362.210 7        43.300
  23822552.125 7 125188384.277 7        42.500    23822558.730 6  97549414.50747
        26.700    23822557.94547  23822554.055 1  93484860.860 1        29.300
  24059024.523 7 126431047.311 7        41.800    24059032.484 6  98517737.43747
        26.700    24059031.27347  24059028.469 2  94412823.885 2        31.100
  24300697.250 6 127701016.018 6        39.300                    99507298.14346
        23.200    24300697.33646
  24481548.875 6 128651395.329 6        39.200                   100247850.76345
        18.600    24481552.45745
  23091256.695 9 121345375.373 9        48.200    23091260.270 7  94554854.02249
        35.100    23091259.57449
  22358670.727 8 117495626.237 8        45.600                    91555053.23449
        34.800    22358674.21149
  20772389.977 9 109159664.138 9        54.500    20772396.828 9  85059506.42849
        47.800    20772395.60949  20772393.750 7  81515354.538 7        41.600
  20622954.930 9 108374386.055 9        51.800                    84447595.07249
        43.900    20622958.01249
  20394831.984 9 107175548.468 9        52.800                    83513459.51449
        48.500    20394832.99249
  24298332.039 7 127688594.873 7        42.000    24298336.051 5  99497618.91346
        22.200    24298335.35546
  23806913.891 7 125106181.155 7        43.100                    97485338.94947
        27.900    23806915.65247
 17  4 10  1 22  0.0000000  0 12G01G32G08G19G28G17G14G03G11G22G31G23
  20187828.828 9 106087772.535 9        56.100    20187835.852 9  82665848.15649
        50.300    20187835.65649  20187831.641 7  79221420.501 7        43.400
  23839557.656 7 125277746.925 7        42.300    23839563.414 6  97619047.73647
        27.800    23839562.31647  23839559.008 2  93551592.710 2        31.000
  24080518.766 7 126543994.923 7        42.900    24080526.602 7  98605748.56547
        29.400    24080525.55947  24080522.816 3  94497167.873 3        32.600
  24281930.102 6 127602399.312 6        38.300                    99430453.95146
        22.800    24281931.35246
  24493765.680 6 128715596.126 6        38.900                   100297877.27246
        20.900    24493770.39846
  23077430.617 8 121272719.239 8        47.600    23077434.840 7  94498238.85549
        35.500    23077434.15249
  22368296.719 8 117546209.784 8        45.600                    91594468.98449
        34.600    22368299.78149
  20764280.672 9 109117049.722 9        55.200    20764287.371 9  85026300.39849
        47.600    20764286.61349  20764284.633 7  81483532.093 7        41.100
  20634144.203 9 108433185.385 9        51.900                    84493412.71749
        43.900    20634147.45349
  20395711.281 9 107180169.597 9        54.000                    83517060.39549
        48.500    20395712.18849
  24285613.555 7 127621758.720 7        42.100    24285617.461 6  99445538.82046
        22.600    24285616.64146
  23787228.219 7 125002732.852 7        43.000                    97404729.90247
        27.300    23787229.95747
 17  4 10  1 22 30.0000000  0 12G01G32G08G19G28G17G14G03G11G22G31G23
  20189707.859 9 106097646.609 9        55.700    20189714.988 9  82673542.23249
        50.300    20189714.66849  20189710.883 7  79228793.983 7        42.700
  23856622.820 7 125367424.380 7        43.200    23856629.051 6  97688926.27247
        27.500    23856628.13747  23856624.832 2  93618559.630 2        31.000
  24102028.945 7 126657034.273 7        43.700    24102037.023 7  98693831.16647
        28.700    24102035.59047  24102032.844 3  94581580.349 3        32.600
  24263220.469 6 127504076.269 6        38.300                    99353838.62746
        24.400    24263221.61346
  24506033.570 6 128780062.302 6        39.500                   100348110.63046
        21.300    24506038.36346
  23063680.734 9 121200461.598 9        48.200    23063684.406 7  94441934.19549
        35.400    23063683.84449
  22378014.109 7 117597273.848 7        44.900                    91634259.17249
        34.700    22378017.12949
  20756240.883 9 109074799.176 9        55.300    20756247.559 9  84993377.90149
        47.600    20756246.75049  20756244.828 7  81451981.358 7        41.400
  20645427.359 9 108492478.246 9        51.800                    84539614.94149
        43.400    20645430.46549
  20396657.125 9 107185139.648 9        52.500                    83520933.16349
        48.400    20396657.98449
  24272958.141 7 127555255.394 7        41.400    24272962.715 5  99393718.04446
        22.600    24272962.05946
  23767569.313 7 124899424.051 7        43.600                    97324229.55147
        28.500    23767570.94547
 17  4 10  1 23  0.0000000  0 12G01G32G08G19G28G17G14G03G11G22G31G23
  20191667.164 9 106107943.139 9        56.000    20191674.207 9  82681565.50249
        50.200    20191673.86749  20191669.969 7  79236482.947 7        42.900
  23873747.219 7 125457414.095 7        43.100    23873753.531 6  97759048.10747
        26.400    23873753.04347  23873748.914 1  93685759.735 1        30.400
  24123557.734 7 126770162.350 7        43.400    24123564.559 7  98781982.90347
        27.800    24123563.62547  24123560.410 3  94666059.085 3        32.000
  24244567.047 6 127406050.002 6        40.300                    99277454.51946
        24.600    24244567.72746
  24518351.164 6 128844791.185 6        39.500                   100398548.79745
        17.400    24518354.24245
  23050006.578 8 121128604.218 8        47.800    23050010.188 7  94385941.42149
        35.000    23050009.51649
  22387822.078 8 117648817.025 8        45.800                    91674422.68149
        34.500    22387825.57449
  20748270.242 9 109032912.661 9        54.500    20748276.625 9  84960739.03949
        47.700    20748275.59449  20748274.023 7  81420702.454 7        41.300
  20656803.953 9 108552263.482 9        52.500                    84586200.83849
        43.000    20656807.19549
  20397669.156 9 107190458.001 9        54.500                    83525077.33849
        48.400    20397670.14549
  24260366.336 6 127489087.757 6        40.200    24260371.605 5  99342158.88946
        22.600    24260369.81646
  23747937.547 7 124796256.855 7        43.200                    97243839.55947
        28.500    23747938.43447
 17  4 10  1 23 30.0000000  0 12G01G32G08G19G28G17G14G03G11G22G31G23
  20193707.063 9 106118662.594 9        55.600    20193714.051 9  82689918.31749
        50.200    20193713.80549  20193709.730 7  79244487.734 7        43.400
  23890930.273 7 125547713.457 7        43.400    23890936.598 6  97829411.25947
        26.200    23890935.60947  23890932.539 1  93753191.096 1        29.600
  24145100.586 7 126883377.168 7        42.400    24145108.270 7  98870202.29047
        28.200    24145106.98447  24145103.945 2  94750602.659 2        31.300
  24225968.992 6 127308323.167 6        38.700                    99201303.69646
        22.300    24225969.97746
  24530716.844 5 128909780.265 5        37.000                   100449189.61845
        16.300    24530719.77345
  23036409.586 9 121057149.878 9        49.400    23036413.109 7  94330262.71649
        36.100    23036412.82449
  22397721.469 8 117700837.364 8        45.800                    91714958.00949
        34.500    22397724.73049
  20740368.578 9 108991390.515 9        55.000    20740375.215 9  84928384.13149
        47.800    20740374.28149  20740372.422 7  81389695.666 7        41.100
  20668274.438 9 108612540.027 9        52.500                    84633169.57749
        44.000    20668277.26249
  20398747.516 9 107196124.646 9        52.900                    83529492.91249
        48.400    20398748.30149
  24247839.578 6 127423258.942 6        40.300    24247844.188 6  99290863.72446
        22.600    24247843.68046
  23728331.766 7 124693233.756 7        42.600                    97163561.81847
        26.900    23728334.14847
 17  4 10  1 24  0.0000000  0 12G01G32G08G19G28G17G14G03G11G22G31G23
  20195827.484 9 106129805.346 9        56.200    20195834.328 9  82698600.97549
        50.300    20195834.14149  20195830.242 7  79252808.606 7        43.200
  23908172.633 7 125638319.855 7        43.400    23908178.367 6  97900013.66947
        25.200    23908177.22747  23908174.156 1  93820851.733 1        30.000
  24166660.797 7 126996676.056 7        41.200    24166668.871 7  98958487.08947
        29.000    24166667.87547  24166664.484 2  94835208.948 2        31.700
  24207429.883 5 127210898.567 5        37.100                    99125388.44046
        22.500    24207430.51246
  24543133.234 6 128975026.624 6        38.000                   100500030.92845
        16.900    24543137.01245
  23022889.641 9 120986100.920 9        49.800    23022893.152 7  94274899.89349
        35.500    23022892.61749
  22407711.273 8 117753332.731 8        45.400                    91755863.49348
        33.800    22407714.18848
  20732536.375 9 108950232.771 9        54.700    20732542.855 9  84896313.17449
        47.500    20732541.87949  20732540.367 7  81358961.007 7        41.300
  20679837.680 9 108673306.325 9        52.200                    84680519.93849
        43.400    20679840.72349
  20399891.797 9 107202138.554 9        53.400                    83534179.07049
        48.400    20399892.39849
  24235377.336 7 127357771.845 7        42.000    24235383.410 6  99239834.82747
        26.200    24235382.85247
  23708755.531 7 124590356.765 7        43.000                    97083397.93947
        28.200    23708757.44147
 17  4 10  1 24 30.0000000  0 12G01G32G08G19G28G17G14G03G11G22G31G23
  20198028.500 9 106141371.534 9        56.200    20198035.039 9  82707613.57249
        50.200    20198034.75049  20198030.734 7  79261445.679 7        43.300
  23925472.664 7 125729230.592 7        43.200    23925478.461 7  97970853.19747
        26.700    23925478.04347  23925473.977 1  93888739.622 1        30.500
  24188235.891 6 127110056.035 6        40.100    24188244.387 6  99046835.10447
        27.500    24188243.56647  24188240.527 2  94919875.787 2        31.300
  24188949.594 6 127113778.849 6        39.100                    99049710.75746
        24.800    24188951.35546
  24555598.438 6 129040527.555 6        38.700                   100551070.61646
        21.300    24555601.85246
  23009446.484 9 120915460.009 9        48.200    23009450.047 7  94219855.03549
        35.500    23009449.81649
  22417790.539 8 117806301.416 8        45.100                    91797137.80049
        34.300    22417793.59049
  20724773.891 9 108909439.456 9        54.900    20724780.578 9  84864526.19149
        48.000    20724779.77349  20724777.852 7  81328498.479 7        41.500
  20691494.141 9 108734560.861 9        51.800                    84728250.75049
        43.300    20691497.20749
  20401102.273 9 107208498.816 9        53.900                    83539135.12249
        48.400    20401102.96549
  24222981.492 7 127292629.479 7        41.500    24222986.805 6  99189074.55346
        22.600    24222985.84446
  23689206.711 7 124487627.986 7        42.700                    97003349.56247
        29.100    23689208.28547
 17  4 10  1 25  0.0000000  0 12G01G32G08G19G28G17G14G03G11G22G31G23
  20200310.227 9 106153361.724 9        56.400    20200317.500 9  82716956.56349
        50.300    20200317.12549  20200313.051 7  79270399.378 7        42.800
  23942828.852 7 125820443.072 7        41.600    23942835.398 6  98041927.85946
        24.900    23942835.07846  23942832.008 1  93956852.817 1        30.200
  24209826.938 6 127223514.975 6        39.200    24209833.961 7  99135244.67647
        25.400    24209832.69947  24209829.016 1  95004601.613 1        29.200
  24170526.484 6 127016967.141 6        39.300                    98974273.06147
        26.600    24170528.16047
  24568110.141 5 129106280.451 5        35.800                   100602306.58745
        18.300    24568115.28945
  22996082.430 9 120845229.216 9        49.400    22996085.973 7  94165129.73449
        36.100    22996085.17649
  22427959.977 8 117859741.595 8        45.200                    91838779.50749
        34.000    22427963.03949
  20717080.367 9 108869010.821 9        55.500    20717086.730 9  84833023.34949
        47.800    20717085.93849  20717084.074 7  81298308.258 7        41.200
  20703243.234 9 108796302.312 9        51.300                    84776360.95849
        43.300    20703245.82849
  20402378.242 9 107215205.004 9        53.900                    83544360.72749
        48.300    20402378.97749
  24210651.578 7 127227834.442 7        42.000    24210656.254 5  99138584.92746
        22.300    24210653.91046
  23669686.703 7 124385049.415 7        42.800                    96923418.23647
        29.400    23669688.51247
 17  4 10  1 25 30.0000000  0 12G01G32G08G19G28G17G14G03G11G22G31G23
  20202672.461 9 106165776.381 9        56.600    20202679.313 9  82726630.31749
        50.100    20202679.19149  20202675.059 7  79279670.057 7        43.100
  23960243.992 7 125911954.920 7        43.200    23960249.355 6  98113235.78546
        24.700    23960248.26646  23960245.195 1  94025189.573 1        30.800
  24231432.602 7 127337050.267 7        41.400    24231440.133 7  99223713.71847
        28.900    24231438.88747  24231435.203 2  95089384.476 2        31.300
  24152162.742 6 126920466.467 6        39.700                    98899077.70946
        23.400    24152162.60246
  24580669.648 5 129172282.523 5        36.000                   100653736.77545
        17.400    24580673.78145
  22982796.313 9 120775410.065 9        48.600    22982799.691 7  94110725.21849
        35.800    22982799.22349
  22438218.602 8 117913651.486 8        45.800                    91880787.21149
        34.700    22438222.20749
  20709456.359 9 108828947.198 9        54.400    20709463.242 9  84801804.92849
        47.700    20709462.25049  20709460.387 7  81268390.599 7        41.300
  20715084.563 9 108858529.718 9        52.100                    84824849.83549
        43.300    20715087.78149
  20403720.469 9 107222256.707 9        53.600                    83549855.55149
        48.300    20403721.13349
  24198388.008 7 127163389.848 7        42.600    24198393.121 5  99088368.40646
        24.200    24198392.05946
  23650195.383 7 124282623.773 7        43.600                    96843606.05348
        30.500    23650197.32448
 17  4 10  1 26  0.0000000  0 12G01G32G08G19G28G17G14G03G11G22G31G23
  20205115.805 9 106178615.762 9        56.700    20205122.797 9  82736635.02149
        50.300    20205122.47349  20205118.398 7  79289257.901 7        43.400
  23977713.531 7 126003763.412 7        42.100    23977719.617 6  98184774.89846
        24.500    23977718.52746  23977715.105 1  94093747.886 1        28.900
  24253051.258 6 127450659.095 6        40.300    24253059.211 7  99312240.04947
        29.700    24253058.28147  24253055.477 3  95174222.222 3        32.600
  24133859.688 6 126824279.520 6        38.900                    98824126.84246
        22.300    24133858.80546
  24593277.656 6 129238531.174 6        38.900                   100705359.09845
        17.800    24593280.17645
  22969588.867 8 120706005.763 8        47.800    22969592.512 7  94056643.93649
        36.400    22969592.13349
  22448566.688 8 117968029.089 8        45.800                    91923159.37349
        34.100    22448569.77049
  20701902.313 9 108789248.649 9        55.200    20701908.891 9  84770870.98949
        47.800    20701907.85249  20701905.988 7  81238745.575 7        41.400
  20727018.273 9 108921241.602 9        51.400                    84873716.22249
        43.100    20727021.45349
  20405127.648 9 107229653.031 9        53.100                    83555618.92949
        48.300    20405128.58249
  24186191.797 7 127099298.692 7        42.600    24186197.445 5  99038427.21246
        24.700    24186196.49246
  23630734.617 7 124180352.826 7        43.800                    96763914.42247
        29.300    23630735.66447
 17  4 10  1 26 30.0000000  0 12G01G32G08G19G28G17G14G03G11G22G31G23
  20207639.898 9 106191880.168 9        57.200    20207647.031 9  82746970.91149
        50.200    20207646.57049  20207642.848 7  79299163.122 7        43.500
  23995240.172 7 126095865.907 7        41.100    23995246.797 6  98256543.08047
        25.300    23995245.21947  23995242.148 1  94162525.751 1        29.200
  24274683.938 6 127564339.272 6        40.900    24274690.500 6  99400821.99447
        25.600    24274689.61347  24274686.809 1  95259113.210 1        30.400
  24115616.219 6 126728408.876 6        38.800                    98749422.49147
        26.000    24115616.61347
  24605930.398 5 129305023.382 5        35.800                   100757171.20045
        19.300    24605933.23045
  22956460.836 8 120637018.598 8        47.900    22956464.500 7  94002887.71649
        36.100    22956464.00449
  22459002.703 8 118022872.387 8        46.000                    91965894.40649
        34.200    22459005.78949
  20694417.617 9 108749915.277 9        55.200    20694424.141 9  84740221.61049
        48.000    20694423.33249  20694421.117 7  81209373.252 7        41.500
  20739043.883 9 108984436.343 9        51.200                    84922958.85549
        43.400    20739046.95749
  20406600.961 9 107237393.417 9        53.700                    83561650.40149
        48.400    20406601.91449
  24174063.750 7 127035563.833 7        41.400    24174068.203 5  98988763.70546
        22.200    24174067.34046
  23611302.297 7 124078238.830 7        42.900                    96684345.07547
        29.200    23611304.42647
 17  4 10  1 27  0.0000000  0 12G01G32G08G19G28G17G14G03G11G22G31G23
  20210244.961 9 106205569.920 9        56.100    20210252.148 9  82757638.23249
        50.200    20210251.54349  20210247.469 7  79309385.966 7        42.700
  24012822.086 6 126188259.791 6        39.800    24012828.941 7  98328538.30347
        27.100    24012828.13347  24012824.238 1  94231521.168 1        30.400
  24296330.016 7 127678088.229 7        42.000    24296337.520 7  99489457.59347
        27.800    24296336.42247  24296331.977 1  95344055.653 1        29.700
  24097433.063 6 126632857.371 6        39.500                    98674966.78547
        26.000    24097433.77047
  24618629.234 5 129371756.405 5        37.100                   100809170.93046
        20.100    24618633.87946
  22943412.969 9 120568450.659 9        48.000    22943416.805 7  93949458.15549
        36.500    22943416.42649
  22469527.102 8 118078179.744 8        45.000                    92008991.04948
        33.900    22469530.44548
  20687002.008 9 108710947.205 9        55.200    20687008.609 9  84709856.88049
        48.200    20687007.70749  20687005.609 7  81180273.708 7        41.600
  20751161.180 9 109048112.621 9        50.500                    84972576.72749
        43.400    20751164.37149
  20408138.914 9 107245477.146 9        53.500                    83567949.40849
        48.300    20408139.89549
  24162003.891 7 126972188.070 7        42.300    24162008.465 5  98939380.02846
        24.100    24162007.19946
  23591901.164 7 123976284.025 7        43.600                    96604899.79248
        30.000    23591903.10948
 17  4 10  1 27 30.0000000  0 12G01G32G08G19G28G17G14G03G11G22G31G23
  20212930.992 9 106219685.472 9        56.200    20212938.336 9  82768637.34849
        50.200    20212938.15249  20212934.074 7  79319926.784 7        43.200
  24030459.703 6 126280942.602 6        40.600    24030465.617 6  98400758.65547
        26.400    24030465.07047  24030461.469 1  94300732.346 1        29.700
  24317987.516 6 127791903.194 6        40.500    24317995.918 7  99578144.55047
        27.900    24317995.32847  24317991.938 3  95429047.361 3        33.400
  24079310.469 6 126537628.114 6        38.900                    98600762.12046
        23.900    24079311.70346
  24631373.586 6 129438727.646 6        38.700                   100861356.32945
        19.300    24631375.64545
  22930445.195 9 120500304.160 9        49.100    22930448.871 8  93896356.99349
        36.800    22930448.47349
  22480140.148 7 118133949.271 7        44.900                    92052447.80848
        33.700    22480143.02348
  20679656.141 9 108672344.695 9        54.500    20679662.555 9  84679777.00649
        48.200    20679661.50049  20679659.930 7  81151447.167 7        41.400
  20763369.633 9 109112269.213 9        50.800                    85022568.87049
        43.000    20763372.44949
  20409742.375 9 107253903.884 9        53.600                    83574515.70149
        48.300    20409743.12149
  24150012.531 7 126909174.369 7        42.800    24150017.559 6  98890278.47547
        27.100    24150016.70747
  23572530.711 7 123874490.599 7        43.200                    96525580.26248
        30.200    23572532.96548
 17  4 10  1 28  0.0000000  0 12G01G32G08G19G28G17G14G03G11G22G31G23
  20215698.313 9 106234227.102 9        55.800    20215705.488 9  82779968.47749
        50.100    20215705.36349  20215701.172 7  79330785.784 7        43.300
  24048151.328 7 126373911.650 7        41.100    24048156.465 6  98473202.08647
        25.100    24048156.19147  24048152.770 1  94370157.286 1        30.000
  24339658.289 6 127905781.929 6        39.900    24339665.832 6  99666881.17547
        25.800    24339665.21947  24339662.707 3  95514086.585 3        32.400
  24061251.297 6 126442723.795 6        39.800                    98526810.70447
        25.600    24061252.14147
  24644161.781 5 129505934.295 5        35.500                   100913725.14545
        17.400    24644164.72745
  22917557.703 9 120432581.679 9        48.300    22917561.496 7  93843586.22649
        36.500    22917561.33249
  22490840.070 8 118190179.091 8        45.300                    92096263.25648
        33.800    22490842.98048
  20672379.852 9 108634107.789 9        54.400    20672386.531 9  84649982.01449
        48.100    20672385.80549  20672383.828 7  81122893.643 7        41.800
  20775669.266 9 109176904.768 9        51.400                    85072934.22849
        43.100    20775672.09449
  20411411.125 9 107262673.023 9        53.300                    83581348.80049
        48.300    20411411.83249
  24138090.867 7 126846525.540 7        42.500    24138095.801 6  98841461.21146
        23.600    24138095.18046
  23553190.531 7 123772860.646 7        43.500                    96446388.08448
        30.400    23553193.11748
 17  4 10  1 28 30.0000000  0 12G01G32G08G19G28G17G14G03G11G22G31G23
  20218546.711 9 106249195.153 9        56.400    20218553.770 9  82791631.88349
        50.300    20218553.56349  20218549.195 7  79341963.206 7        43.300
  24065896.273 6 126467164.419 6        39.600    24065901.953 6  98545866.59946
        24.700    24065901.48446  24065897.828 1  94439794.111 1        29.700
  24361340.477 6 128019721.811 6        40.700    24361347.922 6  99755665.56447
        26.500    24361346.66047  24361343.273 1  95599171.563 1        29.800
  24043254.273 6 126348147.470 6        39.500                    98453114.90646
        24.600    24043254.42246
  24656994.211 2 129573373.738 2        31.900                   100966275.31845
        17.800    24656998.62145
  22904752.156 9 120365285.271 9        49.100    22904755.965 7  93791147.46449
        36.100    22904755.48849
  22501627.375 8 118246867.205 8        45.200                    92140435.80648
        33.200    22501630.81348
  20665173.320 9 108596236.669 9        55.400    20665179.801 9  84620472.04649
        48.400    20665179.11749  20665177.082 7  81094613.256 7        41.600
  20788060.047 9 109242017.636 9        51.500                    85123671.52249
        43.100    20788063.02049
  20413144.844 9 107271784.039 9        53.500                    83588448.29949
        48.400    20413145.84449
  24126239.172 7 126784244.477 7        42.700    24126243.781 5  98792930.53746
        24.200    24126242.60946
  23533882.859 7 123671396.555 7        43.500                    96367325.16548
        30.700    23533884.94148
 17  4 10  1 29  0.0000000  0 12G01G32G08G19G28G17G14G03G11G22G31G23
  20221476.133 9 106264589.858 9        55.700    20221483.273 9  82803627.74849
        50.300    20221482.92649  20221478.852 7  79353459.243 7        43.400
  24083695.680 6 126560698.220 6        39.400    24083701.273 6  98618750.06346
        24.000    24083700.29346  24083697.043 1  94509640.779 1        29.600
  24383033.742 6 128133720.219 6        40.600    24383041.418 7  99844495.45547
        28.500    24383040.48047  24383036.035 1  95684300.287 1        30.400
  24025319.539 6 126253901.734 6        39.200                    98379676.65047
        25.300    24025320.10947
  24669873.086 5 129641043.403 5        37.600                   101019004.81746
        20.600    24669876.65246
  22892027.570 9 120298417.240 9        48.400    22892030.895 7  93739042.50149
        35.600    22892030.70749
  22512501.602 8 118304011.525 8        45.900                    92184963.84848
        32.600    22512505.28548
  20658036.320 9 108558731.401 9        55.800    20658042.977 9  84591247.17049
        48.600    20658041.96549  20658040.160 7  81066606.072 7        41.900
  20800541.117 9 109307606.036 9        51.700                    85174779.35449
        42.800    20800544.16449
  20414943.578 9 107281235.971 9        53.000                    83595813.44849
        48.300    20414944.75849
  24114458.289 7 126722333.932 7        41.400    24114462.684 5  98744688.57246
        23.400    24114461.19946
  23514606.930 7 123570100.469 7        44.100                    96288393.17548
        30.400    23514608.51648
 17  4 10  1 29 30.0000000  0 12G01G32G08G19G28G17G14G03G11G22G31G23
  20224487.094 9 106280411.291 9        56.200    20224494.078 9  82815956.13249
        50.200    20224494.03549  20224490.016 7  79365273.942 7        43.200
  24101546.836 6 126654510.222 6        40.000    24101553.281 6  98691850.32846
        24.700    24101552.39546  24101549.090 2  94579695.197 2        31.400
  24404737.742 7 128247774.600 7        41.400    24404745.262 7  99933368.92747
        27.800    24404744.24247  24404741.145 3  95769470.708 3        32.400
  24007449.102 6 126159989.117 6        39.400                    98306498.00447
        27.500    24007450.99247
  24682793.867 5 129708939.681 5        37.100                   101071911.00245
        18.300    24682796.21545
  22879384.930 9 120231979.916 9        48.700    22879388.414 7  93687273.15849
        36.000    22879388.17649
  22523462.500 8 118361609.930 8        46.000                    92229845.72948
        33.000    22523465.70348
  20650969.008 9 108521591.834 9        55.800    20650975.648 9  84562307.24549
        48.300    20650974.94149  20650972.848 7  81038871.985 7        41.800
  20813112.273 9 109373668.616 9        50.100                    85226256.67449
        42.900    20813115.44949
  20416807.180 9 107291027.928 9        52.100                    83603443.54549
        48.300    20416807.77049
  24102747.828 7 126660796.804 7        42.200    24102753.156 6  98696737.57546
        23.800    24102751.76246
  23495363.609 7 123468974.093 7        44.100                    96209593.42548
        31.300    23495365.62548
 17  4 10  1 30  0.0000000  0 12G01G32G08G19G28G17G14G03G11G22G31G23
  20227578.828 9 106296659.952 9        55.900    20227586.051 9  82828617.41249
        50.200    20227585.93449  20227581.742 7  79377407.666 7        43.000
  24119451.242 6 126748598.077 6        39.800    24119457.074 6  98765165.54747
        25.500    24119456.25047  24119452.828 1  94649955.580 1        30.100
  24426451.141 7 128361882.176 7        41.200    24426458.262 6 100022283.94446
        24.700    24426457.20746  24426454.758 2  95854680.866 2        31.100
  23989641.750 6 126066412.806 6        39.700                    98233581.42447
        25.100    23989643.03547
  24695756.945 5 129777060.493 5        36.800                   101124992.19445
        17.400    24695757.55945
  22866824.703 9 120165975.167 9        49.000    22866828.180 7  93635840.88549
        35.900    22866827.19949
  22534509.008 8 118419660.774 8        45.000                    92275080.16948
        33.600    22534512.25048
  20643971.008 9 108484818.303 9        55.200    20643977.684 9  84533652.54349
        48.400    20643976.91049  20643975.105 7  81011411.227 7        41.200
  20825773.883 9 109440204.304 9        50.900                    85278102.63949
        43.100    20825776.64849
  20418735.063 9 107301159.419 9        53.200                    83611338.22649
        48.200    20418736.14849
  24091109.672 7 126599636.016 7        42.500    24091114.188 6  98649079.85346
        23.900    24091113.15246
  23476152.430 7 123368019.803 7        44.300                    96130927.74248
        30.600    23476153.81648
 17  4 10  1 30 30.0000000  0 12G01G32G08G19G28G17G14G03G11G22G31G23
  20230752.344 9 106313336.011 9        55.900    20230759.816 9  82841611.73149
        50.200    20230759.37149  20230755.590 7  79389860.551 7        43.600
  24137407.453 6 126842959.048 6        39.200    24137413.477 6  98838693.57446
        22.600    24137413.08246  24137409.250 1  94720419.934 1        29.600
  24448174.336 7 128476040.873 7        41.400    24448182.691 6 100111238.81447
        26.500    24448181.93847  24448176.379 1  95939929.299 1        28.000
  23971900.273 6 125973175.556 6        40.500                    98160928.95847
        25.100    23971899.34447
  24708760.625 5 129845402.931 5        35.900                   101178246.06145
        18.300    24708763.53945
  22854347.156 9 120100405.616 9        48.500    22854350.598 7  93584747.73049
        36.300    22854350.26249
  22545641.570 8 118478161.828 8        45.100                    92320665.40048
        33.500    22545644.58248
  20637042.891 9 108448410.786 9        55.500    20637049.543 9  84505283.04749
        48.400    20637048.61749  20637046.758 7  80984223.798 7        41.300
  20838524.539 9 109507211.266 9        50.800                    85330315.84049
        42.800    20838527.63349
  20420727.391 9 107311629.640 9        52.600                    83619496.84249
        48.200    20420728.07849
  24079542.438 7 126538853.916 7        41.800    24079547.969 6  98601717.24346
        24.700    24079546.82046
  23456974.852 7 123267239.772 7        44.100                    96052397.87148
        30.200    23456976.42248
 17  4 10  1 31  0.0000000  0 12G01G32G08G19G28G17G14G03G11G22G31G23
  20234007.211 9 106330439.884 9        56.200    20234014.035 9  82854939.41049
        50.200    20234013.58649  20234009.746 7  79402632.904 7        43.000
  24155415.125 6 126937590.734 6        38.300    24155421.750 6  98912432.55247
        26.000    24155421.10547  24155416.742 1  94791086.468 1        28.500
  24469908.273 7 128590247.985 7        43.000    24469916.277 7 100200231.28147
        28.900    24469915.86747  24469911.832 3  96025213.836 3        32.000
  23954221.180 6 125880280.294 6        38.300                    98088543.04447
        25.600    23954223.23447
  24721807.789 5 129913963.980 5        36.200                   101231670.24846
        20.900    24721811.25046
  22841952.641 9 120035273.435 9        48.100    22841956.348 7  93533995.37449
        37.000    22841956.14849
  22556859.188 8 118537111.059 8        45.400                    92366599.86848
        33.000    22556862.62948
  20630184.492 9 108412369.595 9        56.000    20630191.145 9  84477199.00349
        48.500    20630190.37949  20630188.340 7  80957309.922 7        41.400
  20851365.078 9 109574688.413 9        51.200                    85382895.42149
        42.600    20851368.11349
  20422784.031 9 107322438.148 9        52.700                    83627919.06349
        48.000    20422785.14149
  24068049.063 7 126478453.798 7        42.800    24068052.879 5  98554652.24847
        25.000    24068052.45747
  23437830.469 7 123166636.452 7        43.900                    95974005.68548
        31.600    23437832.64548
 17  4 10  1 31 30.0000000  0 12G01G32G08G19G28G17G14G03G11G22G31G23
  20237343.328 9 106347971.887 9        56.100    20237350.535 9  82868600.69749
        50.000    20237350.27749  20237346.027 7  79415724.976 7        43.000
  24173473.859 6 127032490.563 6        39.400    24173480.426 6  98986380.46346
        24.300    24173480.29346  24173475.754 1  94861953.242 1        29.000
  24491650.258 7 128704501.006 7        41.800    24491656.504 6 100289259.59946
        23.800    24491656.07446  24491653.387 3  96110532.588 3        32.000
  23936610.219 6 125787729.838 6        39.500                    98016425.85747
        26.800    23936611.98047
  24734896.367 4 129982741.47314        34.500                   101285262.99355
        17.800    24734899.32845
  22829642.477 9 119970580.950 9        48.800    22829646.465 7  93483585.64649
        36.600    22829645.99649
  22568161.313 8 118596506.871 8        46.400                    92412882.32548
        32.700    22568164.82848
  20623395.680 9 108376694.789 9        55.500    20623402.703 9  84449400.46049
        48.300    20623401.90649  20623399.516 7  80930669.649 7        41.600
  20864294.883 9 109642633.960 9        50.200                    85435839.99949
        42.600    20864298.11749
  20424905.156 9 107333584.701 9        52.200                    83636604.70249
        48.100    20424906.24249
  24056628.164 7 126418438.352 7        42.700    24056633.020 6  98507886.98146
        24.800    24056632.53146
  23418720.414 7 123066211.784 7        44.300                    95895752.71448
        30.700    23418721.71948
 17  4 10  1 32  0.0000000  0 12G01G32G08G19G28G17G14G03G11G22G31G23
  20240761.047 9 106365932.025 9        56.500    20240767.938 9  82882595.60449
        50.200    20240767.66049  20240763.586 7  79429136.761 7        43.500
  24191583.555 6 127127655.703 6        40.500    24191589.785 7  99060535.09047
        25.400    24191589.03147  24191585.785 1  94933018.102 1        29.700
  24513399.203 6 128818797.514 6        40.000    24513406.168 6 100378321.86546
        24.700    24513404.93846  24513401.199 1  96195883.841 1        29.700
  23919064.273 6 125695526.898 6        39.200                    97944579.38247
        25.600    23919065.52047
  24748024.133 6 130051732.057 6        38.300                   101339021.94045
        18.600    24748027.06645
  22817415.898 9 119906330.024 9        48.100    22817419.266 7  93433519.99949
        37.400    22817419.12549
  22579549.055 8 118656346.780 8        46.000                    92459510.83648
        33.500    22579552.60548
  20616676.820 9 108341386.234 9        54.300    20616683.699 9  84421887.30849
        48.600    20616682.60249  20616680.797 7  80904302.872 7        41.700
  20877313.102 9 109711046.376 9        49.800                    85489148.36449
        42.600    20877316.42249
  20427090.617 9 107345068.252 9        51.300                    83645552.91949
        48.200    20427091.18849
  24045281.219 7 126358810.362 7        42.100    24045286.527 6  98461423.64646
        24.900    24045285.42646
  23399644.836 7 122965967.745 7        44.400                    95817640.48448
        30.900    23399645.80548
 17  4 10  1 32 30.0000000  0 12G01G32G08G19G28G17G14G03G11G22G31G23
  20244260.289 9 106384320.733 9        56.200    20244267.445 9  82896924.47249
        50.200    20244267.00449  20244262.754 7  79442868.597 7        43.200
  24209743.164 6 127223083.693 6        40.900    24209748.832 6  99134894.56746
        22.500    24209748.12146  24209745.051 1  95004279.253 1        30.000
  24535156.383 6 128933134.719 6        40.100    24535165.203 7 100467415.79847
        27.400    24535163.87147  24535158.898 1  96281265.620 1        28.600
  23901585.125 5 125603674.326 5        37.900                    97873005.93447
        26.300    23901587.81347
  24761193.031 5 130120932.600 5        37.600                   101392944.50346
        20.900    24761196.30546
  22805273.250 8 119842523.024 8        47.900    22805277.129 7  93383800.25249
        37.100    22805276.66449
  22591019.977 8 118716629.247 8        45.700                    92506484.19648
        33.500    22591023.53948
  20610027.461 9 108306444.150 9        55.000    20610034.273 9  84394659.69749
        48.500    20610033.38749  20610031.582 7  80878209.753 7        42.100
  20890420.391 9 109779924.012 9        49.700                    85542819.24149
        42.700    20890423.51249
  20429339.836 9 107356888.108 9        52.100                    83654763.19949
        48.000    20429340.69549
  24034009.609 7 126299572.497 7        43.400    24034013.879 6  98415264.33447
        25.300    24034012.95747
  23380603.641 7 122865906.949 7        44.200                    95739671.05048
        32.300    23380605.34848
 17  4 10  1 33  0.0000000  0 12G01G32G08G19G28G17G14G03G11G22G31G23
  20247841.172 9 106403138.116 9        56.000    20247848.680 9  82911587.37149
        50.300    20247848.31349  20247844.121 7  79456920.536 7        42.900
  24227951.688 7 127318771.913 7        41.300    24227957.691 6  99209456.82546
        22.300    24227956.60546  24227953.770 1  95075734.747 1        29.300
  24556922.773 6 129047510.164 6        39.700    24556930.004 7 100556539.46347
        25.700    24556929.41047  24556926.254 3  96366675.813 3        32.200
  23884174.148 6 125512175.003 6        38.000                    97801707.78847
        25.300    23884174.82447
  24774401.180 5 130190340.900 5        35.500                   101447028.87245
        19.000    24774403.79745
  22793216.203 9 119779162.488 9        49.100    22793220.266 8  93334428.40849
        37.100    22793219.91849
  22602575.492 8 118777351.877 8        45.800                    92553800.54048
        33.300    22602578.39848
  20603447.945 9 108271868.551 9        55.200    20603454.742 9  84367717.67349
        48.500    20603453.88349  20603452.020 7  80852390.311 7        42.400
  20903615.320 9 109849265.272 9        49.600                    85596851.37249
        42.800    20903618.34849
  20431652.914 9 107369043.422 9        51.800                    83664234.88149
        48.100    20431653.56349
  24022810.445 7 126240727.733 7        42.300    24022815.719 6  98369411.28346
        23.000    24022814.72746
  23361597.406 7 122766031.026 7        44.300                    95661845.66748
        31.700    23361599.14848
 17  4 10  1 33 30.0000000  0 12G01G32G08G19G28G17G14G03G11G22G31G23
  20251503.539 9 106422384.289 9        56.100    20251510.688 9  82926584.37349
        50.100    20251510.37549  20251506.242 7  79471292.661 7        43.500
  24246209.922 7 127414717.656 7        41.600    24246216.645 6  99284219.77746
        24.400    24246215.61346  24246211.953 1  95147382.552 1        29.600
  24578694.016 6 129161921.773 6        40.400    24578701.109 6 100645691.37346
        22.800    24578699.43046  24578697.508 2  96452112.955 2        31.100
  23866830.133 6 125421031.458 6        39.700                    97730686.83947
        25.100    23866830.01647
  24787647.453 4 130259954.298 4        34.800                   101501272.96845
        19.000    24787650.65245
  22781244.805 9 119716250.238 9        48.200    22781248.215 7  93285405.87449
        36.900    22781248.05149
  22614213.648 8 118838512.501 8        45.700                    92601458.18248
        32.300    22614216.35548
  20596938.258 9 108237659.404 9        55.000    20596944.922 9  84341061.19149
        48.700    20596943.88749  20596942.086 7  80826844.512 7        42.000
  20916898.742 9 109919068.663 9        50.400                    85651243.60949
        42.300    20916901.98049
  20434029.609 9 107381533.696 9        52.500                    83673967.57849
        48.100    20434030.37949
  24011688.500 7 126182278.701 7        42.900    24011692.809 5  98323866.64346
        22.900    24011691.76246
  23342627.930 8 122666342.184 8        45.300                    95584166.05948
        31.600    23342629.11348
 17  4 10  1 34  0.0000000  0 12G01G32G08G19G28G17G14G03G11G22G31G23
  20255247.570 9 106442059.595 9        56.100    20255254.453 9  82941915.74949
        50.200    20255254.01249  20255249.938 7  79485985.227 7        43.400
  24264515.836 6 127510918.447 6        39.700    24264522.129 6  99359181.42347
        25.900    24264521.35247  24264517.988 1  95219220.806 1        28.700
  24600471.547 6 129276366.597 6        39.100    24600479.648 7 100734869.21547
        26.000    24600478.63747  24600473.547 1  96537575.090 1        27.900
  23849554.234 6 125330246.788 6        39.600                    97659945.53447
        27.100    23849555.59447
  24800933.523 5 130329769.393 5        36.100                   101555674.31245
        16.900    24800936.54345
  22769358.773 9 119653788.494 9        48.100    22769362.289 7  93236734.38149
        36.700    22769361.52349
  22625935.219 8 118900109.122 8        45.100                    92649455.56548
        33.100    22625938.11348
  20590498.328 9 108203816.900 9        54.500    20590504.918 9  84314690.41549
        48.800    20590503.96549  20590502.043 7  80801572.523 7        41.800
  20930269.359 9 109989332.710 9        49.800                    85705994.82049
        42.500    20930272.67649
  20436470.094 9 107394358.501 9        51.700                    83683960.94649
        48.000    20436470.57449
  24000641.914 7 126124228.030 7        42.300    24000646.359 5  98278632.40646
        24.600    24000645.28146
  23323693.320 8 122566842.840 8        46.000                    95506634.11248
        32.800    23323695.35248
 17  4 10  1 34 30.0000000  0 12G01G32G08G19G28G17G14G03G11G22G31G23
  20259073.461 9 106462164.289 9        56.400    20259080.379 9  82957581.71949
        50.000    20259080.09849  20259075.906 7  79500998.444 7        42.800
  24282869.836 6 127607371.780 6        39.600    24282876.328 6  99434339.83846
        22.500    24282875.52046  24282872.566 1  95291247.629 1        28.700
  24622256.406 6 129390842.461 6        39.600    24622263.848 6 100824071.10247
        25.700    24622263.14847  24622259.234 1  96623060.329 1        29.600
  23832346.758 6 125239823.569 6        38.700                    97589485.88246
        24.000    23832348.09446
  24814256.547 6 130399783.696 6        38.100                   101610231.00245
        19.900    24814260.34445
  22757558.953 9 119591779.465 9        48.700    22757562.328 7  93188415.66349
        36.200    22757561.20349
  22637739.359 8 118962139.900 8        45.500                    92697791.24848
        33.000    22637742.69148
  20584128.117 9 108170341.106 9        55.300    20584134.461 9  84288605.39549
        48.700    20584133.71149  20584131.730 7  80776574.379 7        41.800
  20943727.727 9 110060055.889 9        49.700                    85761103.79749
        42.600    20943730.94549
  20438973.859 9 107407517.082 9        51.100                    83694214.40249
        48.000    20438974.90649
  23989670.992 7 126066578.284 7        42.000    23989676.438 6  98233710.54846
        22.800    23989675.41446
  23304795.445 8 122467535.015 8        46.000                    95429251.40248
        32.100    23304796.87948
 17  4 10  1 35  0.0000000  0 12G01G32G08G19G28G17G14G03G11G22G31G23
  20262981.227 9 106482698.661 9        56.000    20262988.035 9  82973582.52049
        50.000    20262987.77349  20262983.758 7  79516332.533 7        42.700
  24301272.313 6 127704075.090 6        40.300    24301278.945 6  99509693.07546
        23.400    24301277.99646  24301274.102 1  95363461.135 1        29.100
  24644045.828 6 129505346.454 6        40.300    24644052.434 6 100913295.00546
        24.300    24644051.74246  24644049.934 3  96708566.497 3        33.100
  23815209.195 6 125149764.882 6        38.400                    97519310.26747
        25.800    23815210.88747
  24827616.453 5 130469994.566 5        36.400                   101664940.74145
        18.300    24827620.94545
  22745845.461 8 119530225.292 8        47.900    22745849.324 7  93140451.36549
        36.800    22745848.83649
  22649625.211 8 119024602.905 8        45.100                    92746463.71948
        32.700    22649628.50048
  20577827.594 9 108137232.136 9        54.900    20577834.371 9  84262806.21249
        48.700    20577833.45349  20577831.477 7  80751850.169 7        41.800
  20957272.750 9 110131236.401 9        49.800                    85816569.13049
        42.500    20957276.12549
  20441541.398 9 107421008.856 9        51.900                    83704727.49149
        47.900    20441542.21149
  23978778.086 7 126009332.506 7        43.500    23978783.121 6  98189103.49247
        25.300    23978782.02347
  23285934.875 8 122368421.036 8        47.100                    95352019.75648
        32.500    23285937.17648
 17  4 10  1 35 30.0000000  0 12G01G32G08G19G28G17G14G03G11G22G31G23
  20266970.406 9 106503662.662 9        56.600    20266977.539 9  82989918.09449
        50.200    20266976.93049  20266972.914 7  79531987.460 7        43.000
  24319722.234 6 127801025.602 6        40.800    24319727.848 6  99585238.91846
        23.000    24319726.71546  24319722.590 1  95435859.244 1        27.900
  24665839.969 6 129619876.299 6        39.200    24665847.332 6 101002539.11046
        24.200    24665845.67246  24665843.102 1  96794091.989 1        28.500
  23798142.469 6 125060073.619 6        39.700                    97449420.96247
        28.900    23798144.50447
  24841014.781 5 130540398.895 5        36.500                   101719801.23545
        16.900    24841018.05545
  22734219.047 9 119469127.908 9        49.200    22734222.652 7  93092843.01749
        37.500    22734222.23049
  22661593.945 7 119087495.807 7        44.500                    92795471.18448
        32.700    22661596.92648
  20571597.000 9 108104489.822 9        55.000    20571603.379 9  84237292.73249
        48.900    20571602.77349  20571600.738 7  80727399.746 7        41.500
  20970904.813 9 110202872.714 9        50.400                    85872389.64249
        41.800    20970907.46149
  20444172.086 9 107434832.842 9        51.600                    83715499.43249
        48.000    20444172.89549
  23967961.711 7 125952493.174 7        42.700    23967967.305 6  98144813.14047
        25.200    23967966.28147
  23267110.992 8 122269502.644 8        46.700                    95274940.49848
        31.800    23267112.96948
 17  4 10  1 36  0.0000000  0 12G01G32G08G19G28G17G14G03G11G22G31G23
  20271041.773 9 106525056.583 9        56.400    20271048.598 9  83006588.67249
        50.200    20271048.25849  20271044.238 7  79547963.431 7        43.200
  24338217.594 6 127898220.829 6        39.400    24338223.801 6  99660975.47746
        22.900    24338222.82846  24338218.406 1  95508440.114 1        28.500
  24687638.609 6 129734429.577 6        39.500    24687646.984 7 101091801.34747
        26.900    24687645.88347  24687640.793 1  96879635.114 1        27.500
  23781143.977 6 124970751.971 6        39.200                    97379819.69947
        26.400    23781146.38347
  24854448.133 4 130610993.880 4        34.600                   101774810.25444
        14.800    24854450.97344
  22722679.883 9 119408489.877 9        48.900    22722683.207 7  93045592.59149
        37.100    22722682.68049
  22673642.898 7 119150816.663 7        44.700                    92844812.11548
        32.100    22673646.57448
  20565436.219 9 108072114.233 9        53.900    20565443.004 9  84212064.99349
        49.100    20565442.00049  20565440.078 7  80703223.162 7        41.300
  20984622.969 9 110274963.082 9        49.800                    85928563.96449
        42.300    20984626.04349
  20446865.773 9 107448988.490 9        51.600                    83726529.81549
        48.000    20446866.96149
  23957223.375 7 125896063.136 7        42.000    23957228.063 6  98100841.71647
        25.600    23957227.40247
  23248325.172 8 122170782.080 8        47.300                    95198015.39148
        33.300    23248327.04348
