     2.11           OBSERVATION DATA    G (GPS)             RINEX VERSION / TYPE
teqc  2019Feb12                         20210105 00:30:18UTCPGM / RUN BY / DATE
ZIMM                                                        MARKER NAME
14001M004                                                   MARKER NUMBER
TRIMBLE NETR9       SWISSTOPO                               OBSERVER / AGENCY
5429R49141          TRIMBLE NETR9       5.45                REC # / TYPE / VERS
99390               TRM29659.00     NONE                    ANT # / TYPE
  4331297.3480   567555.6390  4633133.7280                  APPROX POSITION XYZ
        0.0000        0.0000        0.0000                  ANTENNA: DELTA H/E/N
     1     1                                                WAVELENGTH FACT L1/2
    10    C1    L1    S1    C2    L2    S2    P2    C5    L5# / TYPES OF OBSERV
          S5                                                # / TYPES OF OBSERV
    30.0000                                                 INTERVAL
Linux 2.4.21-27.ELsmp|Opteron|gcc -static|Linux 64|=+       COMMENT
     2.11           OBSERVATION DATA    M (MIXED)           COMMENT
NetR9 5.45          Receiver Operator   20210104 000000 UTC COMMENT
L2C CARRIER PHASE MEASUREMENTS: PHASE SHIFTS REMOVED        COMMENT
L2C PHASE MATCHES L2 P PHASE                                COMMENT
GLONASS C/A & P PHASE MATCH: PHASE SHIFTS REMOVED           COMMENT
Forced Modulo Decimation to 30 seconds                      COMMENT
teqc edited: all GLONASS satellites excluded                COMMENT
teqc edited: all Galileo satellites excluded                COMMENT
  2021     1     4     0     0    0.0000000     GPS         TIME OF FIRST OBS
                                                            END OF HEADER
 21  1  4  0  0  0.0000000  0 11G21G23G16G07G15G26G08G18G10G27G20
  23355677.688 7 122734922.335 7        42.800                    95637617.99347
        27.600    23355680.80147
  21565390.852 8 113326913.847 8        47.000    21565395.430 9  88306705.98649
        38.900    21565395.15249  21565395.652 6  84627274.800 6        39.700
  21775329.742 8 114430117.021 8        47.300                    89166356.59949
        38.800    21775333.25449
  24716518.805 5 129886177.605 5        35.900    24716523.641 5 101210010.66345
        18.600    24716523.19945
  24562888.563 5 129078853.388 5        36.400    24562892.961 5 100580946.12147
        29.600    24562892.64547
  23904498.859 6 125618991.012 6        39.800    23904506.375 7  97884961.17549
        36.900    23904506.12549  23904501.590 2  93806447.040 2        31.300
  21852650.969 8 114836467.729 8        46.600    21852657.750 8  89483000.44049
        49.900    21852656.36349  21852652.840 6  85754555.391 6        39.100
  23735160.336 6 124729127.238 6        40.000    23735164.328 7  97191547.20346
        24.700    23735163.08246  23735165.074 3  93141890.305 3        33.700
  21011806.750 9 110417802.255 9        53.200    21011812.656 9  86039875.75949
        55.200    21011812.35949  21011807.930 7  82454849.110 7        41.100
  20195035.719 9 106125662.004 9        50.600    20195042.035 9  82695345.80349
        55.600    20195041.05149  20195037.672 7  79249744.900 7        43.300
  21552831.344 8 113260907.885 8        46.300                    88255272.41449
        37.100    21552834.30149
 21  1  4  0  0 30.0000000  0 11G21G23G16G07G15G26G08G18G10G27G20
  23341450.242 7 122660156.945 7        42.500                    95579359.26247
        27.700    23341453.55547
  21573770.242 8 113370947.729 8        47.000    21573774.828 9  88341018.11249
        38.800    21573774.30149  21573775.023 6  84660157.247 6        38.900
  21791185.992 8 114513442.425 8        47.500                    89231285.46049
        38.700    21791189.59449
  24721263.422 6 129911102.282 6        38.400    24721267.086 5 101229432.48446
        21.700    24721266.28146
  24567235.758 5 129101697.242 5        36.300    24567239.883 5 100598746.55547
        29.300    24567238.82047
  23925461.383 6 125729154.409 6        38.700    23925469.699 6  97970802.76649
        36.100    23925469.28549  23925464.789 2  93888711.864 2        31.500
  21838704.445 8 114763179.512 8        46.700    21838711.594 8  89425892.74249
        49.900    21838710.23449  21838706.988 6  85699827.196 6        38.400
  23753324.820 6 124824585.880 6        39.200    23753329.289 7  97265930.54446
        24.400    23753328.60246  23753330.145 3  93213174.301 3        33.300
  21007326.063 9 110394256.765 9        53.000    21007332.082 9  86021528.63649
        55.000    21007331.90649  21007327.215 7  82437266.435 7        41.000
  20193481.797 9 106117496.040 9        50.500    20193487.844 9  82688982.70749
        55.400    20193487.12949  20193483.770 7  79243646.929 7        43.400
  21562637.055 8 113312436.953 8        46.600                    88295424.94249
        37.500    21562639.87549
 21  1  4  0  1  0.0000000  0 11G21G23G16G07G15G26G08G18G10G27G20
  23327260.273 7 122585588.992 7        42.200                    95521254.38947
        29.100    23327263.43047
  21582253.266 8 113415525.468 8        47.200    21582257.504 9  88375754.00849
        38.700    21582257.17249  21582258.070 6  84693445.813 6        39.700
  21807118.609 9 114597166.780 9        48.200                    89296525.20649
        38.500    21807121.68049
  24726094.648 5 129936495.402 5        37.000    24726099.230 5 101249219.30046
        20.900    24726097.94946
  24571691.672 5 129125116.712 5        35.400    24571696.176 5 100616995.49147
        28.300    24571695.04347
  23946443.938 6 125839414.262 6        39.000    23946451.762 7  98056719.52649
        36.500    23946451.41849  23946447.383 3  93971048.738 3        32.000
  21824802.508 8 114690123.631 8        46.800    21824809.488 8  89368966.07549
        50.100    21824808.19149  21824804.543 6  85645272.479 6        39.000
  23771501.703 6 124920108.266 6        39.400    23771506.855 7  97340363.54647
        25.500    23771506.24647  23771507.379 3  93284505.944 3        32.700
  21002953.648 9 110371280.655 9        52.300    21002959.828 9  86003625.17449
        55.500    21002959.82849  21002954.633 7  82420108.961 7        41.100
  20192007.695 9 106109749.459 9        50.900    20192013.852 9  82682946.40649
        55.600    20192013.12949  20192009.602 7  79237862.163 7        43.400
  21572535.367 8 113364453.656 8        47.100                    88335957.44049
        37.300    21572538.42649
 21  1  4  0  1 30.0000000  0 11G21G23G16G07G15G26G08G18G10G27G20
  23313107.352 7 122511219.117 7        41.800                    95463303.88747
        27.600    23313110.91847
  21590839.195 8 113460645.610 8        46.600    21590843.531 9  88410912.57049
        38.200    21590843.10249  21590844.215 6  84727139.439 6        39.800
  21823126.063 9 114681288.190 9        48.100                    89362074.34649
        38.700    21823129.34449
  24731015.203 5 129962355.705 5        37.000    24731020.359 5 101269370.20746
        21.500    24731019.07846
  24576257.023 5 129149111.474 5        35.500    24576262.313 5 100635692.72947
        28.900    24576262.03547
  23967443.320 6 125949768.427 6        39.200    23967451.535 7  98142709.75749
        36.800    23967451.27349  23967446.848 2  94053456.038 2        31.900
  21810944.852 8 114617301.971 8        46.800    21810952.078 9  89312221.92449
        50.000    21810950.85549  21810947.098 6  85590892.680 6        39.200
  23789691.688 6 125015693.459 6        39.900    23789696.102 7  97414845.49747
        26.400    23789695.61747  23789696.496 3  93355884.490 3        32.700
  20998690.055 9 110348874.816 9        52.900    20998696.199 9  85986166.09149
        55.300    20998696.15249  20998690.961 6  82403377.313 6        40.900
  20190613.680 9 106102423.408 9        50.500    20190619.805 9  82677237.79549
        55.200    20190619.15649  20190615.586 7  79232391.385 7        44.000
  21582526.516 8 113416956.128 8        46.500                    88376868.45849
        36.900    21582529.23449
 21  1  4  0  2  0.0000000  0 11G21G23G16G07G15G26G08G18G10G27G20
  23298993.531 7 122437047.433 7        43.200                    95405507.77847
        27.700    23298996.66047
  21599528.242 8 113506306.105 8        47.300    21599532.793 9  88446492.17849
        38.400    21599531.92249  21599532.996 6  84761236.563 6        39.500
  21839209.117 8 114765804.023 8        47.500                    89427930.82049
        38.500    21839212.00449
  24736025.883 6 129988681.105 6        38.900    24736030.184 5 101289883.47746
        22.300    24736029.27346
  24580934.094 5 129173680.871 5        37.100    24580937.535 5 100654837.70548
        30.500    24580937.45348
  23988461.727 6 126060214.112 6        39.900    23988468.262 6  98228771.33249
        36.900    23988467.86749  23988463.602 2  94135931.720 2        31.100
  21797132.281 8 114544715.606 8        47.000    21797139.285 9  89255661.13049
        50.200    21797138.16049  21797134.301 6  85536688.562 6        39.700
  23807892.820 6 125111340.031 6        39.700    23807897.254 7  97489375.28847
        26.000    23807896.79347  23807898.207 3  93427308.862 3        32.800
  20994534.992 9 110327039.463 9        52.900    20994541.086 9  85969151.54149
        55.400    20994540.88749  20994536.000 6  82387071.729 6        40.900
  20189299.570 9 106095518.258 9        50.600    20189305.781 9  82671857.15349
        55.400    20189305.14849  20189301.406 7  79227234.942 7        43.300
  21592609.352 8 113469942.602 8        46.200                    88418156.61849
        37.200    21592612.43449
 21  1  4  0  2 30.0000000  0 11G21G23G16G07G15G26G08G18G10G27G20
  23284916.797 7 122363074.182 7        42.900                    95347866.31247
        27.700    23284920.41847
  21608319.828 8 113552505.006 8        47.400    21608324.039 9  88482491.33049
        38.700    21608323.56649  21608324.461 6  84795735.748 6        39.100
  21855366.344 8 114850711.415 8        47.500                    89494092.41549
        38.500    21855369.77349
  24741123.430 6 130015470.239 6        39.200    24741127.180 5 101310758.08446
        22.000    24741127.31346
  24585718.266 6 129198823.989 6        38.100    24585722.152 5 100674429.77248
        30.400    24585721.83248
  24009495.258 6 126170748.681 6        40.400    24009502.617 7  98314902.18249
        37.200    24009502.16049  24009497.895 1  94218473.796 1        30.600
  21783364.344 8 114472366.068 8        47.400    21783371.418 9  89199284.88549
        50.300    21783370.53549  21783366.941 6  85482661.357 6        39.300
  23826104.438 6 125207046.572 6        39.100    23826109.270 7  97563951.77546
        24.300    23826109.00446  23826110.289 3  93498777.97413        32.600
  20990488.430 9 110305774.984 9        53.100    20990494.438 9  85952581.82049
        55.100    20990494.20349  20990489.746 7  82371192.423 7        41.300
  20188065.789 9 106089034.692 9        50.800    20188071.906 9  82666805.02049
        55.000    20188071.46549  20188067.734 7  79222393.325 7        43.100
  21602784.102 8 113523411.359 8        46.100                    88459820.59849
        36.700    21602787.14549
 21  1  4  0  3  0.0000000  0 11G21G23G16G07G15G26G08G18G10G27G20
  23270877.844 7 122289299.466 7        41.700                    95290379.56147
        27.200    23270880.50047
  21617212.898 8 113599240.461 8        47.200    21617217.391 9  88518908.56749
        38.100    21617216.78149  21617217.793 6  84830635.605 6        39.400
  21871597.961 8 114936008.102 8        47.500                    89560557.34849
        37.600    21871601.16049
  24746309.320 6 130042721.406 6        38.400    24746312.887 4 101331992.75845
        19.900    24746312.12545
  24590611.508 6 129224540.302 6        38.100    24590616.090 5 100694468.42648
        30.900    24590615.39548
  24030546.047 6 126281369.635 6        39.900    24030553.039 6  98401100.32349
        37.300    24030552.49649  24030548.039 1  94301080.330 1        30.500
  21769642.250 8 114400255.033 8        47.100    21769649.570 8  89143094.46349
        50.500    21769648.10949  21769644.637 6  85428812.175 6        39.200
  23844328.086 6 125302811.877 6        40.000    23844332.633 7  97638574.06146
        23.000    23844332.41046  23844333.242 3  93570291.053 3        32.800
  20986550.703 9 110285081.837 9        53.200    20986556.863 9  85936457.28949
        55.100    20986556.58249  20986551.707 7  82355739.745 7        41.700
  20186912.125 9 106082973.400 9        51.400    20186918.555 9  82662081.93449
        56.000    20186918.09049  20186914.434 7  79217867.027 7        43.200
  21613050.117 8 113577360.043 8        46.000                    88501858.52949
        37.100    21613053.21949
 21  1  4  0  3 30.0000000  0 11G21G23G16G07G15G26G08G18G10G27G20
  23256876.555 7 122215724.145 7        41.900                    95233048.20147
        26.000    23256880.07047
  21626208.617 8 113646511.074 8        47.300    21626212.738 9  88555742.81849
        38.000    21626212.16849  21626212.660 6  84865935.088 6        38.700
  21887903.109 8 115021692.448 8        47.200                    89627324.35149
        38.300    21887906.14149
  24751581.789 5 130070433.623 5        37.700    24751586.238 4 101353586.65645
        19.300    24751585.73845
  24595615.492 6 129250829.571 6        38.400    24595618.953 5 100714953.57048
        30.800    24595618.17648
  24051611.906 6 126392074.937 6        38.800    24051619.473 7  98487364.19549
        36.200    24051618.84449  24051615.164 1  94383749.89711        30.700
  21755965.703 9 114328384.543 9        48.200    21755972.656 9  89087091.48549
        50.700    21755971.62549  21755967.926 6  85375142.669 6        39.500
  23862563.570 6 125398635.119 6        40.700    23862567.703 7  97713241.51447
        25.800    23862566.92647  23862568.191 3  93641847.291 3        32.800
  20982722.070 9 110264960.935 9        53.100    20982727.836 9  85920778.67949
        55.000    20982727.68849  20982722.551 6  82340714.417 6        40.900
  20185839.367 9 106077335.543 9        51.000    20185845.664 9  82657688.79549
        56.200    20185845.28949  20185841.852 7  79213656.940 7        43.600
  21623407.266 8 113631786.899 8        46.800                    88544269.06749
        37.600    21623410.21149
 21  1  4  0  4  0.0000000  0 11G21G23G16G07G15G26G08G18G10G27G20
  23242913.914 7 122142348.994 7        42.200                    95175872.80647
        28.800    23242917.34447
  21635305.188 8 113694315.319 8        47.500    21635309.656 9  88592992.87549
        38.300    21635309.09849  21635309.852 6  84901633.080 6        38.800
  21904281.547 8 115107761.887 8        47.400                    89694391.43449
        38.000    21904284.54749
  24756943.672 6 130098605.507 6        38.000    24756947.027 4 101375538.74245
        19.900    24756947.62545
  24600726.664 5 129277691.584 5        37.900    24600730.320 5 100735885.00648
        30.500    24600729.57848
  24072693.555 6 126502862.425 6        38.200    24072701.434 6  98573692.09549
        34.800    24072701.10949  24072697.168 1  94466480.831 1        30.000
  21742335.453 9 114256756.256 9        48.100    21742342.715 9  89031277.23949
        50.800    21742341.40249  21742337.652 6  85321654.026 6        39.900
  23880808.438 6 125494515.431 6        40.500    23880813.324 7  97787953.42547
        26.000    23880812.68047  23880813.328 3  93713446.271 3        32.500
  20979001.898 9 110245412.986 9        53.000    20979007.910 9  85905546.51549
        55.200    20979007.70749  20979002.762 7  82326116.930 7        41.100
  20184847.406 9 106072122.145 9        50.800    20184853.656 9  82653626.40849
        55.200    20184853.02749  20184849.473 7  79209763.829 7        43.200
  21633854.945 8 113686690.465 8        46.400                    88587051.07549
        36.400    21633857.82849
 21  1  4  0  4 30.0000000  0 11G21G23G16G07G15G26G08G18G10G27G20
  23228988.734 7 122069173.374 7        43.000                    95118852.87547
        29.300    23228992.66847
  21644503.414 9 113742650.213 9        48.200    21644507.633 9  88630656.44049
        38.400    21644507.03149  21644507.547 6  84937727.338 6        39.200
  21920732.859 8 115194212.914 8        47.800                    89761755.86349
        37.900    21920735.59849
  24762390.898 5 130127234.346 5        36.800    24762396.258 5 101397846.92045
        18.300    24762395.52745
  24605946.227 5 129305124.509 5        35.900    24605950.281 5 100757261.34247
        28.900    24605949.88747
  24093790.758 6 126613728.495 6        38.300    24093798.461 6  98660081.25849
        34.900    24093797.97349  24093793.844 1  94549270.45011        30.400
  21728751.469 9 114185370.656 9        48.000    21728757.977 8  88975652.10149
        50.800    21728757.02049  21728753.082 6  85268346.573 6        39.200
  23899064.656 6 125590450.601 6        40.700    23899068.742 7  97862708.08146
        24.300    23899068.14146  23899069.320 2  93785086.094 2        31.700
  20975390.680 9 110226437.404 9        53.400    20975397.082 9  85890760.35149
        55.100    20975396.74249  20975392.074 7  82311946.839 7        41.700
  20183936.172 9 106067332.855 9        50.700    20183942.234 9  82649894.49549
        55.300    20183941.69949  20183937.969 7  79206187.415 7        43.000
  21644393.078 8 113742068.043 8        46.200                    88630202.43549
        36.700    21644396.24249
 21  1  4  0  5  0.0000000  0 11G21G23G16G07G15G26G08G18G10G27G20
  23215101.922 7 121996197.889 7        43.400                    95061988.90547
        28.300    23215106.04347
  21653802.055 8 113791514.571 8        47.200    21653806.125 9  88668732.56649
        38.100    21653805.53549  21653806.117 6  84974216.948 6        39.400
  21937256.336 8 115281044.242 8        47.300                    89829416.63149
        38.200    21937259.08649
  24767926.875 6 130156318.974 6        38.500    24767930.098 5 101420510.20846
        20.100    24767929.45746
  24611274.727 5 129333128.121 5        36.200    24611279.613 3 100779082.36147
        28.000    24611278.82447
  24114902.625 6 126724671.311 6        38.900    24114910.320 6  98746530.16949
        36.000    24114910.21949  24114906.480 2  94632117.288 2        31.500
  21715213.430 9 114114230.412 9        48.500    21715220.605 9  88920218.15549
        50.700    21715219.52049  21715215.594 6  85215222.392 6        38.700
  23917330.367 6 125686439.980 6        40.400    23917334.652 7  97937504.98147
        25.800    23917334.15647  23917334.918 2  93856766.444 2        31.700
  20971889.141 9 110208035.122 9        53.400    20971895.043 9  85876420.92549
        55.000    20971894.93449  20971890.371 7  82298204.900 7        41.200
  20183105.742 9 106062968.960 9        50.400    20183111.875 9  82646494.05249
        55.600    20183111.30949  20183107.688 7  79202928.644 7        43.700
  21655020.844 8 113797918.167 8        46.100                    88673722.01249
        36.000    21655024.29349
 21  1  4  0  5 30.0000000  0 11G21G23G16G07G15G26G08G18G10G27G20
  23201253.641 7 121923422.906 7        42.800                    95005281.15847
        29.500    23201257.20347
  21663200.852 8 113840906.534 8        47.000    21663204.941 9  88707219.81449
        38.500    21663204.32049  21663204.914 6  85011100.563 6        38.800
  21953851.484 8 115368253.348 8        46.600                    89897371.76749
        37.700    21953854.49249
  24773546.398 5 130185857.970 5        36.500    24773551.449 5 101443527.62946
        20.100    24773551.00046
  24616711.938 5 129361701.694 5        37.100    24616715.852 4 100801347.49347
        28.700    24616716.01247
  24136029.453 6 126835688.439 6        40.100    24136036.613 6  98833037.03049
        37.400    24136035.87549  24136031.605 1  94715019.679 1        30.700
  21701723.164 9 114043336.546 9        49.100    21701730.031 9  88864976.17949
        50.900    21701728.95749  21701725.082 6  85162282.162 6        39.600
  23935607.117 6 125782482.542 6        39.400    23935611.668 7  98012343.32647
        25.800    23935611.35247  23935611.504 2  93928486.51112        31.400
  20968496.477 9 110190206.695 9        53.300    20968502.695 9  85862528.64649
        55.200    20968502.15649  20968497.465 7  82284891.478 7        41.600
  20182356.438 9 106059031.291 9        50.000    20182362.633 9  82643425.73549
        56.300    20182362.00849  20182358.328 7  79199988.171 7        43.500
  21665738.492 8 113854238.418 8        46.700                    88717607.92049
        37.100    21665741.57849
 21  1  4  0  6  0.0000000  0 11G21G23G16G07G15G26G08G18G10G27G20
  23187443.883 7 121850848.510 7        43.500                    94948729.72247
        29.200    23187446.71947
  21672699.734 8 113890823.803 8        47.100    21672703.969 9  88746116.38849
        38.500    21672703.46149  21672704.211 6  85048376.447 6        38.700
  21970518.164 8 115455837.192 8        47.200                    89965618.90849
        37.600    21970521.18849
  24779254.891 5 130215849.092 5        37.100    24779258.754 5 101466897.29345
        18.600    24779257.98845
  24622258.742 6 129390844.318 6        38.000    24622261.891 4 100824056.00047
        29.700    24622261.73447
  24157167.477 6 126946777.029 6        38.700    24157175.902 6  98919599.58149
        35.700    24157175.36349  24157171.238 1  94797975.423 1        30.500
  21688279.453 9 113972691.002 9        48.400    21688286.383 9  88809927.70849
        50.800    21688285.41849  21688282.086 6  85109527.372 6        39.400
  23953892.750 6 125878576.678 6        38.600    23953897.801 7  98087221.83846
        23.000    23953896.88346  23953898.641 3  94000245.154 3        33.300
  20965212.867 9 110172952.021 9        54.000    20965219.199 9  85849083.44949
        54.900    20965218.71549  20965214.277 7  82272006.479 7        41.100
  20181688.234 9 106055520.115 9        50.300    20181694.316 9  82640689.75649
        55.800    20181693.90649  20181690.402 7  79197366.181 7        43.500
  21676545.047 8 113911027.223 8        46.200                    88761858.93449
        36.700    21676547.97349
 21  1  4  0  6 30.0000000  0 11G21G23G16G07G15G26G08G18G10G27G20
  23173671.031 7 121778475.572 7        42.600                    94892335.25047
        29.400    23173674.59047
  21682298.234 8 113941265.168 8        47.700    21682302.742 8  88785421.33649
        38.300    21682301.77749  21682302.688 6  85086043.691 6        39.200
  21987255.594 8 115543793.962 8        47.000                    90034156.64449
        37.500    21987259.05549
  24785047.742 5 130246291.428 5        37.700    24785051.137 4 101490618.57945
        18.300    24785051.16445
  24627913.250 6 129420555.843 6        38.700    24627915.355 4 100847207.81448
        30.000    24627915.47748
  24178321.625 6 127057935.384 6        40.300    24178328.691 6  99006216.47749
        36.800    24178328.07849  24178323.480 2  94880983.293 2        31.000
  21674883.703 8 113902295.746 8        47.700    21674890.563 9  88755074.26349
        50.800    21674889.64149  21674885.703 6  85056959.495 6        39.300
  23972188.680 6 125974721.988 6        39.200    23972193.484 7  98162140.22946
        22.900    23972192.82046  23972194.434 3  94072041.900 3        32.800
  20962039.359 9 110156272.147 9        53.700    20962045.059 9  85836086.15449
        55.400    20962044.82449  20962039.977 6  82259550.769 6        40.900
  20181101.516 9 106052436.832 9        50.700    20181107.578 9  82638287.19549
        55.200    20181107.14549  20181103.387 7  79195063.744 7        43.800
  21687440.188 8 113968282.698 8        46.100                    88806473.59349
        36.000    21687443.17649
 21  1  4  0  7  0.0000000  0 11G21G23G16G07G15G26G08G18G10G27G20
  23159937.625 7 121706304.250 7        42.600                    94836097.89047
        28.900    23159940.63747
  21691996.305 8 113992228.371 8        47.200    21692000.773 9  88825132.93149
        37.500    21691999.84449  21692000.734 6  85124100.627 6        39.000
  22004063.602 8 115632121.133 8        47.200                    90102983.00549
        37.400    22004067.07049
  24790925.883 5 130277182.961 5        36.700    24790928.895 3 101514689.90945
        17.800    24790928.16845
  24633673.906 5 129450835.119 5        37.500    24633678.211 5 100870802.04048
        30.500    24633678.02048
  24199486.063 6 127169160.560 6        38.700    24199494.371 6  99092885.46349
        35.300    24199493.93049  24199489.168 1  94964041.080 1        30.900
  21661535.836 8 113832152.218 8        47.600    21661543.105 8  88700416.98149
        50.800    21661541.76649  21661537.738 6  85004579.605 6        39.200
  23990494.898 6 126070916.940 6        40.000    23990498.535 6  98237097.33546
        22.900    23990497.84846  23990499.672 3  94143875.804 3        32.100
  20958974.461 9 110140167.069 9        53.500    20958980.199 9  85823536.74849
        55.300    20958980.19149  20958975.363 7  82247524.224 7        41.300
  20180596.234 9 106049781.819 9        50.500    20180602.414 9  82636218.35049
        55.300    20180601.84849  20180598.219 7  79193081.097 7        43.600
  21698424.352 8 114026002.602 8        46.700                    88851450.13249
        36.300    21698426.85249
 21  1  4  0  7 30.0000000  0 11G21G23G16G07G15G26G08G18G10G27G20
  23146241.906 7 121634334.142 7        43.700                    94780017.32247
        29.200    23146245.19147
  21701792.789 8 114043710.841 8        46.400    21701797.457 9  88865249.15349
        38.400    21701796.87949  21701797.449 6  85162545.337 6        39.200
  22020941.734 8 115720815.844 8        47.000                    90172095.74249
        36.900    22020944.95349
  24796889.188 6 130308521.627 6        38.100    24796893.676 4 101539109.63945
        19.300    24796892.57045
  24639544.102 5 129481680.853 5        35.800    24639547.535 5 100894837.66447
        29.700    24639547.52047
  24220664.234 6 127280449.645 6        39.200    24220671.543 6  99179604.22149
        35.400    24220671.12949  24220667.059 2  95047146.53312        31.400
  21648236.281 8 113762261.620 8        47.800    21648243.008 9  88645956.79249
        51.000    21648242.35949  21648238.047 6  84952388.593 6        39.900
  24008807.992 6 126167159.806 6        39.200    24008812.691 7  98312091.79446
        23.300    24008812.44146  24008813.238 2  94215745.466 2        31.900
  20956019.172 9 110124636.507 9        54.100    20956024.859 9  85811435.02649
        55.400    20956024.65249  20956019.777 7  82235926.751 7        41.400
  20180172.672 9 106047555.101 9        51.300    20180178.734 9  82634483.24249
        55.800    20180178.18449  20180174.477 7  79191418.292 7        43.700
  21709495.641 8 114084184.783 8        46.300                    88896786.91349
        36.900    21709498.78149
 21  1  4  0  8  0.0000000  0 11G21G23G16G07G15G26G08G18G10G27G20
  23132584.867 7 121562566.204 7        42.600                    94724094.27247
        28.200    23132587.87547
  21711688.547 8 114095711.183 8        46.400    21711692.852 9  88905768.89249
        38.100    21711692.27749  21711693.141 6  85201376.761 6        38.900
  22037889.477 8 115809875.893 8        47.200                    90241493.17749
        37.600    22037892.29349
  24802936.852 5 130340305.766 5        37.700    24802941.574 5 101563876.44246
        20.600    24802941.21146
  24645521.664 4 129513092.508 4        34.300    24645525.180 5 100919314.30747
        27.400    24645524.67647
  24241853.508 6 127391800.597 6        39.000    24241861.090 6  99266371.17149
        34.700    24241860.90649  24241856.547 1  95130298.249 1        30.800
  21634984.875 8 113692625.872 8        47.400    21634991.539 9  88591695.17649
        51.300    21634990.72749  21634986.586 6  84900387.901 6        39.600
  24027131.547 5 126263450.022 5        37.600    24027136.477 7  98387123.08246
        23.000    24027136.08246  24027137.516 3  94287650.45613        32.900
  20953173.313 9 110109681.180 9        53.400    20953178.930 9  85799781.52449
        55.800    20953178.57049  20953173.914 7  82224758.804 7        41.300
  20179830.797 9 106045757.921 9        50.800    20179836.805 9  82633082.83749
        55.400    20179836.08249  20179832.578 7  79190076.224 7        43.100
  21720654.875 8 114142827.331 8        46.200                    88942482.39849
        36.200    21720658.11349
 21  1  4  0  8 30.0000000  0 11G21G23G16G07G15G26G08G18G10G27G20
  23118965.883 7 121491000.412 7        42.600                    94668328.73047
        27.800    23118968.89847
  21721681.672 8 114148227.654 8        47.000    21721686.320 9  88946690.81949
        37.900    21721685.81349  21721686.375 6  85240593.613 6        39.500
  22054905.828 8 115899298.951 8        46.700                    90311173.48049
        37.000    22054909.03949
  24809070.758 5 130372533.791 5        37.600    24809074.695 5 101588989.13246
        20.100    24809073.87146
  24651605.055 3 129545069.351 3        33.300    24651610.223 5 100944231.37247
        26.100    24651609.75847
  24263054.961 6 127503211.265 6        39.700    24263061.863 6  99353184.68449
        35.300    24263060.83649  24263056.445 1  95213494.50711        30.600
  21621782.438 8 113623246.910 8        47.800    21621789.398 9  88537633.66049
        51.300    21621788.34049  21621784.559 6  84848578.936 6        39.900
  24045463.680 6 126359786.624 6        38.300    24045468.676 7  98462190.55746
        22.300    24045468.34046  24045469.863 3  94359590.158 3        33.700
  20950436.727 9 110095301.684 9        53.400    20950442.723 9  85788576.72449
        55.300    20950442.33649  20950437.563 7  82214020.876 7        41.400
  20179570.352 9 106044391.160 9        50.000    20179576.625 9  82632017.82849
        55.200    20179576.08249  20179572.570 7  79189055.607 7        43.800
  21731902.039 8 114201928.541 8        46.400                    88988535.28349
        36.500    21731904.78549
 21  1  4  0  9  0.0000000  0 11G21G23G16G07G15G26G08G18G10G27G20
  23105386.414 7 121419637.035 7        43.100                    94612720.93247
        27.900    23105389.49247
  21731773.336 8 114201257.890 8        47.000    21731777.422 9  88988013.08749
        38.100    21731776.85549  21731777.602 6  85280194.114 6        39.200
  22071990.938 8 115989082.024 8        46.800                    90381134.30049
        37.200    22071994.61749
  24815287.680 5 130405203.869 5        36.600    24815290.605 3 101614446.29545
        17.400    24815290.45345
  24657798.891 5 129577610.380 5        36.200    24657802.750 5 100969588.03847
        27.300    24657801.84447
  24284266.078 6 127614678.944 6        38.400    24284273.445 6  99440042.61349
        35.000    24284273.03949  24284268.340 1  95296733.32711        30.100
  21608629.273 8 113554126.022 8        47.500    21608636.281 9  88483773.24649
        51.300    21608634.80949  21608631.711 6  84796962.722 6        40.200
  24063805.203 6 126456168.264 6        39.100    24063809.320 7  98537293.12546
        22.800    24063809.04746  24063810.105 3  94431563.365 3        33.000
  20947809.906 9 110081497.824 9        53.400    20947815.848 9  85777820.48549
        55.200    20947815.73849  20947811.145 7  82203712.828 7        41.600
  20179392.273 9 106043455.140 9        51.400    20179398.516 9  82631288.45549
        55.400    20179398.05549  20179394.500 7  79188356.624 7        43.300
  21743235.000 8 114261485.975 8        46.200                    89034943.67249
        36.400    21743237.91849
 21  1  4  0  9 30.0000000  0 11G21G23G16G07G15G26G08G18G10G27G20
  23091844.766 7 121348476.534 7        43.200                    94557271.21547
        29.000    23091848.23847
  21741962.031 8 114254799.805 8        46.700    21741966.383 9  89029734.05849
        37.700    21741965.45349  21741966.527 6  85320176.701 6        38.400
  22089144.336 8 116079223.021 8        46.700                    90451374.02949
        37.300    22089148.22749
  24821588.602 6 130438314.320 6        38.100    24821592.262 3 101640246.61045
        19.300    24821591.86345
  24664098.672 6 129610714.513 6        38.400    24664101.836 3 100995383.45847
        28.800    24664101.27747
  24305488.461 6 127726200.780 6        40.200    24305495.309 7  99526942.72849
        36.700    24305495.41449  24305491.156 2  95380012.615 2        31.100
  21595524.961 8 113485264.591 8        47.500    21595532.461 9  88430115.00649
        51.200    21595531.02349  21595527.867 6  84745540.236 6        40.000
  24082154.477 6 126552593.637 6        39.400    24082158.875 6  98612429.77247
        25.300    24082157.99247  24082158.715 3  94503569.357 3        32.400
  20945292.852 9 110068269.702 9        53.200    20945298.578 9  85767512.86949
        55.500    20945298.52349  20945293.969 7  82193834.699 7        41.400
  20179296.406 9 106042950.371 9        51.300    20179302.609 9  82630895.12649
        55.800    20179302.02049  20179298.121 7  79187979.684 7        43.100
  21754654.922 8 114321497.550 8        46.600                    89081705.94349
        36.000    21754657.71949
 21  1  4  0 10  0.0000000  0 11G21G23G16G07G15G26G08G18G10G27G20
  23078341.789 7 121277518.991 7        43.500                    94501979.65347
        29.100    23078345.37547
  21752247.680 8 114308851.308 8        46.200    21752252.063 9  89071852.11449
        37.500    21752251.50049  21752252.156 6  85360539.842 6        38.600
  22106365.320 8 116169719.192 8        47.200                    90521890.50349
        37.200    22106368.84049
  24827972.797 6 130471863.130 6        38.100    24827975.938 4 101666388.57545
        18.600    24827976.19945
  24670504.906 6 129644380.920 6        38.800    24670508.797 5 101021617.00248
        31.300    24670509.14148
  24326719.188 6 127837774.457 6        38.400    24326726.668 6  99613883.26849
        34.400    24326725.99249  24326721.676 1  95463330.602 1        30.300
  21582471.180 8 113416664.188 8        47.300    21582478.043 9  88376660.17149
        51.400    21582476.75049  21582473.637 6  84694312.719 6        40.400
  24100511.781 6 126649061.595 6        39.600    24100516.070 7  98687599.61447
        26.200    24100515.28547  24100516.109 2  94575607.091 2        31.800
  20942884.977 9 110055617.487 9        52.900    20942891.063 9  85757654.00649
        55.200    20942890.75849  20942886.133 7  82184386.620 7        41.300
  20179282.586 9 106042877.467 9        50.900    20179288.641 9  82630838.30949
        55.500    20179288.10549  20179284.316 7  79187925.225 7        43.600
  21766160.688 8 114381961.253 8        46.000                    89128820.52549
        35.800    21766163.50049
 21  1  4  0 10 30.0000000  0 11G21G23G16G07G15G26G08G18G10G27G20
  23064877.898 7 121206764.923 7        43.600                    94446846.63647
        29.000    23064881.25047
  21762629.766 8 114363410.499 8        46.800    21762634.250 9  89114365.76549
        37.500    21762633.54749  21762634.621 6  85401282.093 6        39.100
  22123653.180 8 116260567.870 8        46.800                    90592681.66849
        36.400    22123656.19149
  24834439.703 5 130505848.335 5        35.000    24834443.707 3 101692870.53645
        16.900    24834442.92645
  24677018.781 6 129678608.434 6        39.100    24677022.125 5 101048287.78748
        32.100    24677021.77748
  24347960.539 5 127949397.600 5        37.100    24347967.809 6  99700862.34349
        34.400    24347968.01249  24347962.734 1  95546685.58611        28.900
  21569466.875 9 113348327.100 9        48.000    21569473.707 9  88323410.49849
        51.400    21569472.82449  21569469.309 6  84643281.766 6        39.900
  24118876.578 6 126745571.136 6        40.200    24118881.219 7  98762801.80947
        25.000    24118881.09847  24118882.152 3  94647675.886 3        32.900
  20940586.938 9 110043541.443 9        53.200    20940592.855 9  85748244.10249
        55.400    20940592.93049  20940588.113 7  82175368.802 7        41.600
  20179350.844 9 106043237.147 9        50.900    20179357.160 9  82631118.58049
        55.400    20179356.44949  20179352.637 7  79188193.818 7        43.000
  21777752.203 8 114442875.055 8        46.400                    89176285.82249
        36.100    21777755.27349
 21  1  4  0 11  0.0000000  0 11G21G23G16G07G15G26G08G18G10G27G20
  23051452.250 7 121136214.358 7        43.100                    94391872.19547
        29.000    23051455.93047
  21773108.625 8 114418475.424 8        46.700    21773112.586 9  89157273.50049
        37.700    21773112.27349  21773113.293 6  85442402.014 6        39.000
  22141007.859 8 116351766.903 8        47.000                    90663745.83949
        37.300    22141011.00049
  24840989.438 3 130540268.370 3        33.300    24840993.781 3 101719691.24343
        13.900    24840993.24643
  24683638.258 5 129713396.376 5        37.000    24683642.520 5 101075395.28248
        31.600    24683641.57448
  24369210.914 6 128061067.843 6        38.100    24369219.133 6  99787878.11849
        36.300    24369218.44149  24369213.582 1  95630075.71511        30.600
  21556513.492 8 113280254.887 8        47.500    21556520.070 9  88270367.24349
        51.400    21556518.79749  21556515.063 6  84592448.659 6        39.900
  24137249.773 6 126842121.301 6        40.200    24137254.672 7  98838035.69847
        25.200    24137253.53947  24137255.410 3  94719774.996 3        33.400
  20938398.688 9 110032041.776 9        52.300    20938404.691 9  85739283.33449
        55.200    20938404.41049  20938399.711 7  82166781.396 7        41.100
  20179501.883 9 106044030.159 9        51.000    20179508.141 9  82631736.50549
        55.500    20179507.39149  20179503.855 7  79188785.997 7        43.200
  21789428.922 8 114504236.755 8        46.300                    89224100.13549
        36.400    21789432.10249
 21  1  4  0 11 30.0000000  0 11G21G23G16G07G15G26G08G18G10G27G20
  23038066.188 7 121065867.568 7        43.400                    94337056.55147
        29.300    23038069.24647
  21783682.727 8 114474044.034 8        46.700    21783686.914 9  89200573.71849
        38.100    21783686.58249  21783687.273 6  85483898.037 6        38.200
  22158428.398 8 116443313.739 8        47.200                    90735081.02349
        36.900    22158432.06649
  24847623.484 5 130575121.407 5        36.200    24847625.926 4 101746849.48545
        17.800    24847626.08245
  24690363.586 5 129748743.451 5        35.200    24690367.785 5 101102938.50248
        30.200    24690367.89848
  24390469.242 5 128172782.768 5        36.700    24390476.816 6  99874928.68248
        32.400    24390476.41048  24390472.418 1  95713499.160 1        29.800
  21543610.242 8 113212448.969 8        47.900    21543617.180 9  88217531.46749
        51.500    21543615.79749  21543612.059 6  84541814.372 6        39.900
  24155629.945 6 126938711.038 6        39.500    24155634.332 6  98913300.39746
        23.000    24155633.44146  24155635.199 3  94791903.625 3        33.300
  20936319.922 9 110021118.602 9        52.400    20936326.086 9  85730771.77249
        55.500    20936325.78949  20936321.105 7  82158624.491 7        41.200
  20179734.867 9 106045257.084 9        50.400    20179741.426 9  82632692.54549
        55.300    20179740.80549  20179737.594 7  79189702.203 7        43.200
  21801190.773 8 114566044.662 8        46.100                    89272262.12549
        36.300    21801193.78149
 21  1  4  0 12  0.0000000  0 11G21G23G16G07G15G26G08G18G10G27G20
  23024718.570 8 120995724.847 8        45.000                    94282399.87248
        30.600    23024722.23448
  21794352.656 8 114530114.129 8        47.200    21794356.820 9  89244264.70949
        37.800    21794356.37149  21794356.652 6  85525768.595 6        38.800
  22175915.430 8 116535205.650 8        46.600                    90806685.09849
        37.500    22175918.63749
  24854335.625 3 130610405.150 3        33.700    24854340.637 5 101774343.31345
        17.400    24854339.54345
  24697196.750 5 129784648.811 5        35.400    24697201.250 5 101130916.76047
        29.600    24697200.27747
  24411735.859 5 128284539.940 5        36.800    24411743.363 6  99962012.17648
        33.000    24411743.00448  24411738.406 1  95796954.13411        29.400
  21530757.781 8 113144910.753 8        47.500    21530765.012 9  88164904.30549
        51.500    21530763.85949  21530760.219 6  84491380.016 6        40.100
  24174017.688 6 127035339.148 6        38.900    24174022.316 7  98988595.01446
        23.900    24174021.21546  24174022.863 3  94864061.021 3        32.500
  20934351.352 9 110010771.948 9        52.900    20934357.301 9  85722709.45549
        55.100    20934357.11749  20934352.359 7  82150898.097 7        41.300
  20180051.313 9 106046918.423 9        51.100    20180057.547 9  82633987.09549
        55.400    20180056.80549  20180053.414 7  79190942.822 7        43.900
  21813036.750 8 114628296.442 8        46.600                    89320770.01049
        35.500    21813039.43449
 21  1  4  0 12 30.0000000  0 11G21G23G16G07G15G26G08G18G10G27G20
  23011409.469 7 120925786.657 7        43.800                    94227902.59547
        29.700    23011413.16847
  21805117.273 8 114586683.881 8        47.300    21805121.992 8  89288345.03049
        37.600    21805121.31649  21805121.469 6  85568012.234 6        39.100
  22193467.070 8 116627441.081 8        47.400                    90878556.84049
        37.000    22193470.54349
  24861132.156 5 130646118.201 5        35.100    24861135.988 4 101802171.57745
        16.300    24861136.53945
  24704135.906 5 129821111.461 5        36.900    24704139.129 4 101159329.23747
        28.700    24704137.92247
  24433011.359 6 128396336.932 6        39.200    24433018.250 6 100049126.72149
        35.900    24433018.02749  24433013.473 1  95880438.919 1        30.900
  21517956.992 8 113077642.483 8        47.500    21517964.281 9  88112487.48049
        51.700    21517963.36749  21517959.344 6  84441147.237 6        39.900
  24192413.211 6 127132004.766 6        39.700    24192417.762 7  99063918.85646
        24.300    24192416.74246  24192418.066 2  94936246.319 2        31.800
  20932492.141 9 110001002.094 9        52.600    20932498.035 9  85715096.59349
        55.300    20932497.90649  20932493.234 7  82143602.441 7        41.100
  20180450.242 9 106049015.029 9        51.100    20180456.629 9  82635620.80849
        55.800    20180455.91849  20180452.219 7  79192508.455 7        43.600
  21824967.203 8 114690989.990 8        46.300                    89369622.12749
        36.000    21824969.67249
 21  1  4  0 13  0.0000000  0 11G21G23G16G07G15G26G08G18G10G27G20
  22998139.273 7 120856052.979 7        44.100                    94173564.68247
        29.300    22998143.30547
  21815976.977 8 114643750.873 8        46.600    21815981.195 8  89332812.81449
        37.900    21815980.21949  21815981.148 6  85610627.192 6        38.400
  22211083.750 8 116720016.456 8        47.300                    90950693.48849
        37.400    22211086.61349
  24868009.609 5 130682258.159 5        35.000    24868013.570 3 101830332.59045
        16.900    24868013.26245
  24711179.227 5 129858130.203 5        35.900    24711183.563 3 101188174.97747
        26.800    24711182.75047
  24454290.773 5 128508171.156 5        36.700    24454298.957 6 100136270.28048
        33.300    24454298.70748  24454294.441 1  95963951.511 1        30.100
  21505207.766 9 113010645.249 9        48.100    21505215.086 9  88060281.85949
        51.700    21505214.23049  21505210.355 6  84391116.827 6        40.500
  24210814.320 6 127228706.499 6        38.600    24210819.523 7  99139270.82246
        24.200    24210818.76246  24210819.633 2  95008458.608 2        31.900
  20930742.633 9 109991808.793 9        52.100    20930748.594 9  85707932.98249
        55.600    20930748.51249  20930743.594 7  82136737.313 7        41.900
  20180932.281 9 106051547.172 9        51.400    20180938.355 9  82637593.89849
        55.400    20180937.78949  20180934.227 7  79194399.339 7        43.000
  21836980.844 8 114754122.999 8        46.400                    89418816.69149
        36.400    21836983.72749
 21  1  4  0 13 30.0000000  0 11G21G23G16G07G15G26G08G18G10G27G20
  22984908.883 7 120786524.264 7        43.200                    94119386.47747
        29.000    22984911.43447
  21826930.672 8 114701313.236 8        46.700    21826934.730 9  89377666.61249
        37.300    21826934.08249  21826935.133 6  85653612.063 6        39.100
  22228764.297 8 116812929.019 8        47.400                    91023092.89249
        36.900    22228767.23049
  24874967.820 5 130718823.235 5        37.300    24874971.676 3 101858824.79645
        17.400    24874970.26245
  24718329.203 5 129895703.738 5        35.500    24718333.473 4 101217453.01147
        27.300    24718333.50047
  24475580.359 6 128620040.358 6        38.700    24475586.445 6 100223441.07249
        34.200    24475586.28149  24475582.559 1  96047490.21011        30.100
  21492510.977 8 112943921.264 8        47.500    21492517.797 9  88008289.14949
        51.500    21492516.92249  21492513.191 6  84341290.489 6        40.400
  24229222.766 5 127325443.569 5        37.200    24229227.352 7  99214650.30346
        22.200    24229226.86346  24229228.070 3  95080697.304 3        32.100
  20929102.789 9 109983192.276 9        52.400    20929108.875 9  85701218.82349
        55.400    20929108.67649  20929104.000 7  82130302.911 7        41.500
  20181497.352 9 106054515.657 9        51.400    20181503.199 9  82639907.00649
        55.800    20181502.68849  20181499.129 7  79196616.075 7        43.600
  21849077.992 8 114817693.889 8        46.000                    89468352.44149
        36.500    21849081.18049
 21  1  4  0 14  0.0000000  0 11G21G23G16G07G15G26G08G18G10G27G20
  22971716.547 7 120717200.356 7        43.000                    94065367.86047
        29.500    22971720.18447
  21837978.156 8 114759368.594 8        47.500    21837982.375 9  89422904.55049
        37.800    21837981.87549  21837982.832 6  85696965.104 6        38.800
  22246508.742 9 116906176.828 9        48.100                    91095753.51449
        36.500    22246511.90649
  24882006.688 6 130755811.720 6        38.200    24882009.754 5 101887646.97345
        18.600    24882010.03145
  24725584.906 5 129933831.014 5        35.900    24725589.262 5 101247162.54047
        27.800    24725588.73047
  24496875.258 6 128731941.781 6        40.400    24496881.785 6 100310637.02349
        35.800    24496881.18849  24496877.262 2  96131052.963 2        31.400
  21479865.984 8 112877472.072 8        47.300    21479873.012 9  87956510.56949
        51.900    21479871.89849  21479868.250 6  84291669.361 6        40.500
  24247638.047 5 127422214.663 5        37.500    24247642.461 6  99290056.31846
        21.700    24247641.01246  24247642.887 3  95152961.42313        32.000
  20927572.891 9 109975152.333 9        52.800    20927579.020 9  85694953.93349
        55.100    20927578.86349  20927573.992 7  82124299.056 7        41.500
  20182145.008 9 106057920.791 9        50.900    20182151.234 9  82642560.35149
        55.800    20182150.59049  20182147.188 7  79199158.865 7        43.700
  21861257.602 8 114881699.868 8        46.400                    89518227.22249
        34.700    21861260.78149
 21  1  4  0 14 30.0000000  0 11G21G23G16G07G15G26G08G18G10G27G20
  22958564.578 7 120648081.616 7        43.700                    94011509.14848
        30.100    22958567.71948
  21849119.156 8 114817914.922 8        47.900    21849123.645 8  89468525.07049
        38.200    21849122.76649  21849123.637 6  85740684.777 6        38.600
  22264316.039 8 116999756.629 8        46.900                    91168672.82749
        36.200    22264319.50849
  24889124.938 5 130793221.559 5        37.300    24889129.266 5 101916797.44545
        19.300    24889128.79345
  24732945.586 5 129972511.070 5        36.600    24732949.504 5 101277302.88447
        28.100    24732948.79747
  24518173.617 5 128843873.226 5        36.600    24518181.453 6 100397856.30148
        31.900    24518180.84048  24518176.285 1  96214638.14311        29.900
  21467273.766 8 112811299.090 8        47.600    21467280.949 9  87904947.21049
        52.000    21467279.71949  21467275.898 6  84242254.464 6        40.300
  24266059.273 5 127519018.835 5        37.300    24266063.258 6  99365488.14746
        20.900    24266062.28146  24266063.766 2  95225250.21612        31.200
  20926152.641 9 109967688.999 9        52.700    20926158.754 9  85689138.36249
        55.100    20926158.80549  20926154.059 7  82118725.797 7        41.700
  20182876.297 9 106061763.262 9        51.400    20182882.383 9  82645554.48249
        55.600    20182881.71149  20182878.215 7  79202028.236 7        43.200
  21873520.500 8 114946138.933 8        46.200                    89568439.48649
        35.300    21873522.89849
 21  1  4  0 15  0.0000000  0 11G21G23G16G07G15G26G08G18G10G27G20
  22945450.523 7 120579168.592 7        43.900                    93957810.70747
        29.800    22945453.52047
  21860353.172 8 114876949.909 8        47.600    21860357.488 8  89514526.35249
        37.700    21860356.79349  21860357.836 6  85784769.338 6        38.600
  22282186.906 8 117093666.830 8        46.400                    91241849.59449
        36.900    22282190.38749
  24896323.781 5 130831050.654 5        36.400    24896328.000 5 101946274.60945
        19.300    24896327.90245
  24740410.531 5 130011742.774 5        36.200    24740415.512 5 101307873.10147
        29.000    24740415.23047
  24539478.953 6 128955832.174 6        38.600    24539485.723 6 100485097.03149
        34.400    24539485.82849  24539482.184 1  96298243.80011        29.900
  21454734.336 9 112745403.776 9        48.100    21454741.223 9  87853600.21649
        51.900    21454739.98049  21454736.352 6  84193046.945 6        40.400
  24284486.219 5 127615854.896 5        37.200    24284490.816 6  99440944.78546
        20.600    24284490.01646  24284490.547 1  95297562.826 1        29.800
  20924842.102 9 109960802.150 9        51.900    20924848.320 9  85683771.98649
        55.100    20924848.24649  20924843.520 7  82113583.024 7        41.300
  20183690.711 9 106066043.406 9        51.800    20183697.070 9  82648889.65649
        55.100    20183696.10949  20183692.738 7  79205224.436 7        42.700
  21885864.367 8 115011008.977 8        46.400                    89618987.57449
        35.700    21885867.30549
 21  1  4  0 15 30.0000000  0 11G21G23G16G07G15G26G08G18G10G27G20
  22932376.039 7 120510461.108 7        44.100                    93904272.43847
        29.300    22932378.41847
  21871679.422 8 114936471.395 8        46.600    21871684.207 9  89560906.72949
        37.000    21871683.18849  21871683.906 6  85829217.181 6        38.300
  22300119.656 8 117187904.452 8        47.200                    91315281.50649
        36.700    22300122.90649
  24903602.398 5 130869297.062 5        35.500    24903606.656 5 101976076.97045
        17.800    24903604.69545
  24747981.836 5 130051524.699 5        37.800    24747985.715 5 101338872.04247
        28.600    24747984.95747
  24560788.781 5 129067815.931 5        36.700    24560796.047 6 100572357.14748
        33.200    24560795.75848  24560791.832 1  96381868.06211        29.900
  21442248.234 9 112679788.360 9        48.800    21442255.090 9  87802471.32549
        52.200    21442254.00049  21442250.203 6  84144048.428 6        40.200
  24302919.203 5 127712721.848 5        36.900    24302924.246 6  99516425.49546
        21.500    24302923.93446  24302924.691 1  95369898.589 1        30.200
  20923641.148 9 109954491.655 9        52.300    20923647.383 9  85678854.73349
        55.100    20923647.35549  20923642.496 7  82108870.668 7        41.000
  20184588.641 9 106070761.875 9        51.400    20184594.832 9  82652566.37449
        55.500    20184594.05549  20184590.758 7  79208747.969 7        43.600
  21898290.484 8 115076307.729 8        46.100                    89669869.72649
        35.200    21898293.35549
 21  1  4  0 16  0.0000000  0 11G21G23G16G07G15G26G08G18G10G27G20
  22919340.477 7 120441959.585 7        44.000                    93850894.64147
        29.900    22919343.12947
  21883098.203 8 114996477.401 8        47.400    21883102.668 8  89607664.65949
        37.200    21883102.09449  21883102.668 6  85874026.878 6        38.800
  22318114.766 8 117282466.770 8        47.400                    91388966.42849
        36.200    22318117.65249
  24910958.922 3 130907958.847 3        33.300    24910963.434 5 102006202.98945
        16.300    24910962.78945
  24755656.281 6 130091855.524 6        39.200    24755660.820 4 101370298.66248
        30.500    24755659.17248
  24582102.242 5 129179822.576 5        36.400    24582110.613 6 100659634.96848
        32.300    24582109.97348  24582105.832 1  96465509.38011        29.800
  21429815.352 9 112614454.180 9        48.200    21429822.238 9  87751561.58149
        52.100    21429821.37549  21429817.840 6  84095259.912 6        40.500
  24321358.313 5 127809618.810 5        36.200    24321362.965 6  99591929.60145
        19.900    24321362.39545  24321364.168 2  95442256.682 2        31.200
  20922550.367 9 109948757.621 9        53.000    20922556.180 9  85674386.66649
        55.500    20922556.15249  20922551.457 7  82104588.755 7        41.700
  20185570.023 9 106075919.320 9        50.900    20185576.164 9  82656585.16049
        55.400    20185575.52049  20185572.066 7  79212599.295 7        43.400
  21910797.578 8 115142033.256 8        46.400                    89721084.42349
        35.700    21910800.79349
 21  1  4  0 16 30.0000000  0 11G21G23G16G07G15G26G08G18G10G27G20
  22906344.078 7 120373664.426 7        44.200                    93797677.63848
        30.300    22906348.14148
  21894608.922 8 115056965.812 8        47.900    21894613.605 8  89654798.49149
        37.400    21894612.78149  21894613.367 6  85919196.801 6        38.100
  22336170.547 8 117377351.271 8        46.300                    91462902.39549
        36.100    22336173.41449
  24918394.055 1                        30.100    24918399.387 5 102036671.89615
        15.600    24918398.85245
  24763436.297 6 130132734.159 6        40.600    24763439.422 4 101402152.12648
        31.300    24763438.30948
  24603421.297 5 129291849.463 5        37.900    24603428.426 6 100746928.71049
        34.800    24603427.50049  24603423.777 1  96549165.842 1        29.800
  21417436.258 9 112549403.109 9        48.800    21417443.617 9  87700872.44049
        52.300    21417442.44149  21417439.258 6  84046682.818 6        40.800
  24339802.375 5 127906544.87815        35.800    24339807.238 6  99667456.37155
        18.600    24339806.70745  24339808.953 2  95514636.478 2        31.200
  20921568.727 9 109943600.049 9        52.800    20921574.723 9  85670367.79049
        55.100    20921574.78149  20921569.984 7  82100737.356 7        41.400
  20186635.242 9 106081516.341 9        51.400    20186641.438 9  82660946.46849
        55.700    20186640.65249  20186637.258 7  79216778.886 7        43.900
  21923386.141 8 115208183.549 8        47.300                    89772630.10149
        36.000    21923389.04349
 21  1  4  0 17  0.0000000  0 11G21G23G16G07G15G26G08G18G10G27G20
  22893387.398 7 120305575.509 7        44.000                    93744621.39148
        30.000    22893391.10548
  21906211.031 8 115117934.328 8        47.000    21906215.281 8  89702306.42349
        37.200    21906214.40649  21906215.391 6  85964725.266 6        38.600
  22354287.063 8 117472555.106 8        45.700                    91537087.18849
        35.500    22354290.11749
  24925908.023 2 130986519.61712        31.200    24925912.504 4 102067419.10154
        14.800    24925912.55944
  24771318.906 6 130174159.593 6        39.400    24771322.172 4 101434431.65348
        30.100    24771320.98848
  24624741.141 4 129403894.241 4        34.300    24624749.617 6 100834236.34748
        31.600    24624749.07848  24624745.430 1  96632835.650 1        29.900
  21405112.078 9 112484636.846 9        48.200    21405118.852 9  87650405.22149
        52.300    21405117.71549  21405114.551 6  83998318.403 6        40.400
  24358252.391 5 128003498.899 5        36.600    24358257.750 6  99743004.92445
        19.900    24358256.82445  24358257.801 1  95587037.143 1        30.600
  20920696.961 9 109939018.678 9        52.900    20920702.770 9  85666797.89449
        55.300    20920702.85549  20920698.348 7  82097316.197 7        41.100
  20187783.883 9 106087553.355 9        51.400    20187790.035 9  82665650.63549
        55.300    20187789.47349  20187786.051 7  79221287.051 7        43.600
  21936054.047 8 115274756.160 8        46.000                    89824504.86649
        35.300    21936057.03949
 21  1  4  0 17 30.0000000  0 11G21G23G16G07G15G26G08G18G10G27G20
  22880469.234 7 120237693.126 7        44.300                    93691726.08448
        30.000    22880473.01648
  21917904.047 8 115179380.561 8        47.700    21917907.969 9  89750186.60749
        37.500    21917907.34849  21917908.828 6  86010610.427 6        38.600
  22372464.055 8 117568075.896 8        46.700                    91611518.95549
        36.700    22372467.39549
  24933500.922 1 131026414.62111        29.100    24933504.895 4 102098506.05452
        12.600    24933504.29342
  24779303.563 5 130216130.053 5        36.900    24779308.766 5 101467135.94247
        28.700    24779308.87547
  24646067.492 6 129515954.378 6        38.900    24646073.926 5 100921555.88148
        32.700    24646073.21148  24646069.734 1  96716516.83311        30.100
  21392841.695 9 112420156.611 9        48.400    21392848.641 9  87600160.88549
        52.300    21392847.65249  21392843.980 6  83950167.601 6        40.800
  24376707.570 5 128100479.786 5        36.500    24376712.410 6  99818574.44946
        21.500    24376712.07046  24376711.926 1  95659457.863 1        30.300
  20919934.508 9 109935013.180 9        52.800    20919940.730 9  85663676.73249
        54.900    20919940.64849  20919935.863 7  82094325.076 7        42.000
  20189016.547 9 106094030.686 9        51.200    20189022.793 9  82670697.90149
        55.700    20189022.06649  20189018.566 7  79226124.012 7        43.700
  21948802.219 8 115341748.843 8        46.000                    89876706.95249
        35.600    21948805.34849
 21  1  4  0 18  0.0000000  0 11G21G23G16G07G15G26G08G18G10G27G20
  22867591.125 7 120170017.820 7        44.200                    93638992.09848
        30.000    22867594.56348
  21929687.266 8 115241302.714 8        46.300    21929691.398 9  89798437.63849
        37.700    21929690.99249  21929692.328 6  86056850.976 6        38.600
  22390701.016 8 117663911.388 8        46.600                    91686195.95849
        36.100    22390704.05549
  24941170.875 3 131066716.954 3        33.000    24941173.914 3 102129910.49745
        15.600    24941173.16045
  24787395.156 5 130258644.712 5        37.300    24787399.809 5 101500264.31247
        29.000    24787398.82047
  24667392.844 5 129628027.689 5        36.700    24667400.602 5 101008885.77348
        32.100    24667400.14148  24667395.949 1  96800207.96811        29.200
  21380626.289 9 112355964.829 9        48.900    21380633.305 9  87550141.32549
        52.500    21380632.46149  21380628.711 6  83902232.181 6        40.300
  24395166.688 5 128197486.848 5        36.500    24395172.523 7  99894164.33146
        22.500    24395171.77046  24395172.387 1  95731898.192 1        30.500
  20919281.961 9 109931583.790 9        52.200    20919288.168 9  85661004.48949
        55.000    20919287.98849  20919283.445 7  82091764.183 7        41.800
  20190333.117 9 106100949.246 9        50.500    20190339.164 9  82676088.97449
        55.100    20190338.72749  20190335.180 7  79231290.452 7        43.200
  21961630.203 8 115409159.875 8        46.200                    89929235.03049
        35.200    21961632.88349
 21  1  4  0 18 30.0000000  0 12G32G21G23G16G07G15G26G08G18G10G27G20
  25271837.063 3                        32.400    25271846.379 6 103483981.63116
        30.200    25271845.42248
  22854752.289 7 120102549.477 7        43.400                    93586419.40148
        30.600    22854755.89548
  21941560.836 8 115303698.370 8        46.600    21941565.016 8  89847057.62649
        37.500    21941564.36749  21941564.957 5  86103445.103 5        37.900
  22408996.969 8 117760058.602 8        46.300                    91761115.85949
        35.900    22409000.01649
  24948916.844 2 131107424.422 2        31.500    24948920.055 3 102161630.58942
        12.600    24948919.75842
  24795588.781 5 130301702.059 5        37.000    24795593.195 5 101533815.45547
        29.900    24795592.89147
  24688722.219 5 129740111.712 5        36.100    24688730.348 6 101096223.95048
        32.000    24688729.28548  24688725.129 1  96883907.14211        29.900
  21368466.281 8 112292062.786 8        47.900    21368473.520 9  87500347.53749
        52.600    21368472.32449  21368468.211 6  83854513.133 6        40.200
  24413631.547 5 128294518.952 5        37.000    24413637.285 7  99969773.73346
        22.600    24413636.33646  24413637.613 2  95804357.186 2        31.800
  20918739.172 9 109928730.097 9        53.000    20918744.898 9  85658780.84349
        55.000    20918744.84049  20918740.355 7  82089633.184 7        41.700
  20191733.906 9 106108309.315 9        51.600    20191739.727 9  82681824.08949
        55.400    20191739.30149  20191735.508 7  79236786.610 7        43.200
  21974537.148 8 115476986.779 8        45.700                    89982087.15649
        34.400    21974540.03149
 21  1  4  0 19  0.0000000  0 13G01G32G21G23G16G07G15G26G08G18G10G27
                                G20
  24763444.883 3 130132779.15613        33.800    24763452.977 5 101402203.18455
        17.800    24763452.98445
  25254321.336 5 132712351.225 5        36.400    25254328.594 6 103412287.47558
        31.400    25254329.43448
  22841953.125 8 120035287.938 8        45.600                    93534007.85148
        30.900    22841956.63748
  21953523.477 8 115366564.806 8        47.000    21953528.059 8  89896044.46249
        37.100    21953527.12149  21953527.668 5  86150390.853 5        37.800
  22427352.180 8 117856514.828 8        46.000                    91836276.54049
        35.900    22427355.29349
  24956737.828 3 131148534.381 3        33.300    24956743.777 3 102193664.29444
        14.800    24956742.63744
  24803885.641 6 130345300.184 6        40.700    24803889.270 5 101567788.01448
        31.600    24803889.17648
  24710052.438 5 129852203.551 5        37.000    24710059.582 5 101183568.21948
        31.300    24710059.27048  24710055.559 1  96967612.02811        30.000
  21356361.508 9 112228451.784 9        48.100    21356368.406 9  87450780.52449
        52.600    21356367.53549  21356363.453 6  83807011.444 6        40.500
  24432100.719 5 128391574.553 5        36.200    24432106.184 6 100045401.42446
        21.300    24432105.16046  24432106.641 3  95876833.746 3        32.900
  20918305.078 9 109926451.457 9        52.700    20918311.496 9  85657005.28849
        55.000    20918311.14549  20918306.703 7  82087931.616 7        41.300
  20193217.875 9 106116110.896 9        51.200    20193224.484 9  82687903.24349
        55.800    20193223.82049  20193220.363 7  79242612.452 7        43.000
  21987522.625 8 115545226.821 8        45.600                    90035261.21449
        35.400    21987525.84849
 21  1  4  0 19 30.0000000  0 13G01G32G21G23G16G07G15G26G08G18G10G27
                                G20
  24743822.883 5 130029665.640 5        37.900    24743831.121 5 101321854.96245
        18.600    24743830.71945
  25236798.805 3 132620275.80713        33.100    25236805.957 3 103340540.34957
        25.300    25236804.06647
  22829193.406 7 119968233.577 7        44.600                    93481757.73548
        31.600    22829197.19948
  21965576.031 8 115429899.901 8        46.700    21965580.195 8  89945396.48149
        36.600    21965579.70349  21965580.355 5  86197686.533 5        37.500
  22445765.273 8 117953277.444 8        46.100                    91911675.96449
        35.100    22445768.49249
  24964637.719 3 131190044.928 3        33.400    24964643.621 4 102226010.09245
        16.300    24964642.64145
  24812285.000 6 130389438.055 6        39.200    24812287.719 4 101602181.10948
        30.400    24812287.81648
  24731383.734 6 129964300.863 6        38.100    24731391.008 5 101270916.81748
        30.900    24731390.15248  24731386.941 1  97051321.00311        28.900
  21344312.508 9 112165134.013 9        48.600    21344319.570 9  87401442.01049
        52.600    21344318.46549  21344314.602 6  83759728.662 6        40.000
  24450574.656 5 128488652.883 5        36.400    24450578.863 6 100121046.85746
        21.100    24450578.22346  24450579.523 2  95949327.255 2        31.600
  20917981.453 9 109924747.709 9        51.900    20917986.969 9  85655677.69749
        55.000    20917986.91849  20917982.348 7  82086659.348 7        41.600
  20194786.938 9 106124354.599 9        51.100    20194793.043 9  82694326.90249
        55.400    20194792.49649  20194789.016 7  79248768.465 7        43.700
  22000586.695 8 115613877.947 8        46.100                    90088755.59049
        35.000    22000589.63349
 21  1  4  0 20  0.0000000  0 13G01G32G21G23G16G07G15G26G08G18G10G27
                                G20
  24724217.969 6 129926637.996 6        38.700    24724225.688 5 101241573.70546
        20.600    24724224.65646
  25219276.188 6 132528181.542 6        39.400    25219281.617 5 103268778.59948
        30.800    25219279.89848
  22816472.609 8 119901386.840 8        45.900                    93429669.38748
        31.100    22816475.96148
  21977717.148 8 115493701.532 8        47.000    21977721.406 8  89995112.04349
        37.200    21977720.87949  21977721.574 6  86245330.610 6        38.300
  22464236.609 8 118050343.803 8        45.800                    91987312.08149
        36.100    22464240.12149
  24972613.781 4 131231953.864 4        34.300    24972617.703 3 102258666.28145
        16.900    24972617.21145
  24820786.391 6 130434114.419 6        39.200    24820790.098 5 101636993.87447
        29.600    24820789.78547
  24752715.703 5 130076401.473 5        36.000    24752724.141 6 101358267.93648
        31.400    24752723.23448  24752718.656 1  97135032.59411        29.000
  21332319.414 9 112102110.800 9        48.000    21332326.465 9  87352333.01449
        52.600    21332325.49249  21332321.395 6  83712665.880 6        40.500
  24469051.570 5 128585753.143 5        37.300    24469056.742 6 100196709.38646
        21.300    24469055.83646  24469056.809 1  96021837.160 1        30.500
  20917766.305 9 109923618.737 9        52.300    20917772.547 9  85654797.98549
        55.200    20917772.20349  20917767.461 7  82085816.294 7        41.500
  20196439.844 9 106133041.003 9        50.200    20196446.133 9  82701095.52549
        55.400    20196445.47749  20196441.949 7  79255255.069 7        42.900
  22013728.219 8 115682938.102 8        45.800                    90142568.70249
        34.200    22013730.80549
 21  1  4  0 20 30.0000000  0 13G01G32G21G23G16G07G15G26G08G18G10G27
                                G20
  24704628.375 5 129823697.216 5        35.400    24704636.941 6 101161360.07345
        18.300    24704636.50045  24704632.668 3  96946278.46613        32.000
  25201747.023 6 132436071.475 6        38.500    25201754.930 6 103197004.44348
        33.100    25201753.13748
  22803791.523 8 119834747.634 8        45.400                    93377742.74448
        30.400    22803794.38748
  21989946.664 8 115557967.587 8        46.700    21989950.664 9  90045189.49549
        37.500    21989950.50849  21989950.965 6  86293321.517 6        38.300
  22482764.813 8 118147711.212 8        45.700                    92063182.77149
        35.600    22482768.27749
  24980661.813 2 131274259.606 2        31.500    24980668.191 3 102291631.71745
        16.300    24980668.38345
  24829390.445 6 130479327.526 6        39.600    24829394.059 5 101672224.92447
        29.300    24829393.44947
  24774047.969 5 130188503.065 5        36.900    24774055.098 6 101445619.79748
        32.700    24774055.57048  24774051.258 1  97218744.80211        29.500
  21320383.203 9 112039384.145 9        48.000    21320390.035 9  87303455.09749
        52.700    21320389.05549  21320384.957 6  83665824.547 6        40.500
  24487532.969 5 128682874.431 5        36.900    24487538.867 6 100272388.27946
        21.700    24487538.43046  24487538.453 1  96094362.803 1        30.000
  20917660.539 9 109923064.428 9        51.900    20917666.910 9  85654366.06049
        55.400    20917666.73449  20917662.094 7  82085402.367 7        41.300
  20198177.289 9 106142170.722 9        51.500    20198183.410 9  82708209.58449
        55.200    20198182.93849  20198179.348 7  79262072.703 7        43.700
  22026947.430 8 115752405.226 8        46.000                    90196698.93149
        34.400    22026950.35249
 21  1  4  0 21  0.0000000  0 13G01G32G21G23G16G07G15G26G08G18G10G27
                                G20
  24685055.102 4 129720844.218 4        34.500    24685064.336 5 101081214.91845
        17.400    24685064.38745  24685059.555 1  96869472.608 1        30.500
  25184217.805 6 132343948.402 6        38.800    25184224.066 5 103125220.24448
        32.900    25184222.84048
  22791150.336 8 119768316.482 8        46.000                    93325978.23348
        30.800    22791153.11748
  22002264.336 8 115622695.817 8        46.300    22002268.328 8  90095627.07149
        37.100    22002267.76249  22002268.188 6  86341657.516 6        38.300
  22501350.078 8 118245377.415 8        45.800                    92139286.30449
        34.700    22501353.34849
  24988789.477 1 131316959.61811        29.400    24988793.633 3 102324904.44654
        14.800    24988793.17244
  24838095.945 6 130525076.689 6        39.800    24838099.164 4 101707873.65148
        30.300    24838098.98848
  24795380.570 5 130300603.325 5        35.700    24795387.367 5 101532970.66747
        28.400    24795386.55147  24795383.285 1  97302456.061 1        30.100
  21308503.570 9 111976955.660 9        48.600    21308510.238 9  87254809.52649
        52.900    21308509.09849  21308505.480 7  83619205.868 7        41.300
  24506018.492 5 128780015.832 5        35.400    24506024.063 6 100348082.84945
        19.300    24506023.68445  24506024.430 1  96166903.47111        30.800
  20917664.727 9 109923084.462 9        51.500    20917670.672 9  85654381.67649
        55.000    20917670.44949  20917665.703 7  82085417.341 7        41.700
  20199999.148 9 106151744.228 9        50.600    20200005.254 9  82715669.45049
        55.100    20200004.73049  20200001.148 7  79269221.750 7        43.200
  22040243.977 8 115822276.999 8        45.500                    90251144.46948
        33.700    22040246.60948
 21  1  4  0 21 30.0000000  0 13G01G32G21G23G16G07G15G26G08G18G10G27
                                G20
  24665500.172 5 129618079.844 5        36.700    24665508.785 5 101001138.67445
        18.600    24665508.62545  24665504.984 1  96792732.997 1        30.600
  25166682.430 3 132251815.111 3        33.700    25166691.254 5 103053428.05247
        28.800    25166691.79347
  22778548.688 8 119702093.686 8        46.100                    93274376.09048
        31.000    22778550.93848
  22014668.688 8 115687883.870 8        46.700    22014672.922 8  90146422.95449
        37.300    22014672.16849  22014672.930 5  86390336.899 5        37.400
  22519991.859 8 118343339.546 8        45.800                    92215620.41249
        35.100    22519995.31349
  24996990.813 3 131360051.67713        32.800    24996993.113 3 102358482.57455
        15.600    24996992.84845
  24846903.125 6 130571360.158 6        38.000    24846907.105 4 101743938.71547
        28.800    24846906.48847
  24816710.992 5 130412699.843 5        35.500    24816718.672 5 101620318.60648
        31.100    24816717.82048  24816713.145 1  97386164.48811        28.000
  21296680.992 9 111914827.333 9        48.300    21296687.414 9  87206397.85849
        52.800    21296686.44949  21296682.813 6  83572811.362 6        40.900
  24524507.867 5 128877176.436 5        35.400    24524512.453 6 100423792.33045
        18.600    24524512.48045  24524514.180 2  96239458.380 2        31.900
  20917777.563 9 109923678.475 9        51.400    20917783.738 9  85654844.55549
        55.200    20917783.47749  20917778.863 7  82085860.923 7        41.200
  20201905.375 9 106161761.849 9        50.700    20201911.527 9  82723475.37749
        55.200    20201910.95349  20201907.352 7  79276702.442 7        43.100
  22053616.570 8 115892551.035 8        45.300                    90305903.45949
        34.800    22053619.44949
 21  1  4  0 22  0.0000000  0 13G01G32G21G23G16G07G15G26G08G18G10G27
                                G20
  24645962.367 4 129515404.817 4        34.800    24645970.797 6 100921132.13045
        19.900    24645971.03145  24645965.703 1  96716060.04111        29.200
  25149151.086 5 132159674.03915        37.600    25149157.352 5 102981629.90958
        31.300    25149156.65248
  22765986.359 8 119636078.902 8        46.400                    93222936.01148
        30.700    22765988.38348
  22027160.727 8 115753529.253 8        46.700    22027164.449 8  90197575.21049
        37.200    22027163.89849  22027164.926 5  86439357.828 5        37.300
  22538688.961 8 118441594.950 8        45.400                    92292183.05049
        35.700    22538692.70749
  25005263.680 2 131403533.59812        31.200    25005268.680 5 102392364.55455
        16.300    25005268.46145
  24855811.836 6 130618176.176 6        38.400    24855815.797 4 101780418.71547
        27.200    24855814.59047
  24838041.477 5 130524789.972 5        36.900    24838049.125 6 101707661.54948
        32.400    24838048.18048  24838043.582 1  97469868.16911        28.500
  21284915.797 9 111853000.395 9        48.700    21284922.574 9  87158221.02449
        53.100    21284921.05149  21284917.809 6  83526641.913 6        40.900
  24543001.047 5 128974354.949 5        37.000    24543004.973 6 100499515.85445
        19.300    24543004.60945  24543006.008 1  96312026.712 1        30.900
  20917999.766 9 109924845.915 9        51.800    20918005.691 9  85655754.25349
        55.100    20918005.78149  20918001.094 7  82086732.719 7        41.700
  20203896.117 9 106172223.844 9        50.500    20203902.461 9  82731627.58349
        55.100    20203901.78949  20203898.008 7  79284514.951 7        44.000
  22067065.406 8 115963225.174 8        46.600                    90360974.20349
        34.700    22067068.43849
 21  1  4  0 22 30.0000000  0 13G01G32G21G23G16G07G15G26G08G18G10G27
                                G20
  24626441.219 5 129412820.097 5        37.800    24626449.379 6 100841196.00545
        19.600    24626448.73845  24626445.504 1  96639454.53811        30.500
  25131616.375 6 132067528.403 6        38.300    25131622.953 5 102909828.08148
        31.700    25131619.76248
  22753463.336 8 119570272.538 8        45.700                    93171658.32948
        30.900    22753466.30948
  22039739.234 8 115819629.748 8        46.300    22039743.434 8  90249082.09249
        36.600    22039742.97349  22039743.645 5  86488718.577 5        37.900
  22557441.656 8 118540141.035 8        45.600                    92368972.18749
        34.900    22557445.43049
  25013612.625 3 131447403.072 3        32.900    25013616.430 5 102426548.56345
        16.900    25013616.76245
  24864821.461 5 130665523.158 5        36.800    24864825.980 5 101817312.49447
        26.700    24864825.53947
  24859368.969 4 130636871.383 4        34.400    24859377.215 5 101794997.73747
        29.400    24859376.49647  24859372.461 1  97553565.32911        28.800
  21273208.000 9 111791476.937 9        48.400    21273214.887 9  87110280.67349
        53.000    21273213.64549  21273210.012 6  83480699.077 6        40.500
  24561496.547 5 129071550.642 5        37.100    24561500.145 5 100575252.74945
        19.900    24561499.73445  24561501.172 1  96384607.87911        29.500
  20918331.102 9 109926586.527 9        52.100    20918337.117 9  85657110.58049
        55.000    20918336.97749  20918332.273 7  82088032.536 7        41.800
  20205971.492 9 106183130.737 9        51.400    20205978.102 9  82740126.45449
        55.300    20205977.29749  20205973.816 7  79292659.699 7        43.200
  22080589.898 8 116034297.269 8        46.100                    90416355.06349
        34.300    22080592.74649
 21  1  4  0 23  0.0000000  0 13G01G32G21G23G16G07G15G26G08G18G10G27
                                G20
  24606936.680 5 129310326.389 5        37.100    24606945.707 5 100761330.77945
        19.600    24606945.10245  24606941.129 1  96562917.05811        30.600
  25114081.703 6 131975380.889 6        40.400    25114087.887 6 102838024.74848
        33.600    25114086.76648
  22740980.469 8 119504674.674 8        45.000                    93120543.15648
        30.900    22740983.91448
  22052403.469 8 115886182.907 8        46.700    22052408.121 8  90300941.68349
        37.100    22052407.84049  22052408.340 6  86538417.380 6        38.000
  22576249.391 8 118638975.026 8        45.500                    92445985.65549
        35.300    22576252.89149
  25022032.844 3 131491658.145 3        32.600    25022038.121 4 102461032.99145
        16.300    25022038.25045
  24873931.055 4 130713399.704 4        34.800    24873935.895 5 101854618.92047
        26.700    24873935.60247
  24880695.523 4 130748941.705 4        34.400    24880704.465 6 101882325.26548
        30.100    24880702.57448  24880699.531 1  97637254.15911        29.300
  21261558.359 9 111730258.345 9        48.600    21261565.293 9  87062577.87149
        53.300    21261564.18449  21261560.492 6  83434983.902 6        40.600
  24579994.992 5 129168762.434 5        37.600    24579999.352 6 100651002.15445
        19.900    24579999.35945  24579999.898 1  96457201.01311        29.000
  20918771.156 9 109928899.707 9        52.500    20918777.359 9  85658913.06849
        55.000    20918777.20749  20918772.258 7  82089759.921 7        41.900
  20208131.953 9 106194482.710 9        50.600    20208138.230 9  82748972.13949
        55.000    20208137.33249  20208133.840 7  79301136.818 7        43.300
  22094189.820 8 116105764.876 8        45.400                    90472044.10148
        33.900    22094192.43848
 21  1  4  0 23 30.0000000  0 13G01G32G21G23G16G07G15G26G08G18G10G27
                                G20
  24587450.281 5 129207924.947 5        35.400    24587459.930 5 100681537.42345
        18.600    24587459.18045  24587454.457 1  96486448.39311        28.700
  25096546.594 6 131883234.507 6        38.800    25096552.848 6 102766222.45348
        32.900    25096552.82448
  22728537.125 8 119439285.574 8        45.200                    93069590.63448
        31.400    22728540.59048
  22065154.258 8 115953186.764 8        45.900    22065158.738 8  90353152.47749
        37.200    22065158.15249  22065158.383 5  86588452.687 5        37.800
  22595111.250 8 118738094.817 8        45.700                    92523221.84649
        35.100    22595114.54749
  25030528.664 4 131536296.687 4        34.700    25030532.730 3 102495816.20145
        16.900    25030531.94545
  24883143.445 5 130761804.434 5        37.700    24883146.332 4 101892336.86447
        28.400    24883146.74247
  24902020.195 5 130860998.866 5        37.200    24902027.219 6 101969642.52748
        30.600    24902026.84448  24902023.574 1  97720933.27911        29.900
  21249967.367 9 111669346.637 9        49.100    21249974.242 9  87015114.20549
        53.200    21249973.09449  21249969.340 6  83389497.880 6        40.000
  24598496.336 5 129265989.692 5        37.000    24598501.875 6 100726763.61946
        21.300    24598501.25846  24598501.020 1  96529805.79711        28.500
  20919320.172 9 109931785.510 9        53.200    20919326.453 9  85661161.74649
        55.100    20919326.43849  20919321.504 7  82091914.899 7        41.100
  20210376.961 9 106206280.614 9        50.800    20210383.254 9  82758165.30949
        55.000    20210382.60549  20210379.020 7  79309946.943 7        43.100
  22107864.109 8 116177625.972 8        45.700                    90528039.76048
        33.900    22107867.19548
 21  1  4  0 24  0.0000000  0 13G01G32G21G23G16G07G15G26G08G18G10G27
                                G20
  24567982.047 5 129105616.362 5        35.900    24567991.211 6 100601816.49846
        20.900    24567990.00446
  25079008.016 1 131791091.836 1        30.700    25079017.914 5 102694422.99547
        27.900    25079017.79347
  22716134.055 8 119374105.367 8        45.400                    93018800.87448
        31.700    22716137.28548
  22077989.859 8 116020638.736 8        46.100    22077994.316 8  90405712.45149
        36.900    22077993.49249  22077994.262 5  86638822.698 5        37.600
  22614027.273 8 118837497.316 8        45.600                    92600678.32949
        34.900    22614030.64549
  25039095.273 5 131581316.054 5        35.500    25039099.598 4 102530896.16445
        17.400    25039099.33645
  24892455.453 6 130810735.653 6        38.900    24892457.879 3 101930465.04247
        28.900    24892457.43447
  24923340.305 5 130973040.231 5        35.500    24923347.879 5 102056947.46447
        29.900    24923347.55947  24923343.266 1  97804600.45411        27.800
  21238435.008 9 111608743.299 9        48.700    21238441.992 9  86967890.82249
        53.200    21238440.76249  21238437.098 7  83344242.129 7        41.300
  24617001.125 5 129363231.282 5        35.300    24617006.227 6 100802536.25646
        20.400    24617005.65646  24617006.438 1  96602421.32111        28.900
  20919978.555 9 109935243.180 9        52.700    20919984.289 9  85663856.04449
        55.000    20919984.30949  20919979.410 7  82094496.939 7        41.000
  20212706.688 9 106218524.546 9        51.000    20212713.336 9  82767706.03049
        55.400    20212712.54749  20212708.828 7  79319090.120 7        43.200
  22121614.063 8 116249877.960 8        45.600                    90584340.01249
        34.600    22121616.53549
 21  1  4  0 24 30.0000000  0 13G01G32G21G23G16G07G15G26G08G18G10G27
                                G20
  24548531.672 5 129003401.516 5        37.400    24548539.461 6 100522168.53146
        21.800    24548539.74646
  25061479.430 6 131698955.939 6        38.700    25061486.082 6 102622628.75948
        33.000    25061484.84048
  22703770.516 8 119309134.232 8        46.400                    92968174.04948
        32.400    22703773.97348
  22090910.352 8 116088536.418 8        46.400    22090914.730 8  90458619.75149
        36.100    22090913.93049  22090915.070 6  86689525.513 6        38.200
  22632995.984 8 118937179.758 8        45.100                    92678352.94149
        34.000    22632999.26249
  25047734.039 5 131626714.246 5        35.300    25047738.605 3 102566271.31645
        16.300    25047738.46545
  24901865.938 6 130860191.896 6        38.200    24901869.613 4 101969002.39647
        29.400    24901869.27747
  24944657.156 4 131085063.376 4        34.600    24944665.277 5 102144238.19847
        28.500    24944665.14547  24944660.730 1  97888254.11611        29.500
  21226961.680 9 111548450.227 9        49.100    21226968.492 9  86920909.21549
        53.400    21226967.53949  21226963.578 6  83299218.096 6        40.400
  24635508.766 5 129460486.307 5        35.600    24635513.418 6 100878319.34545
        19.900    24635512.89545
  20920744.945 9 109939272.213 9        52.600    20920751.273 9  85666995.56249
        55.300    20920750.81649  20920746.281 7  82097505.657 7        41.600
  20215121.922 9 106231214.800 9        51.500    20215128.191 9  82777594.53749
        54.900    20215127.53149  20215123.762 7  79328566.626 7        43.500
  22135436.039 8 116322518.688 8        45.800                    90640943.16349
        34.200    22135439.63749
 21  1  4  0 25  0.0000000  0 13G01G32G21G23G16G07G15G26G08G18G10G27
                                G20
  24529098.242 5 128901281.383 5        36.700    24529106.387 6 100442594.36845
        18.600    24529106.23845
  25043948.266 6 131606829.604 6        39.900    25043954.516 5 102550842.00348
        33.700    25043953.60548
  22691447.078 8 119244372.109 8        46.300                    92917710.08148
        32.800    22691450.11748
  22103915.445 8 116156877.590 8        45.100    22103919.570 8  90511872.61949
        35.800    22103918.93449  22103919.754 5  86740559.530 5        37.900
  22652017.531 8 119037139.370 8        45.100                    92756243.53049
        34.500    22652020.94549
  25056444.836 4 131672488.948 4        34.700    25056449.539 4 102601939.81345
        17.800    25056449.74645
  24911377.047 6 130910171.589 6        38.900    24911381.016 5 102007947.64648
        30.900    24911380.99648
  24965972.648 5 131197066.058 5        37.900    24965979.313 6 102231513.04148
        33.400    24965979.31648  24965974.680 1  97971892.421 1        29.600
  21215547.273 9 111488468.493 9        49.300    21215554.441 9  86874170.20349
        53.400    21215553.30949  21215549.336 6  83254426.549 6        40.300
  24654017.781 5 129557753.904 5        36.100    24654022.449 6 100954112.30045
        18.600    24654021.66845
  20921620.359 9 109943872.274 9        51.900    20921626.402 9  85670580.03449
        54.900    20921626.41049  20921621.570 7  82100940.763 7        41.800
  20217621.805 9 106244351.916 9        51.000    20217627.980 9  82787831.24549
        54.900    20217627.55149  20217623.742 7  79338376.784 7        43.000
  22149333.477 8 116395546.073 8        45.400                    90697847.62048
        33.800    22149336.32848
 21  1  4  0 25 30.0000000  0 13G01G32G21G23G16G07G15G26G08G18G10G27
                                G20
  24509682.742 5 128799256.431 5        35.500    24509692.711 6 100363094.45445
        19.000    24509691.74245
  25026418.844 6 131514715.457 6        38.100    25026425.793 5 102479064.73747
        29.900    25026423.18447
  22679162.336 8 119179819.168 8        46.100                    92867409.09748
        33.100    22679166.33648
  22117004.281 8 116225659.668 8        45.800    22117007.965 8  90565469.03849
        36.100    22117007.75049  22117008.348 5  86791922.725 5        37.900
  22671091.828 8 119137373.160 8        45.100                    92834347.75249
        34.400    22671094.59049
  25065225.797 2 131718637.66912        31.300    25065231.262 5 102637899.74555
        15.600    25065231.61745
  24920986.305 6 130960672.668 6        39.100    24920991.098 5 102047299.14248
        31.100    24920991.81648
  24987279.219 3 131309045.668 3        33.000    24987288.770 6 102318769.85347
        29.000    24987288.04747  24987283.625 1  98055513.59511        29.700
  21204192.930 9 111428800.312 9        49.500    21204199.863 9  86827675.52049
        53.200    21204198.53949  21204194.500 6  83209869.136 6        40.800
  24672529.484 5 129655032.963 5        36.800    24672533.945 6 101029914.17246
        20.400    24672533.39546
  20922604.320 9 109949042.606 9        53.000    20922610.473 9  85674608.86849
        55.000    20922610.20749  20922605.375 7  82104801.734 7        41.600
  20220206.625 9 106257935.907 9        51.300    20220213.105 9  82798416.16649
        55.000    20220212.54349  20220208.668 7  79348520.672 7        43.200
  22163302.953 8 116468957.594 8        46.500                    90755051.40849
        34.400    22163305.95749
 21  1  4  0 26  0.0000000  0 13G01G32G21G23G16G07G15G26G08G18G10G27
                                G20
  24490287.781 6 128697327.896 6        38.500    24490296.125 6 100283669.62346
        22.600    24490295.53546
  25008892.836 5 131422616.575 5        37.900    25008899.934 5 102407299.38148
        30.800    25008897.92248
  22666918.602 8 119115476.077 8        46.400                    92817271.64648
        32.400    22666921.80548
  22130176.516 8 116294880.437 8        46.100    22130180.645 8  90619407.30949
        36.500    22130179.94549  22130180.590 5  86843613.590 5        37.100
  22690216.977 8 119237879.533 8        45.400                    92912664.40349
        34.100    22690220.10949
  25074079.570 5 131765158.398 5        36.400    25074083.730 5 102674149.63245
        19.600    25074083.69145
  24930696.289 6 131011693.879 6        38.400    24930699.797 5 102087055.93848
        30.100    24930700.19548
  25008585.016 6 131421000.146 6        38.300    25008591.633 5 102406007.09648
        31.200    25008592.07048  25008588.031 1  98139115.98011        29.200
  21192898.695 9 111369447.302 9        49.800    21192905.289 9  86781426.42349
        53.200    21192903.91449  21192900.188 6  83165547.118 6        40.100
  24691042.875 5 129752322.803 5        35.800    24691047.734 6 101105724.45645
        19.600    24691047.12145
  20923696.500 9 109954782.857 9        52.900    20923702.520 9  85679081.80149
        55.000    20923702.50449  20923697.695 6  82109088.301 6        40.900
  20222876.688 9 106271967.352 9        51.200    20222883.094 9  82809349.75849
        55.000    20222882.49249  20222878.879 7  79358998.699 7        43.400
  22177345.219 8 116542751.036 8        45.000                    90812552.79748
        33.400    22177348.28148
 21  1  4  0 26 30.0000000  0 13G01G32G21G23G16G07G15G26G08G18G10G27
                                G20
  24470909.898 6 128595496.613 6        38.500    24470918.078 6 100204320.57846
        22.200    24470917.67646  24470914.203 1  96029126.61011        30.600
  24991370.953 6 131330535.861 6        38.400    24991377.180 5 102335548.18548
        32.300    24991376.57048
  22654714.563 8 119051342.481 8        46.600                    92767297.43648
        32.000    22654717.17648
  22143431.805 8 116364537.526 8        46.300    22143436.086 8  90673685.54649
        37.700    22143435.38749  22143436.355 5  86895630.223 5        37.600
  22709394.109 8 119338655.213 8        45.200                    92991190.89648
        33.400    22709397.35548
  25083001.922 5 131812048.741 5        35.000    25083007.621 5 102710687.50545
        18.600    25083006.71145
  24940503.453 5 131063233.483 5        36.200    24940507.480 5 102127216.69047
        27.200    24940506.63747
  25029883.742 5 131532926.968 5        35.800    25029891.348 6 102493222.88848
        31.000    25029891.03148  25029886.855 1  98222697.65911        29.500
  21181664.492 9 111310411.067 9        49.700    21181670.965 9  86735424.16649
        53.300    21181669.64849  21181666.430 7  83121461.596 7        41.200
  24709558.023 5 129849622.45215        35.100    24709564.199 6 101181542.28855
        18.600    24709563.36745
  20924897.391 9 109961092.466 9        52.800    20924903.098 9  85683998.37949
        55.000    20924903.04349  20924898.574 7  82113800.009 7        41.500
  20225632.250 9 106286446.585 9        51.600    20225638.164 9  82820632.26949
        55.000    20225637.63349  20225634.352 7  79369811.099 7        43.500
  22191459.961 8 116616924.209 8        45.700                    90870350.07049
        34.000    22191463.10249
 21  1  4  0 27  0.0000000  0 13G01G32G21G23G16G07G15G26G08G18G10G27
                                G20
  24451549.578 5 128493763.322 5        36.600    24451558.625 5 100125047.88345
        19.900    24451558.10245  24451554.578 1  95953156.93711        30.400
  24973852.008 6 131238476.112 6        38.900    24973858.809 5 102263813.31448
        33.000    24973857.96148
  22642549.938 8 118987418.640 8        46.700                    92717486.63248
        31.800    22642552.62148
  22156769.438 8 116434628.484 8        45.900    22156773.914 8  90728301.88049
        35.900    22156773.23449  22156774.254 5  86947970.879 5        37.900
  22728621.930 8 119439697.628 8        45.100                    93069925.23248
        33.600    22728625.24648
  25091995.094 3 131859306.425 3        32.900    25092000.070 4 102747511.64545
        16.900    25091998.98445
  24950409.133 5 131115289.812 5        35.500    24950413.488 4 102167780.10247
        27.400    24950412.18447
  25051176.781 5 131644823.974 5        35.300    25051185.324 6 102580415.24847
        29.800    25051184.38347  25051180.367 1  98306257.05611        29.400
  21170490.484 9 111251693.378 9        49.100    21170497.480 9  86689670.12349
        53.100    21170496.17649  21170492.582 7  83077613.980 7        41.400
  24728076.242 5 129946931.04115        36.600    24728080.188 5 101257367.10856
        20.100    24728080.05546
  20926206.102 9 109967970.834 9        52.200    20926212.059 9  85689358.15449
        55.000    20926211.88349  20926207.289 7  82118936.469 7        41.400
  20228472.852 9 106301373.829 9        51.500    20228478.965 9  82832263.89049
        55.100    20228478.16849  20228474.762 7  79380958.067 7        43.600
  22205646.758 8 116691474.504 8        45.800                    90928441.20049
        34.200    22205649.76249
 21  1  4  0 27 30.0000000  0 13G01G32G21G23G16G07G15G26G08G18G10G27
                                G20
  24432209.234 3 128392129.100 3        32.000    24432218.684 6 100045852.36845
        18.600    24432218.44545  24432214.121 1  95877261.278 1        30.700
  24956337.531 5 131146440.463 5        36.800    24956345.250 6 102192097.21748
        31.200    24956344.51248
  22630425.352 8 118923704.837 8        45.900                    92667839.53548
        32.400    22630428.80148
  22170189.367 8 116505151.165 8        45.800    22170193.715 8  90783254.61449
        36.300    22170193.30949  22170194.285 5  87000633.929 5        37.500
  22747899.750 8 119541004.127 8        45.000                    93148865.32948
        33.500    22747903.12948
  25101057.820 3 131906929.18913        32.000    25101062.684 3 102784620.22353
        13.900    25101062.00443
  24960413.344 5 131167861.384 5        35.000    24960416.875 3 102208744.97547
        27.200    24960416.53147
  25072463.922 6 131756688.736 6        38.500    25072471.637 6 102667582.62848
        32.300    25072471.76648  25072467.398 1  98389792.47911        28.700
  21159377.836 9 111193296.210 9        49.700    21159384.781 9  86644165.83749
        53.500    21159383.58249  21159379.945 6  83034005.725 6        40.800
  24746595.453 6 130044247.78916        38.400    24746599.172 5 101333198.34555
        19.000    24746598.91445
  20927623.078 9 109975417.617 9        52.400    20927629.344 9  85695160.85049
        54.900    20927628.85549  20927624.469 6  82124497.409 6        40.900
  20231398.633 9 106316749.646 9        51.000    20231404.875 9  82844245.03349
        55.300    20231404.16449  20231400.656 7  79392440.005 7        43.400
  22219904.875 8 116766400.129 8        45.100                    90986824.79348
        33.600    22219907.54748
 21  1  4  0 28  0.0000000  0 13G01G32G21G23G16G07G15G26G08G18G10G27
                                G20
  24412888.422 5 128290594.866 5        37.700    24412897.340 6  99966734.88846
        21.300    24412897.02746  24412892.363 1  95801440.31811        29.900
  24938830.281 6 131054431.664 6        38.900    24938836.496 5 102120402.10548
        32.000    24938835.45348
  22618340.906 8 118860201.316 8        45.600                    92618356.27448
        32.000    22618344.51248
  22183691.250 8 116576103.154 8        45.800    22183695.609 8  90838541.87749
        35.200    22183694.86349  22183695.523 5  87053617.527 5        37.100
  22767227.789 8 119642571.664 8        45.400                    93228008.85148
        32.400    22767231.00048
  25110190.508 3 131954914.51313        33.200    25110193.621 3 102822011.26754
        14.800    25110192.94944
  24970514.477 5 131220946.262 5        36.300    24970519.344 4 102250109.80447
        27.600    24970518.64147
  25093744.758 5 131868519.092 5        36.000    25093752.434 6 102754723.15847
        28.800    25093751.90247
  21148326.563 9 111135221.406 9        50.100    21148333.738 9  86598912.74649
        53.600    21148332.33249  21148328.402 6  82990638.167 6        40.100
  24765115.148 5 130141572.04315        35.200    24765118.555 5 101409035.45555
        17.800    24765118.21945
  20929148.141 9 109983432.141 9        52.200    20929154.336 9  85701405.94449
        55.000    20929154.15249  20929149.234 7  82130482.267 7        41.600
  20234409.945 9 106332574.281 9        51.900    20234416.078 9  82856575.91149
        55.000    20234415.55149  20234411.969 7  79404257.101 7        43.000
  22234233.570 8 116841698.662 8        46.000                    91045498.97648
        33.300    22234236.38748
 21  1  4  0 28 30.0000000  0 13G01G32G21G23G16G07G15G26G08G18G10G27
                                G20
  24393586.977 5 128189161.054 5        37.400    24393594.746 6  99887695.49746
        22.800    24393594.59846  24393589.734 1  95725694.262 1        28.800
  24921326.547 6 130962452.295 6        38.900    24921333.121 5 102048729.87048
        33.200    24921332.58248
  22606296.945 8 118796907.658 8        46.300                    92569036.56048
        32.100    22606299.56648
  22197274.117 8 116647481.591 8        46.000    22197278.586 8  90894161.43849
        35.600    22197278.01649  22197277.895 5  87106919.630 5        36.600
  22786604.492 7 119744398.016 7        44.400                    93307354.05248
        33.100    22786607.71948
  25119389.016 4 132003259.818 4        34.800    25119393.383 3 102859682.77445
        16.900    25119392.27745
  24980714.156 5 131274542.570 5        36.300    24980718.184 4 102291873.15647
        29.100    24980717.30147
  25115018.273 5 131980312.325 5        35.200    25115025.500 5 102841834.73047
        27.700    25115025.40647
  21137337.031 9 111077469.869 9        49.100    21137343.922 9  86553911.54749
        53.800    21137342.58249  21137338.547 6  82947512.013 6        40.400
  24783636.555 4 130238902.298 4        34.100    24783640.676 5 101484877.15145
        17.800    24783640.61745
  20930781.445 9 109992013.402 9        52.000    20930787.305 9  85708092.64249
        55.100    20930786.88349  20930782.586 6  82136890.370 6        40.900
  20237506.523 9 106348847.620 9        51.000    20237512.926 9  82869256.43049
        55.000    20237512.14549  20237508.777 7  79416409.243 7        43.300
  22248632.547 8 116917367.252 8        45.600                    91104461.51948
        33.200    22248635.38348
 21  1  4  0 29  0.0000000  0 13G01G32G21G23G16G07G15G26G08G18G10G27
                                G20
  24374303.820 5 128087828.562 5        37.500    24374312.184 6  99808735.20346
        22.200    24374312.13346  24374308.113 1  95650023.93411        29.900
  24903830.297 6 130870505.546 6        39.900    24903836.375 5 101977083.04048
        33.500    24903834.63348
  22594292.602 8 118733824.280 8        46.500                    92519880.68948
        32.100    22594295.21548
  22210937.727 8 116719284.300 8        45.500    22210942.273 8  90950111.59549
        36.000    22210941.20749  22210941.840 5  87160538.516 5        37.100
  22806030.047 7 119846480.116 7        44.700                    93386898.52548
        33.100    22806033.15648
  25128657.195 4 132051963.112 4        34.600    25128661.184 2 102897633.45344
        14.800    25128660.35544
  24991010.805 5 131328648.883 5        37.500    24991015.195 5 102334033.95648
        31.900    24991014.05148
  25136285.078 6 132092066.103 6        39.500    25136291.359 5 102928915.63948
        32.100    25136291.37948
  21126408.891 9 111020043.924 9        49.500    21126416.027 9  86509164.05949
        53.500    21126414.55949  21126410.723 6  82904629.020 6        40.900
  24802159.344 5 130336237.990 5        36.100    24802164.465 6 101560723.12145
        18.600    24802162.79745
  20932522.172 9 110001160.910 9        52.200    20932528.023 9  85715220.57949
        54.900    20932527.66449  20932523.313 7  82143721.289 7        41.400
  20240688.828 9 106365570.140 9        51.300    20240695.180 9  82882286.96149
        55.000    20240694.45349  20240690.844 7  79428896.834 7        43.100
  22263101.758 7 116993403.995 7        44.700                    91163710.92848
        33.500    22263104.71948
 21  1  4  0 29 30.0000000  0 13G01G32G21G23G16G07G15G26G08G18G10G27
                                G20
  24355040.336 5 127986598.613 5        37.000    24355048.852 6  99729854.68546
        20.900    24355048.28146  24355043.879 2  95574430.169 2        31.100
  24886339.750 6 130778594.275 6        39.000    24886346.344 5 101905463.90248
        33.100    24886345.36348
  22582327.945 8 118670951.269 8        45.800                    92470888.74148
        32.600    22582331.01248
  22224681.555 8 116791508.939 8        45.600    22224685.758 8  91006390.53149
        35.500    22224685.27749  22224686.191 5  87214472.466 5        37.000
  22825504.008 7 119948815.289 7        44.100                    93466640.20748
        32.700    22825506.83648
  25137992.836 4 132101022.249 4        34.100    25137997.484 4 102935861.16645
        16.300    25137996.82445
  25001403.375 5 131383263.292 5        37.800    25001406.836 5 102376590.66448
        31.400    25001406.86748
  25157542.617 5 132203778.328 5        36.400    25157550.527 6 103015964.11148
        31.100    25157550.37948
  21115543.680 9 110962945.013 9        49.200    21115550.516 9  86464671.40949
        53.500    21115549.20349  21115545.680 7  82861990.203 7        41.300
  24820681.758 5 130433578.395 5        36.400    24820687.043 6 101636572.72046
        20.400    24820686.24246
  20934370.492 9 110010874.123 9        53.100    20934376.215 9  85722789.32449
        55.200    20934376.09849  20934371.207 7  82150974.676 7        41.800
  20243956.563 9 106382742.196 9        51.500    20243962.957 9  82895667.77749
        55.300    20243962.32849  20243958.652 7  79441720.118 7        43.700
  22277640.766 8 117069806.354 8        45.300                    91223245.22448
        32.900    22277643.89148
 21  1  4  0 30  0.0000000  0 11G01G32G21G23G16G26G08G18G10G27G20
  24335796.539 5 127885471.87415        36.700    24335804.250 6  99651054.72455
        19.600    24335803.87945  24335799.367 1  95498913.553 1        30.100
  24868856.117 6 130686721.615 6        38.400    24868863.762 5 101833874.82348
        31.500    24868862.27048
  22570403.992 8 118608289.273 8        46.200                    92422061.24448
        33.200    22570407.17248
  22238505.664 8 116864153.261 8        46.800    22238509.863 8  91062996.49249
        35.800    22238509.22349  22238510.148 5  87268719.850 5        37.600
  22845025.680 7 120051401.480 7        44.700                    93546577.48148
        32.700    22845028.78148
  25178793.672 5 132315447.02715        35.900    25178799.367 5 103102978.53357
        28.400    25178799.36747
  21104740.648 9 110906175.286 9        49.500    21104747.805 9  86420435.26149
        53.500    21104746.22349  21104742.902 7  82819597.244 7        41.400
  24839205.953 5 130530922.818 5        35.300    24839210.707 6 101712425.47845
        19.000    24839209.99645
  20936326.500 9 110021152.508 9        52.900    20936332.227 9  85730798.46849
        55.000    20936331.92649  20936327.102 7  82158650.118 7        41.800
  20247310.250 9 106400364.218 9        51.100    20247316.309 9  82909399.21949
        55.000    20247315.61349  20247312.000 7  79454879.425 7        43.000
  22292249.023 8 117146572.455 8        45.300                    91283062.96448
        32.500    22292252.02048
 21  1  4  0 30 30.0000000  0 11G01G32G21G23G16G26G08G18G10G27G20
  24316572.711 5 127784449.037 5        37.800    24316580.906 6  99572335.62746
        22.500    24316580.07846  24316576.242 1  95423474.42911        29.400
  24851382.234 6 130594889.917 6        40.300    24851388.629 6 101762317.67248
        33.800    24851387.94148
  22558519.508 8 118545837.874 8        45.900                    92373397.84348
        33.400    22558522.93848
  22252408.422 8 116937214.298 8        45.500    22252412.742 8  91119927.16249
        35.800    22252412.11749  22252412.816 5  87323278.451 5        36.800
  22864593.750 7 120154234.865 7        43.800                    93626707.37948
        32.600    22864597.38748
  25200033.859 5 132427069.029 5        37.700    25200039.621 5 103189956.92847
        28.700    25200039.19147
  21094000.414 9 110849735.873 9        50.000    21094007.738 9  86376456.49849
        53.800    21094006.27749  21094002.785 7  82777450.932 7        41.100
  24857730.086 3 130628269.935 3        32.900    24857735.172 5 101788280.35745
        18.300    24857734.89845
  20938389.695 9 110031994.856 9        52.500    20938395.539 9  85739247.05649
        54.900    20938395.34849  20938390.277 7  82166746.665 7        41.100
  20250748.859 9 106418435.951 9        51.200    20250755.051 9  82923481.07949
        54.900    20250754.47749  20250751.043 7  79468374.538 7        43.400
  22306925.531 7 117223699.606 7        44.300                    91343162.03148
        33.000    22306928.64548
 21  1  4  0 31  0.0000000  0 11G01G32G21G23G16G26G08G18G10G27G20
  24297368.367 5 127683531.409 5        36.800    24297376.695 6  99493698.57646
        21.100    24297375.99646  24297372.590 1  95348113.919 1        30.700
  24833915.695 6 130503102.867 6        40.800    24833922.109 5 101690795.31449
        34.100    24833920.69549
  22546675.883 8 118483597.824 8        46.000                    92324899.12248
        33.300    22546678.98048
  22266390.703 8 117010690.353 8        45.100    22266394.785 8  91177181.23449
        34.900    22266394.16449  22266394.750 5  87378146.930 5        36.600
  22884209.195 7 120257313.979 7        44.200                    93707028.73248
        33.000    22884212.84448
  25221264.852 2 132538642.864 2        31.000    25221273.148 6 103276897.63247
        27.000    25221272.71947
  21083324.078 9 110793629.012 9        50.000    21083330.617 9  86332736.86449
        53.900    21083329.56349  21083325.984 7  82735552.967 7        41.300
  24876254.570 3 130725619.444 3        32.400    24876260.070 5 101864137.08745
        17.800    24876258.51245
  20940560.219 9 110043401.128 9        52.600    20940566.016 9  85748135.06649
        54.900    20940565.91449  20940561.012 7  82175264.365 7        41.000
  20254273.469 9 106436958.334 9        51.100    20254279.926 9  82937914.10049
        54.900    20254279.16849  20254275.625 7  79482206.202 7        43.200
  22321670.578 7 117301185.681 7        44.300                    91403540.79248
        31.400    22321673.51648
 21  1  4  0 31 30.0000000  0 11G01G32G21G23G16G26G08G18G10G27G20
  24278184.633 6 127582719.390 6        38.300    24278192.668 6  99415143.78146
        22.500    24278192.34846  24278187.746 1  95272832.23611        29.500
  24816457.977 6 130411362.723 6        39.900    24816465.047 6 101619309.49848
        33.100    24816463.72348
  22534872.453 8 118421568.476 8        46.500                    92276564.57449
        34.000    22534875.35949
  22280450.680 8 117084578.325 8        45.600    22280455.270 8  91234756.27749
        35.100    22280454.66449  22280455.363 5  87433323.029 5        37.200
  22903870.461 7 120360635.417 7        44.800                    93787538.94048
        32.200    22903873.95748
  25242488.570 5 132650165.90215        36.800    25242495.762 5 103363798.54058
        31.400    25242494.94948
  21072710.758 9 110737856.170 9        49.100    21072717.266 9  86289277.50249
        53.900    21072716.30149  21072712.676 7  82693904.416 7        41.100
  24894778.695 3 130822970.154 3        33.700    24894784.520 5 101939994.78445
        16.900    24894784.28545
  20942837.570 9 110055369.935 9        52.900    20942843.719 9  85757461.40749
        54.900    20942843.51649  20942838.371 7  82184202.100 7        41.000
  20257884.008 9 106455930.936 9        51.700    20257890.254 9  82952697.94049
        55.000    20257889.62549  20257886.203 7  79496374.027 7        43.000
  22336483.727 7 117379028.152 7        44.900                    91464197.25248
        31.900    22336486.63748
 21  1  4  0 32  0.0000000  0 11G01G32G21G23G16G26G08G18G10G27G20
  24259020.648 5 127482013.744 5        37.000    24259029.246 6  99336671.89746
        21.700    24259029.21946  24259024.367 2  95197630.007 2        31.000
  24799009.039 5 130319672.392 5        36.900    24799016.391 6 101547862.50048
        32.800    24799015.94148
  22523108.836 8 118359749.835 8        46.000                    92228394.23348
        33.600    22523111.75448
  22294589.430 8 117158875.783 8        45.100    22294593.645 8  91292650.39949
        35.300    22294593.16049  22294593.770 5  87488804.893 5        36.800
  22923577.336 7 120464196.376 7        44.300                    93868235.77348
        31.500    22923581.06648
  25263698.422 5 132761635.451 5        35.800    25263706.859 5 103450657.99847
        29.400    25263706.45747
  21062161.203 9 110682418.906 9        50.300    21062168.129 9  86246079.63349
        53.700    21062166.77049  21062163.098 6  82652506.454 6        40.900
  24913307.328 5 130920320.955 5        37.300    24913310.754 5 102015852.51745
        18.600    24913310.90645
  20945221.969 9 110067900.549 9        51.300    20945227.977 9  85767225.53649
        54.900    20945228.21149  20945223.430 7  82193559.385 7        41.200
  20261580.320 9 106475353.970 9        51.500    20261586.207 9  82967832.76149
        55.000    20261585.78149  20261582.184 7  79510878.246 7        43.100
  22351364.422 7 117457224.621 7        44.600                    91525129.56848
        32.500    22351366.59048
 21  1  4  0 32 30.0000000  0 11G01G32G21G23G16G26G08G18G10G27G20
  24239878.477 6 127381415.664 6        38.100    24239885.422 6  99258283.83846
        21.800    24239885.65246  24239881.063 1  95122508.113 1        30.900
  24781571.227 5 130228035.140 5        37.400    24781578.449 5 101476456.88748
        32.600    24781577.71548
  22511384.883 8 118298142.373 8        46.000                    92180388.45349
        34.000    22511387.74249
  22308805.336 8 117233580.599 8        45.600    22308809.563 8  91350861.93849
        35.200    22308808.94549  22308809.773 5  87544590.952 5        36.800
  22943329.195 7 120567994.108 7        44.700                    93949117.12848
        32.300    22943333.15648
  25284897.992 1 132873049.65211        29.100    25284908.059 6 103537474.31057
        25.800    25284907.56347  25284903.027 1  99223468.65011        28.500
  21051676.055 9 110627319.032 9        50.700    21051683.172 9  86203144.65749
        54.100    21051681.87949  21051678.008 7  82611360.434 7        41.000
  24931832.008 5 131017671.686 5        36.900    24931835.953 6 102091710.19945
        19.000    24931836.11745
  20947713.133 9 110080992.478 9        52.400    20947719.430 9  85777427.04349
        55.000    20947719.25449  20947714.688 7  82203335.827 7        41.800
  20265362.047 9 106495228.007 9        51.600    20265368.410 9  82983319.01049
        55.300    20265367.63349  20265364.133 7  79525719.234 7        43.100
  22366311.313 7 117535772.565 7        44.200                    91586335.74948
        31.800    22366314.00448
 21  1  4  0 33  0.0000000  0 11G01G32G21G23G16G26G08G18G10G27G20
  24220755.313 5 127280925.526 5        37.800    24220762.887 6  99179979.84646
        21.700    24220762.44546  24220757.727 1  95047466.843 1        30.300
  24764143.430 6 130136453.460 6        38.100    24764150.902 6 101405094.53548
        32.800    24764149.73048
  22499701.531 8 118236745.975 8        45.800                    92132547.12748
        33.800    22499704.76248
  22323098.000 8 117308689.796 8        45.400    22323101.992 8  91409388.58549
        34.300    22323101.59449  22323102.309 5  87600678.969 5        36.900
  22963126.078 7 120672026.188 7        44.500                    94030181.05548
        31.700    22963129.68448
  25306092.234 6 132984405.92916        38.300    25306098.969 6 103624245.32058
        31.800    25306098.53148  25306094.340 1  99306624.21711        26.000
  21041255.070 9 110572557.811 9        49.600    21041261.938 9  86160473.57749
        54.100    21041261.34849  21041257.488 7  82570467.314 7        41.300
  24950355.617 5 131115020.924 5        36.000    24950361.332 6 102167566.72645
        19.600    24950360.45745
  20950310.977 9 110094644.396 9        51.800    20950317.359 9  85788064.89749
        54.900    20950317.22749  20950312.141 7  82213530.459 7        41.400
  20269229.469 9 106515552.703 9        51.600    20269235.797 9  82999156.43649
        55.100    20269235.36349  20269231.773 7  79540896.753 7        42.700
  22381324.891 7 117614670.068 7        44.100                    91647814.32148
        32.800    22381327.78148
 21  1  4  0 33 30.0000000  0 11G01G32G21G23G16G26G08G18G10G27G20
  24201652.281 5 127180544.302 5        35.800    24201660.723 6  99101760.80545
        19.300    24201660.40645  24201656.586 1  94972506.92711        30.600
  24746728.008 5 130044930.516 5        37.900    24746735.164 6 101333777.97348
        32.300    24746734.49648
  22488057.656 8 118175560.897 8        46.000                    92084870.46048
        33.200    22488061.13348
  22337467.180 8 117384201.213 8        45.400    22337471.477 8  91468228.66149
        34.600    22337470.79349  22337471.684 5  87657067.382 5        36.600
  22982967.070 8 120776289.585 8        45.600                    94111425.26548
        32.300    22982970.32448
  25327271.648 5 133095701.925 5        36.000    25327277.742 5 103710969.61947
        28.700    25327277.19947
  21030899.656 9 110518137.331 9        49.800    21030906.426 9  86118068.00949
        54.300    21030905.41849  21030901.684 6  82529828.638 6        40.400
  24968880.523 5 131212368.023 5        36.400    24968886.090 5 102243421.54445
        19.300    24968885.48845
  20953015.375 9 110108855.817 9        52.800    20953021.449 9  85799138.73949
        55.000    20953021.42649  20953016.391 7  82224142.881 7        41.400
  20273183.172 9 106536328.539 9        51.000    20273189.352 9  83015345.39249
        55.000    20273188.83649  20273185.324 7  79556411.171 7        43.600
  22396404.453 7 117693914.593 7        44.700                    91709563.30048
        32.400    22396407.95348
 21  1  4  0 34  0.0000000  0 11G01G32G21G23G16G26G08G18G10G27G20
  24182572.711 6 127080273.103 6        38.600    24182580.164 6  99023627.42446
        22.300    24182579.69946  24182574.879 1  94897629.14411        29.700
  24729322.953 5 129953469.336 5        37.900    24729330.656 6 101262509.54348
        32.200    24729329.43448
  22476454.742 8 118114587.521 8        46.300                    92037358.76648
        32.300    22476458.49648
  22351913.188 7 117460112.493 7        44.900    22351916.883 8  91527380.29649
        35.100    22351916.33249  22351916.895 5  87713754.355 5        36.300
  23002851.320 7 120880781.502 7        44.100                    94192847.52748
        32.700    23002854.95348
  25348434.859 3 133206935.90013        32.000    25348443.805 5 103797645.38957
        25.500    25348443.65247
  21020608.969 9 110464059.505 9        50.500    21020615.941 9  86075929.43649
        54.100    21020614.53549  21020610.871 7  82489445.844 7        41.300
  24987404.461 5 131309712.416 5        35.000    24987409.902 5 102319274.35045
        18.600    24987409.26645
  20955826.102 9 110123625.929 9        52.600    20955832.285 9  85810647.92949
        55.000    20955831.98449  20955827.453 6  82235172.525 6        40.900
  20277222.570 9 106557555.773 9        51.600    20277228.820 9  83031886.09449
        55.000    20277228.17649  20277224.508 7  79572262.674 7        43.200
  22411549.727 7 117773504.120 7        43.900                    91771581.11748
        31.800    22411552.38748
 21  1  4  0 34 30.0000000  0 10G01G32G21G23G16G08G18G10G27G20
  24163513.273 6 126980112.706 6        38.100    24163519.766 6  98945580.39746
        22.300    24163519.62546  24163515.648 1  94822833.96811        30.100
  24711932.180 6 129862072.807 6        39.600    24711938.039 6 101191291.48448
        33.700    24711937.65248
  22464892.734 8 118053825.254 8        45.800                    91990011.58348
        33.600    22464895.67648
  22366433.820 8 117536420.932 8        45.500    22366438.086 8  91586841.41649
        34.200    22366437.49249  22366437.766 5  87770737.931 5        36.500
  23022778.563 7 120985499.732 7        44.200                    94274446.13948
        31.000    23022781.78948
  21010383.664 9 110410325.738 9        49.100    21010390.813 9  86034058.97149
        54.300    21010389.28549  21010385.770 6  82449319.980 6        40.700
  25005927.609 4 131407053.159 4        34.700    25005933.238 5 102395124.29645
        15.600    25005932.47345
  20958743.188 9 110138953.715 9        52.800    20958749.137 9  85822591.65949
        54.900    20958748.85949  20958744.125 7  82246618.597 7        41.300
  20281347.930 9 106579234.403 9        51.400    20281354.141 9  83048778.52049
        55.000    20281353.51649  20281349.871 7  79588451.268 7        42.900
  22426760.930 7 117853435.919 7        43.600                    91833865.62648
        31.800    22426763.32848
 21  1  4  0 35  0.0000000  0 10G01G32G21G23G16G08G18G10G27G20
  24144473.086 5 126880063.618 5        36.600    24144481.328 6  98867620.10846
        21.700    24144480.34846  24144476.930 2  94748122.125 2        31.300
  24694553.969 7 129770743.792 7        41.000    24694558.988 6 101120126.02248
        33.800    24694558.10248
  22453370.258 8 117993274.576 8        45.700                    91942829.25848
        33.400    22453372.92248
  22381029.711 7 117613124.106 7        44.900    22381034.465 8  91646610.12349
        34.800    22381033.43049  22381034.195 5  87828016.320 5        35.500
  23042747.984 7 121090441.290 7        43.700                    94356218.75848
        31.300    23042751.60248
  21000224.422 9 110356937.626 9        50.000    21000231.184 9  85992457.84449
        54.400    21000230.09449  21000226.445 7  82409452.227 7        41.700
  25024450.109 5 131504389.447 5        35.200    25024454.914 5 102470970.75245
        18.300    25024454.80945
  20961765.813 9 110154838.307 9        53.200    20961771.527 9  85834969.27149
        54.900    20961771.40649  20961766.910 6  82258480.469 6        40.300
  20285559.125 9 106601364.600 9        52.100    20285565.219 9  83066022.82749
        54.900    20285564.74649  20285560.910 7  79604977.044 7        42.100
  22442035.555 7 117933707.599 7        43.800                    91896414.99348
        31.600    22442038.87948
 21  1  4  0 35 30.0000000  0 10G01G32G21G23G16G08G18G10G27G20
  24125455.445 5 126780127.215 5        35.200    24125464.109 6  98789747.71446
        21.100    24125463.87946  24125458.867 1  94673494.451 1        30.600
  24677185.500 6 129679485.589 6        38.700    24677192.883 5 101049015.72348
        33.400    24677191.33648
  22441888.375 8 117932935.960 8        47.000                    91895812.19448
        33.900    22441891.09448
  22395700.172 7 117690219.857 7        44.700    22395705.324 8  91706684.73349
        34.000    22395703.93849  22395704.512 5  87885587.776 5        36.500
  23062759.508 7 121195603.568 7        43.300                    94438163.38648
        31.000    23062763.25848
  20990131.102 9 110303897.340 9        50.300    20990138.016 9  85951127.74949
        54.400    20990136.74249  20990133.199 7  82369844.251 7        41.200
  25042971.734 4 131601720.859 4        34.700    25042977.441 6 102546813.37945
        18.600    25042976.48445
  20964894.766 9 110171279.138 9        52.300    20964900.551 9  85847780.32249
        55.000    20964900.23449  20964895.328 7  82270757.716 7        41.000
  20289856.328 9 106623946.803 9        51.500    20289862.539 9  83083619.34249
        54.900    20289861.91449  20289858.289 7  79621840.383 7        43.200
  22457375.336 7 118014316.934 7        43.400                    91959227.46748
        30.700    22457377.85948
 21  1  4  0 36  0.0000000  0 10G01G32G21G23G16G08G18G10G27G20
  24106460.422 5 126680304.157 5        37.900    24106467.680 6  98711963.51246
        22.300    24106467.89146  24106463.453 2  94598951.202 2        31.100
  24659833.164 5 129588300.944 5        37.000    24659840.770 6 100977962.74348
        32.700    24659840.47348
  22430446.766 8 117872809.265 8        46.700                    91848960.24149
        34.700    22430449.43849
  22410445.734 8 117767705.506 8        45.000    22410450.008 8  91767063.15349
        34.800    22410449.19949  22410449.637 5  87943450.443 5        36.600
  23082813.109 7 121300983.786 7        43.400                    94520277.83548
        31.600    23082816.52048
  20980103.992 9 110251206.563 9        49.900    20980111.195 9  85910069.99449
        54.300    20980110.03949  20980106.426 7  82330497.228 7        41.800
  25061493.172 5 131699046.33115        37.100    25061497.926 6 102622651.32455
        19.000    25061496.65645
  20968128.688 9 110188275.062 9        52.700    20968134.703 9  85861023.90949
        55.000    20968134.27349  20968129.727 7  82283449.503 7        41.400
  20294239.625 9 106646980.976 9        51.800    20294245.766 9  83101568.03849
        54.900    20294245.28149  20294241.641 7  79639041.201 7        43.400
  22472778.078 7 118095261.516 7        43.100                    92022301.15448
        31.300    22472781.49648
 21  1  4  0 36 30.0000000  0 10G01G32G21G23G16G08G18G10G27G20
  24087485.680 5 126580594.718 5        37.200    24087494.301 6  98634267.87646
        24.000    24087493.91046  24087488.313 1  94524492.92811        29.800
  24642497.539 6 129497192.306 6        38.600    24642503.453 6 100906969.04148
        33.300    24642502.27348
  22419044.813 8 117812893.935 8        46.800                    91802272.98949
        34.600    22419048.17249
  22425264.523 7 117845577.980 7        44.600    22425268.574 8  91827743.00849
        34.200    22425267.98449  22425268.656 5  88001601.937 5        37.000
  23102907.203 7 121406579.080 7        43.600                    94602559.88248
        31.900    23102911.06648
  20970144.094 9 110198865.900 9        50.100    20970150.832 9  85869285.06349
        54.300    20970149.80149  20970146.148 7  82291411.654 7        41.100
  25080011.492 5 131796364.635 5        36.000    25080016.883 6 102698483.72645
        18.600    25080016.57045
  20971468.367 9 110205824.572 9        52.700    20971474.082 9  85874698.86049
        55.000    20971473.82449  20971469.094 6  82296554.660 6        40.800
  20298709.039 9 106670466.640 9        50.300    20298715.000 9  83119868.55249
        55.000    20298714.45749  20298710.777 7  79656579.198 7        42.800
  22488244.938 7 118176539.264 7        43.500                    92085634.46048
        31.700    22488247.96548
 21  1  4  0 37  0.0000000  0 10G01G32G21G23G16G08G18G10G27G20
  24068534.422 5 126481000.400 5        37.300    24068541.785 6  98556662.01246
        21.700    24068541.96546  24068536.691 1  94450120.63711        30.300
  24625175.273 6 129406163.440 6        39.200    24625181.605 6 100836037.44948
        33.900    24625180.98448
  22407684.180 8 117753191.067 8        46.800                    91755751.30949
        34.300    22407687.15249
  22440156.266 7 117923835.578 7        44.700    22440160.348 8  91888722.95349
        34.200    22440159.73849  22440160.488 5  88060041.050 5        36.200
  23123041.641 7 121512386.904 7        43.300                    94685007.52948
        31.700    23123045.29748
  20960251.258 9 110146878.761 9        49.800    20960258.270 9  85828775.60849
        54.300    20960256.92249  20960253.398 7  82252590.099 7        41.000
  25098528.734 5 131893675.818 5        35.100    25098533.883 5 102774310.59745
        17.400    25098534.00845
  20974913.086 9 110223927.515 9        52.500    20974918.957 9  85888805.05549
        54.900    20974918.75849  20974913.820 7  82310073.097 7        41.500
  20303264.258 9 106694404.698 9        51.300    20303270.242 9  83138521.58349
        54.900    20303269.65649  20303266.172 7  79674455.016 7        43.500
  22503774.398 7 118258147.832 7        43.200                    92149225.54548
        31.200    22503777.43448
 21  1  4  0 37 30.0000000  0 10G01G32G21G23G16G08G18G10G27G20
  24049604.461 6 126381521.735 6        38.200    24049611.934 6  98479146.14146
        22.000    24049611.48046  24049607.207 2  94375834.701 2        31.400
  24607867.945 6 129315216.779 6        39.000    24607875.145 6 100765169.94449
        34.200    24607874.46949
  22396363.570 8 117693700.452 8        47.200                    91709395.00649
        35.000    22396366.22349
  22455120.734 7 118002475.279 7        44.700    22455125.168 8  91950000.64949
        34.200    22455124.35949  22455125.324 5  88118765.516 5        35.700
  23143216.172 7 121618404.507 7        43.100                    94767618.63948
        30.800    23143219.26248
  20950425.961 9 110095245.459 9        51.200    20950432.621 9  85788541.85849
        54.400    20950431.32449  20950427.957 6  82214032.766 6        40.800
  25117045.602 5 131990978.515 5        36.300    25117050.879 5 102850131.00445
        18.300    25117048.64845
  20978462.672 9 110242582.457 9        52.000    20978468.977 9  85903341.36949
        55.000    20978468.82449  20978463.746 7  82324003.744 7        41.100
  20307905.344 9 106718794.792 9        51.500    20307911.555 9  83157526.85249
        54.900    20307911.09849  20307907.445 7  79692668.396 7        42.900
  22519366.500 7 118340084.545 7        43.200                    92213072.33948
        30.800    22519369.35948
 21  1  4  0 38  0.0000000  0  9G01G32G21G23G16G08G10G27G20
  24030695.906 6 126282159.709 6        38.100    24030704.047 7  98401721.21646
        23.800    24030703.71546  24030698.770 1  94301635.74911        30.400
  24590577.477 6 129224355.528 6        38.700    24590584.332 6 100694368.97948
        33.500    24590583.57048
  22385082.922 8 117634421.825 8        46.600                    91663203.88549
        34.800    22385086.15649
  22470157.852 7 118081494.859 7        44.700    22470162.316 8  92011574.33548
        33.700    22470161.49648  22470162.133 5  88177773.669 5        36.000
  23163430.023 7 121724628.630 7        43.500                    94850390.66948
        31.000    23163433.16848
  20940668.070 9 110043968.033 9        50.700    20940674.852 9  85748585.42249
        54.500    20940673.55549  20940670.207 7  82175741.163 7        41.500
  20982117.742 9 110261788.487 9        51.900    20982123.648 9  85918307.12249
        55.000    20982123.48849  20982118.949 7  82338345.908 7        41.000
  20312632.805 9 106743637.172 9        51.100    20312638.996 9  83176884.53549
        55.200    20312638.43049  20312634.707 7  79711219.494 7        42.900
  22535020.703 7 118422347.327 7        42.600                    92277173.19948
        30.700    22535023.68048
 21  1  4  0 38 30.0000000  0  9G01G32G21G23G16G08G10G27G20
  24011809.164 5 126182914.961 5        36.100    24011817.973 6  98324387.71546
        21.700    24011817.53546  24011813.109 1  94227524.49011        30.300
  24573304.188 6 129133582.561 6        38.900    24573311.227 6 100623636.81448
        32.800    24573309.65648
  22373842.539 8 117575355.257 8        46.100                    91617178.00749
        34.900    22373846.00449
  22485266.359 7 118160891.668 7        44.300    22485270.996 8  92073441.97349
        34.400    22485270.70749  22485270.922 5  88237063.472 5        36.900
  23183682.398 7 121831057.444 7        43.500                    94933322.23648
        30.600    23183686.12548
  20930978.430 9 109993048.363 9        50.200    20930985.129 9  85708907.75949
        54.700    20930983.93849  20930980.148 7  82137716.720 7        41.000
  20985877.078 9 110281544.594 9        51.200    20985883.066 9  85933701.48749
        55.000    20985883.17249  20985878.293 7  82353098.848 7        41.100
  20317446.102 9 106768931.817 9        50.500    20317452.414 9  83196594.64849
        55.700    20317451.78149  20317448.297 7  79730108.361 7        43.500
  22550736.930 7 118504933.634 7        43.700                    92341526.15548
        31.300    22550739.20348
 21  1  4  0 39  0.0000000  0  9G01G32G21G23G16G08G10G27G20
  23992947.242 6 126083788.465 6        39.200    23992954.598 6  98247146.35046
        22.900    23992954.57046  23992949.957 1  94153501.52111        30.600
  24556047.516 6 129042900.975 6        38.100    24556054.613 5 100552975.83148
        33.000    24556053.36748
  22362642.836 8 117516500.979 8        45.800                    91571317.56849
        34.800    22362646.41449
  22500446.609 7 118240663.231 7        44.100    22500451.141 8  92135601.62648
        32.900    22500450.67648  22500451.195 5  88296633.132 5        37.000
  23203973.586 7 121937687.971 7        43.800                    95016410.94548
        30.600    23203977.12148
  20921357.328 9 109942488.186 9        50.900    20921363.785 9  85669510.21149
        54.800    20921362.86349  20921358.789 7  82099960.768 7        41.400
  20989741.242 9 110301849.789 9        52.800    20989746.941 9  85949523.72749
        54.900    20989747.02749  20989742.391 6  82368261.824 6        40.900
  20322345.828 9 106794678.871 9        51.000    20322351.734 9  83216657.28149
        55.100    20322351.23449  20322347.695 7  79749335.062 7        43.800
  22566513.164 7 118587841.009 7        43.400                    92406129.30648
        30.200    22566515.97748
 21  1  4  0 39 30.0000000  0  9G01G32G21G23G16G08G10G27G20
  23974107.602 6 125984780.853 6        39.500    23974114.211 6  98169997.55146
        22.900    23974113.89546  23974109.000 2  94079567.28712        31.000
  24538808.938 6 128952313.331 6        38.100    24538816.703 6 100482388.08249
        34.000    24538815.16049
  22351483.992 8 117457859.035 8        46.300                    91525622.56949
        34.400    22351486.96149
  22515697.516 7 118320806.812 7        44.500    22515701.609 8  92198051.16648
        33.300    22515701.03148  22515701.695 5  88356480.599 5        36.100
  23224302.586 7 122044516.671 7        44.100                    95099654.09348
        30.800    23224306.05548
  20911804.609 9 109892289.191 9        51.000    20911811.391 9  85630394.11249
        54.900    20911810.33649  20911806.527 7  82062474.495 7        41.300
  20993709.414 9 110322702.659 9        52.300    20993715.055 9  85965772.71649
        54.900    20993715.05149  20993710.355 6  82383833.791 6        40.500
  20327331.180 9 106820878.032 9        50.600    20327337.652 9  83237072.20249
        55.000    20327336.91449  20327333.246 7  79768899.346 7        43.200
  22582350.867 7 118671066.982 7        42.800                    92470980.71448
        30.500    22582353.51648
 21  1  4  0 40  0.0000000  0  9G01G32G21G23G16G08G10G27G20
  23955288.133 5 125885893.003 5        36.500    23955296.238 6  98092942.12046
        21.700    23955296.01646  23955292.590 3  94005722.540 3        32.100
  24521589.781 6 128861822.950 6        39.400    24521596.313 6 100411876.10049
        34.800    24521596.02049
  22340365.109 8 117399429.654 8        45.700                    91480093.21549
        34.300    22340368.25849
  22531018.570 8 118401320.017 8        45.100    22531022.887 8  92260788.75648
        33.200    22531021.81648  22531022.926 5  88416604.102 5        35.300
  23244668.750 7 122151541.305 7        43.900                    95183049.91048
        30.500    23244672.63348
  20902320.836 9 109842452.681 9        51.300    20902327.555 9  85591560.46849
        54.700    20902326.48049  20902323.023 6  82025258.911 6        40.900
  20997781.594 9 110344102.403 9        52.300    20997787.383 9  85982447.85049
        54.900    20997787.33649  20997782.586 7  82399814.109 7        41.800
  20332402.836 9 106847529.631 9        51.200    20332408.977 9  83257839.67849
        54.900    20332408.53549  20332404.910 7  79788801.513 7        43.000
  22598247.828 7 118754609.463 7        42.200                    92536078.76147
        29.600    22598250.81347
 21  1  4  0 40 30.0000000  0  9G01G32G21G23G16G08G10G27G20
  23936492.922 4 125787125.87714        34.400    23936501.766 6  98015980.84856
        20.600    23936501.39546  23936496.422 1  93931967.961 1        29.400
  24504389.438 6 128771432.928 6        38.800    24504396.754 6 100341442.32849
        34.600    24504395.45749
  22329286.602 8 117341212.924 8        46.400                    91434729.55949
        35.400    22329290.12949
  22546409.477 7 118482200.553 7        43.300    22546414.188 8  92323812.54748
        33.000    22546413.71948  22546414.078 5  88477001.945 5        35.800
  23265071.602 7 122258759.796 7        43.400                    95266596.78348
        30.200    23265075.54748
  20892906.578 9 109792980.793 9        51.100    20892913.602 9  85553010.94549
        54.700    20892912.44549  20892908.797 6  81988315.627 6        40.900
  21001957.531 9 110366048.040 9        52.200    21001963.688 9  85999548.34749
        54.900    21001963.50449  21001958.617 6  82416202.113 6        40.900
  20337560.492 9 106874633.773 9        51.000    20337566.660 9  83278959.78449
        54.900    20337566.23049  20337562.754 7  79809041.620 7        43.400
  22614205.203 7 118838466.155 7        42.000                    92601421.60947
        29.700    22614208.14847
 21  1  4  0 41  0.0000000  0  9G01G32G21G23G16G08G10G27G20
  23917722.563 6 125688480.447 6        39.600    23917730.289 6  97939114.28046
        24.400    23917729.98846  23917725.508 2  93858304.12312        31.100
  24487207.539 5 128681146.181 5        37.900    24487215.219 6 100271089.04648
        33.100    24487213.82048
  22318249.000 8 117283208.886 8        46.400                    91389531.64349
        35.300    22318252.49249
  22561870.383 7 118563445.785 7        43.500    22561874.516 8  92387120.49748
        33.600    22561874.03948  22561874.730 5  88537672.042 5        36.400
  23285510.859 7 122366169.296 7        43.800                    95350292.48647
        29.800    23285514.55947
  20883562.328 9 109743874.958 9        51.200    20883568.992 9  85514746.65949
        54.900    20883567.93849  20883564.184 7  81951645.703 7        41.600
  21006237.445 9 110388538.403 9        51.200    21006243.254 9  86017073.31849
        54.900    21006243.18849  21006238.359 7  82432996.887 7        41.300
  20342804.305 9 106902190.426 9        50.300    20342810.711 9  83300432.49749
        55.000    20342810.03549  20342806.414 7  79829619.642 7        42.900
  22630222.352 7 118922634.686 7        42.800                    92667007.47848
        30.900    22630225.64548
 21  1  4  0 41 30.0000000  0  9G01G32G21G23G16G08G10G27G20
  23898972.852 5 125589956.788 5        35.800    23898981.508 6  97862342.62946
        22.000    23898981.45746  23898977.395 1  93784731.376 1        30.700
  24470047.727 6 128590965.090 6        39.300    24470053.941 6 100200818.08349
        34.000    24470052.99649
  22307251.766 8 117225416.951 8        46.300                    91344498.99649
        35.200    22307254.62549
  22577399.555 7 118645052.631 7        43.800    22577403.672 8  92450710.23748
        33.000    22577403.07848  22577404.129 5  88598612.228 5        36.800
  23305985.773 7 122473766.047 7        44.000                    95434134.11247
        29.800    23305989.25447
  20874287.867 9 109695136.520 9        50.700    20874294.617 9  85476768.65649
        55.000    20874293.47349  20874289.504 7  81915250.108 7        41.400
  21010620.781 9 110411571.793 9        51.900    21010626.410 9  86035021.42249
        55.000    21010626.16049  21010621.223 7  82450197.134 7        41.600
  20348134.289 9 106930199.030 9        51.000    20348140.484 9  83322257.38249
        55.000    20348139.92249  20348136.332 7  79850535.155 7        43.300
  22646298.094 7 119007112.255 7        42.800                    92732834.16447
        29.300    22646301.14147
 21  1  4  0 42  0.0000000  0  9G01G32G21G23G16G08G10G27G20
  23880248.969 5 125491556.426 5        37.700    23880256.230 6  97785667.07846
        22.600    23880255.87546  23880252.012 3  93711250.554 3        32.100
  24452906.750 6 128500893.317 6        39.600    24452914.074 6 100130632.28449
        35.500    24452913.67649
  22296295.047 8 117167837.896 8        46.800                    91299632.21949
        35.400    22296297.58649
  22592996.820 7 118727019.168 7        43.700    22593001.242 8  92514580.27648
        31.800    22593000.45748  22593001.363 5  88659821.004 5        35.500
  23326496.094 7 122581547.953 7        43.200                    95518120.00848
        30.500    23326499.90248
  20865083.297 9 109646767.610 9        51.800    20865090.293 9  85439078.59449
        54.900    20865089.14549  20865085.027 7  81879130.477 7        41.900
  21015106.617 9 110435147.452 9        52.500    21015112.395 9  86053392.06949
        55.000    21015112.60249  21015107.746 6  82467802.350 6        40.900
  20353550.383 9 106958660.184 9        51.100    20353556.586 9  83344434.89449
        54.900    20353556.00449  20353552.234 7  79871788.605 7        43.200
  22662431.992 7 119091896.906 7        42.500                    92798900.12247
        29.900    22662434.62547
 21  1  4  0 42 30.0000000  0  9G01G32G21G23G16G08G10G27G20
  23861546.977 5 125393279.873 5        36.400    23861555.219 6  97709087.98846
        22.800    23861554.70746  23861551.234 3  93637862.367 3        33.900
  24435787.594 6 128410933.629 6        39.100    24435795.395 6 100060533.81949
        34.800    24435794.57449
  22285378.594 8 117110471.694 8        46.700                    91254931.29949
        35.800    22285381.05149
  22608662.195 7 118809342.582 7        43.700    22608667.051 8  92578728.39848
        33.300    22608666.22748  22608667.035 5  88721296.294 5        36.000
  23347041.539 7 122689511.926 7        43.800                    95602247.77548
        30.000    23347044.73848
  20855949.602 9 109598769.687 9        50.600    20855956.539 9  85401677.61249
        55.200    20855955.33249  20855951.523 7  81843287.843 7        41.300
  21019696.227 9 110459264.420 9        51.500    21019701.836 9  86072184.52049
        55.000    21019701.74649  21019697.207 7  82485811.774 7        41.100
  20359052.766 9 106987573.633 9        51.800    20359058.563 9  83366964.84749
        54.900    20359058.02049  20359054.344 7  79893379.818 7        42.700
  22678623.758 7 119176986.267 7        42.300                    92865203.51147
        29.900    22678626.57447
 21  1  4  0 43  0.0000000  0  9G01G32G21G23G16G08G10G27G20
  23842869.055 5 125295128.157 5        37.100    23842876.566 6  97632606.14246
        20.900    23842877.10946  23842872.949 2  93564567.277 2        31.200
  24418690.828 5 128321089.020 5        37.700    24418698.629 6  99990525.07049
        34.400    24418697.85549
  22274502.391 8 117053318.100 8        46.600                    91210396.04749
        35.500    22274505.09049
  22624395.680 7 118892020.530 7        43.300    22624400.207 8  92643152.76748
        33.500    22624399.93848  22624400.258 5  88783036.354 5        35.400
  23367620.008 7 122797655.487 7        43.700                    95686515.46647
        29.800    23367623.88347
  20846887.195 9 109551144.691 9        51.500    20846893.801 9  85364567.22849
        55.100    20846892.50849  20846888.746 7  81807723.743 7        42.400
  21024387.969 9 110483921.385 9        51.500    21024394.027 9  86091397.75349
        54.900    21024393.70749  21024388.844 7  82504224.458 7        41.000
  20364640.367 9 107016939.439 9        51.400    20364646.520 9  83389847.28849
        55.000    20364646.12549  20364642.500 7  79915308.800 7        42.800
  22694872.906 7 119262377.952 7        42.700                    92931742.47948
        30.000    22694876.34448
 21  1  4  0 43 30.0000000  0  9G01G32G21G23G16G08G10G27G20
  23824215.461 5 125197102.134 5        36.700    23824223.969 6  97556222.32146
        22.600    23824223.44546  23824219.109 2  93491366.136 2        31.100
  24401617.328 6 128231362.775 6        39.500    24401624.207 6  99920608.51149
        35.200    24401623.51649
  22263666.938 8 116996377.752 8        47.100                    91166026.96549
        35.700    22263669.80949
  22640195.523 7 118975050.521 7        44.100    22640200.020 8  92707851.45348
        33.200    22640199.68448  22640200.672 5  88845039.232 5        35.200
  23388232.742 7 122905975.896 7        43.600                    95770920.99347
        29.400    23388236.13747
  20837895.570 9 109503894.272 9        51.500    20837902.297 9  85327748.71149
        55.000    20837901.07849  20837897.480 7  81772439.330 7        41.400
  21029182.703 9 110509117.309 9        51.900    21029188.660 9  86111030.93549
        54.900    21029188.30149  21029183.754 6  82523039.588 6        40.500
  20370314.609 9 107046757.718 9        50.800    20370320.824 9  83413082.31049
        55.000    20370320.29349  20370316.766 7  79937575.724 7        42.800
  22711180.141 7 119348069.611 7        42.400                    92998515.19648
        30.200    22711182.93448
 21  1  4  0 44  0.0000000  0  9G01G32G21G23G16G08G10G27G20
  23805585.625 5 125099202.323 5        37.600    23805594.109 6  97479936.80646
        23.000    23805593.93446  23805589.980 2  93418259.225 2        31.600
  24384565.969 6 128141757.463 6        39.500    24384572.711 6  99850786.18949
        36.000    24384572.09449
  22252871.844 8 116939650.191 8        46.400                    91121823.69449
        35.400    22252874.64849
  22656062.508 7 119058429.679 7        43.500    22656066.762 8  92772822.22948
        32.500    22656065.95348  22656067.043 5  88907302.871 5        35.500
  23408878.594 7 123014471.026 7        43.800                    95855462.64347
        28.900    23408882.50447
  20828975.664 9 109457019.715 9        51.000    20828982.258 9  85291223.08349
        54.900    20828981.32849  20828977.422 7  81737435.611 7        41.400
  21034079.680 9 110534850.584 9        50.900    21034085.539 9  86131082.84749
        54.900    21034085.14549  21034080.582 7  82542256.000 7        41.100
  20376074.648 9 107077028.001 9        50.700    20376081.020 9  83436669.54349
        55.000    20376080.58649  20376077.082 7  79960180.151 7        42.800
  22727543.000 7 119434058.794 7        41.700                    93065519.74547
        28.900    22727546.55547
 21  1  4  0 44 30.0000000  0  9G01G32G21G23G16G08G10G27G20
  23786980.273 5 125001429.547 5        37.900    23786988.500 7  97403750.24246
        22.900    23786988.20746  23786983.387 2  93345247.116 2        31.600
  24367537.609 6 128052276.083 6        39.000    24367544.871 6  99781060.41349
        36.000    24367544.39849
  22242117.297 8 116883135.339 8        45.900                    91077786.16549
        35.400    22242120.42249
  22671994.898 7 119142155.531 7        43.900    22671998.965 8  92838063.14648
        31.800    22671998.49648  22671999.117 5  88969825.409 5        35.300
  23429557.516 7 123123137.223 7        44.100                    95940137.59947
        29.900    23429560.64147
  20820127.633 9 109410522.778 9        51.100    20820134.402 9  85254991.70549
        55.200    20820133.23449  20820129.477 7  81702713.878 7        41.500
  21039078.664 9 110561119.978 9        52.500    21039084.363 9  86151552.50949
        54.900    21039084.33649  21039079.781 7  82561872.772 7        41.600
  20381921.078 9 107107750.254 9        51.700    20381927.293 9  83460608.96249
        54.900    20381926.84849  20381923.328 7  79983122.086 7        43.400
  22743961.844 7 119520343.002 7        42.500                    93132754.18847
        28.300    22743965.52047
 21  1  4  0 45  0.0000000  0  9G01G32G21G23G16G08G10G27G20
  23768399.023 5 124903784.825 5        36.600    23768406.750 6  97327663.51446
        22.500    23768406.55146  23768401.934 2  93272330.606 2        31.600
  24350534.063 5 127962921.898 5        37.700    24350541.824 6  99711433.80549
        36.000    24350540.82049
  22231403.234 8 116826833.659 8        46.100                    91033914.75349
        35.500    22231406.30149
  22687992.516 7 119226225.686 7        43.000    22687997.277 8  92903572.36148
        33.000    22687996.91448  22687996.938 5  89032605.057 5        35.200
  23450267.938 7 123231972.180 7        43.600                    96024944.04247
        28.900    23450271.54347
  20811351.641 9 109364405.405 9        51.800    20811358.387 9  85219056.08749
        55.200    20811357.51249  20811353.848 7  81668275.577 7        41.800
  21044179.391 9 110587924.478 9        51.900    21044185.121 9  86172439.14349
        54.900    21044185.19949  21044180.336 7  82581889.124 7        41.000
  20387853.695 9 107138924.641 9        51.000    20387859.648 9  83484900.68249
        54.900    20387859.12949  20387855.766 7  80006401.639 7        43.000
  22760437.383 7 119606919.967 7        41.800                    93200216.75847
        27.800    22760440.03147
 21  1  4  0 45 30.0000000  0  9G01G32G21G23G16G08G10G27G20
  23749842.289 6 124806268.762 6        38.000    23749849.977 6  97251677.04346
        21.700    23749850.58646  23749846.191 2  93199510.266 2        31.200
  24333556.094 6 127873697.684 6        38.800    24333563.051 6  99641908.47249
        35.800    24333561.89549
  22220730.281 8 116770745.196 8        46.200                    90990209.47649
        35.500    22220733.19549
  22704056.023 7 119310637.454 7        43.400    22704060.547 8  92969347.74848
        32.500    22704059.70348  22704061.004 5  89095639.831 5        35.900
  23471010.422 7 123340973.246 7        43.100                    96109879.93347
        29.400    23471013.72747
  20802648.297 9 109318668.901 9        51.500    20802655.316 9  85183417.24649
        55.600    20802654.10249  20802650.418 7  81634121.671 7        41.900
  21049381.383 9 110615262.638 9        51.600    21049387.348 9  86193741.60849
        55.000    21049387.49649  21049382.184 7  82602303.969 7        41.300
  20393871.820 9 107170550.883 9        51.000    20393877.910 9  83509544.49949
        55.000    20393877.43849  20393874.004 7  80030018.649 7        43.000
  22776967.281 7 119693787.471 7        41.700                    93267905.72747
        29.300    22776970.60947
 21  1  4  0 46  0.0000000  0 10G01G32G21G23G16G08G22G10G27G20
  23731309.922 5 124708882.405 5        37.200    23731318.465 6  97175791.59046
        22.000    23731317.89846  23731312.695 2  93126786.763 2        31.700
  24316602.328 6 127784606.764 6        40.800    24316609.395 6  99572486.96549
        36.600    24316608.88749
  22210097.148 8 116714870.134 8        46.000                    90946670.49649
        36.300    22210100.55549
  22720183.352 7 119395388.482 7        43.900    22720187.918 8  93035387.51948
        32.200    22720187.11348  22720188.664 5  89158927.948 5        36.300
  23491783.648 7 123450137.045 7        44.200                    96194942.63648
        30.000    23491786.89548
  20794018.016 9 109273315.367 9        51.000    20794024.594 9  85148076.83149
        55.600    20794023.61749  20794019.863 7  81600253.786 7        41.600
  25267595.898 4 132782114.69514        34.800                   103466602.28755
        15.600    25267599.19945
  21054685.391 9 110643133.373 9        51.600    21054690.887 9  86215459.06949
        54.900    21054690.75849  21054686.063 7  82623116.569 7        41.400
  20399975.984 9 107202629.057 9        51.200    20399982.277 9  83534540.47549
        55.000    20399981.73449  20399978.234 7  80053973.114 7        42.800
  22793553.594 7 119780943.130 7        42.000                    93335819.21848
        30.300    22793555.47748
 21  1  4  0 46 30.0000000  0 10G01G32G21G23G16G08G22G10G27G20
  23712803.578 6 124611626.280 6        39.500    23712810.816 6  97100007.63546
        23.400    23712810.78146  23712806.137 3  93054160.529 3        32.900
  24299674.633 6 127695651.751 6        39.500    24299681.820 6  99503171.37549
        36.400    24299681.27749
  22199505.156 8 116659207.966 8        46.000                    90903297.40449
        35.800    22199508.32049
  22736374.664 7 119480475.902 7        43.200    22736379.363 7  93101689.40648
        32.000    22736378.65648  22736379.602 5  89222467.234 5        35.200
  23512586.805 7 123559461.451 7        42.900                    96280130.47747
        28.100    23512590.76647
  20785460.133 9 109228345.850 9        51.200    20785467.379 9  85113035.65249
        55.900    20785466.14149  20785462.188 6  81566672.654 6        40.500
  25246255.453 6 132669961.949 6        39.800                   103379210.41946
        23.000    25246256.35546
  21060089.844 9 110671535.021 9        50.900    21060095.688 9  86237590.22949
        54.900    21060095.43449  21060090.941 6  82644325.572 6        40.900
  20406166.148 9 107235158.720 9        51.300    20406172.574 9  83559888.26549
        55.200    20406172.02049  20406168.168 7  80078264.755 7        43.100
  22810192.602 7 119868384.341 7        41.100                    93403955.22547
        28.100    22810195.61347
 21  1  4  0 47  0.0000000  0 10G01G32G21G23G16G08G22G10G27G20
  23694320.836 5 124514501.267 5        37.600    23694328.145 6  97024325.89146
        22.600    23694328.26246  23694323.699 2  92981632.064 2        31.300
  24282773.430 6 127606835.711 6        38.900    24282780.547 6  99433964.09349
        36.000    24282779.73449
  22188953.852 8 116603758.933 8        47.100                    90860090.39749
        36.500    22188957.00449
  22752629.859 7 119565897.253 7        43.200    22752634.828 8  93168251.48548
        32.300    22752634.00048  22752634.605 5  89286255.912 5        35.100
  23533420.945 7 123668943.559 7        43.400                    96365441.19647
        28.600    23533424.65247
  20776976.344 9 109183761.942 9        51.400    20776983.031 9  85078294.94349
        54.900    20776982.05549  20776978.313 7  81533379.470 7        41.800
  25224920.930 1 132557864.700 1        30.800                   103291861.97345
        16.900    25224925.94145
  21065595.430 9 110700466.363 9        51.200    21065601.051 9  86260134.13949
        55.000    21065601.05149  21065596.188 7  82665930.155 7        41.100
  20412442.289 9 107268139.817 9        51.100    20412448.699 9  83585587.81549
        55.000    20412448.04349  20412444.195 7  80102893.509 7        43.100
  22826886.328 6 119956108.960 6        40.600                    93472312.07347
        28.600    22826889.06647
 21  1  4  0 47 30.0000000  0 10G01G32G21G23G16G08G22G10G27G20
  23675862.391 5 124417508.471 5        37.600    23675871.531 6  96948747.10446
        21.800    23675871.19946  23675867.289 3  92909202.434 3        32.200
  24265899.867 6 127518161.990 6        40.700    24265906.387 6  99364867.71149
        36.800    24265905.63749
  22178443.055 8 116548523.185 8        46.800                    90817049.58249
        36.900    22178445.89849
  22768948.336 7 119651650.260 7        43.900    22768952.863 8  93235072.00648
        32.600    22768952.27748  22768952.746 5  89350292.243 5        35.300
  23554283.992 7 123778581.224 7        42.200                    96450873.14147
        27.800    23554287.59047
  20768566.078 9 109139566.217 9        51.900    20768572.977 9  85043856.70849
        55.100    20768571.89549  20768568.441 7  81500376.191 7        41.900
  25203603.781 7 132445825.326 7        41.700                   103204558.61145
        19.900    25203603.72745
  21071201.414 9 110729926.391 9        50.700    21071207.367 9  86283090.00849
        55.000    21071207.05949  21071202.359 7  82687929.538 7        41.100
  20418804.133 9 107301572.591 9        50.700    20418810.754 9  83611639.33249
        55.000    20418810.00049  20418806.504 7  80127859.518 7        42.800
  22843632.820 7 120044114.728 7        41.300                    93540887.97447
        28.800    22843635.91447
 21  1  4  0 48  0.0000000  0 10G01G32G21G23G16G08G22G10G27G20
  23657431.484 5 124320648.210 5        37.800    23657439.484 6  96873271.61846
        22.300    23657439.70346  23657435.039 3  92836871.794 3        32.600
  24249053.414 6 127429633.239 6        40.500    24249060.094 6  99295884.25549
        37.000    24249059.27749
  22167972.375 8 116493500.861 8        46.500                    90774175.07049
        36.500    22167975.47749
  22785329.398 7 119737732.011 7        42.700    22785333.559 7  93302148.68548
        31.900    22785332.80548  22785333.922 5  89414574.074 5        36.000
  23575176.320 7 123888370.749 7        42.400                    96536423.40247
        28.600    23575180.28147
  20760230.125 9 109095759.305 9        51.000    20760237.059 9  85009721.46049
        55.600    20760235.79749  20760232.082 7  81467663.236 7        41.400
  25182293.109 3 132333845.443 3        33.300                   103117301.37145
        19.000    25182296.19145
  21076907.742 9 110759913.284 9        51.000    21076913.398 9  86306456.42149
        54.900    21076913.31349  21076908.711 6  82710322.341 6        40.800
  20425252.469 9 107335456.383 9        50.700    20425258.484 9  83638042.28749
        54.900    20425257.78549  20425254.402 7  80153162.344 7        42.900
  22860432.945 7 120132398.885 7        41.800                    93609680.81847
        28.900    22860435.73447
 21  1  4  0 48 30.0000000  0 10G01G32G21G23G16G08G22G10G27G20
  23639025.742 6 124223921.824 6        40.000    23639032.652 6  96797900.43846
        23.800    23639032.32846  23639028.809 3  92764641.082 3        32.700
  24232234.602 6 127341252.731 6        40.400    24232241.770 6  99227016.33449
        37.500    24232240.98449
  22157542.570 8 116438692.261 8        46.900                    90731467.09349
        37.300    22157545.23849
  22801772.203 7 119824140.286 7        42.800    22801776.781 7  93369479.80748
        31.200    22801775.77348  22801776.738 5  89479099.715 5        35.900
  23596096.852 7 123998309.858 7        42.200                    96622090.24447
        28.600    23596100.78147
  20751968.586 9 109052343.532 9        51.100    20751975.059 9  84975890.98749
        56.000    20751974.03549  20751970.512 7  81435242.355 7        41.300
  25160997.359 6 132221927.153 6        40.800                   103030092.53947
        25.600    25160999.24247
  21082713.984 9 110790426.067 9        50.600    21082719.895 9  86330232.62549
        54.900    21082719.62949  21082715.293 7  82733107.865 7        41.100
  20431786.031 9 107369791.417 9        50.300    20431792.063 9  83664796.85049
        54.900    20431791.45349  20431788.168 7  80178802.145 7        42.800
  22877285.773 7 120220959.381 7        42.700                    93678689.00047
        29.300    22877288.19947
 21  1  4  0 49  0.0000000  0 10G01G32G21G23G16G08G22G10G27G20
  23620644.680 6 124127329.786 6        40.300    23620652.379 6  96722633.94647
        25.200    23620652.41447  23620647.836 3  92692510.731 3        32.400
  24215446.086 6 127253023.345 6        40.600    24215452.195 6  99158266.19549
        37.100    24215451.47349
  22147153.352 8 116384097.127 8        46.900                    90688925.44449
        36.800    22147156.22349
  22818276.891 7 119910872.308 7        43.100    22818281.344 8  93437063.19848
        32.100    22818280.71548  22818281.504 5  89543867.122 5        35.400
  23617045.914 7 124108395.604 7        41.700                    96707871.33747
        27.200    23617049.41447
  20743781.258 9 109009320.091 9        51.200    20743788.016 9  84942366.22049
        55.100    20743786.89549  20743783.422 7  81403114.460 7        41.900
  25139711.391 6 132110072.484 6        38.700                   102942932.95945
        19.300    25139712.61345
  21088620.125 9 110821463.152 9        50.800    21088626.203 9  86354417.36649
        54.900    21088625.89849  21088621.203 6  82756284.945 6        40.900
  20438405.523 9 107404577.327 9        50.700    20438411.629 9  83691902.74749
        55.000    20438411.09449  20438407.738 7  80204778.636 7        42.800
  22894190.078 7 120309794.198 7        41.700                    93747910.92747
        28.100    22894192.82047
 21  1  4  0 49 30.0000000  0 10G01G32G21G23G16G08G22G10G27G20
  23602289.289 6 124030872.721 6        39.500    23602296.719 6  96647472.63646
        23.200    23602296.55546  23602292.242 3  92620481.070 3        32.400
  24198685.242 6 127164947.821 6        40.800    24198692.559 7  99089635.92349
        37.700    24198691.64849
  22136804.734 8 116329714.934 8        47.000                    90646549.72149
        37.300    22136807.92249
  22834842.180 7 119997925.267 7        43.000    22834846.945 8  93504896.65848
        31.200    22834846.38348  22834846.770 5  89608874.193 5        35.600
  23638021.969 7 124218625.167 7        41.400                    96793764.49947
        28.000    23638025.06647
  20735669.172 9 108966690.310 9        51.700    20735675.898 9  84909148.21649
        55.200    20735674.79749  20735671.184 7  81371280.535 7        42.000
  25118437.930 5 131998282.382 5        37.100                   102855823.83946
        21.800    25118440.18046
  21094625.656 9 110853022.823 9        50.500    21094631.781 9  86379009.32849
        54.900    21094631.27749  21094626.926 7  82779852.220 7        41.300
  20445110.914 9 107439813.627 9        50.500    20445116.910 9  83719359.60349
        55.300    20445116.28949  20445112.875 7  80231091.439 7        42.500
  22911145.898 6 120398900.474 6        40.900                    93817344.38647
        26.400    22911149.22747
 21  1  4  0 50  0.0000000  0 10G01G32G21G23G16G08G22G10G27G20
  23583959.594 6 123934551.657 6        39.100    23583967.918 7  96572417.32646
        22.600    23583968.31346  23583963.645 3  92548553.086 3        33.500
  24181954.789 6 127077029.473 6        40.300    24181961.734 7  99021128.14049
        37.600    24181961.07049
  22126497.359 8 116275546.559 8        46.800                    90604340.61949
        37.400    22126499.75049
  22851468.813 7 120085296.931 7        43.000    22851472.910 7  93572978.45848
        31.500    22851472.02748  22851473.469 5  89674119.278 5        35.700
  23659024.844 7 124328996.608 7        41.100                    96879768.22447
        26.800    23659028.38347
  20727632.172 9 108924456.325 9        51.000    20727639.082 9  84876238.61949
        55.000    20727637.82849  20727634.152 7  81339742.196 7        41.700
  25097178.969 6 131886560.013 6        40.500                   102768767.43947
        26.400    25097180.61747
  21100730.813 9 110885104.002 9        51.200    21100736.598 9  86404007.65449
        55.000    21100736.32449  21100731.691 6  82803808.951 6        40.900
  20451901.578 9 107475500.446 9        50.300    20451907.992 9  83747167.51349
        55.000    20451907.32849  20451903.867 7  80257740.696 7        42.900
  22928153.305 6 120488275.670 6        40.500                    93886987.38247
        27.200    22928156.46147
 21  1  4  0 50 30.0000000  0 10G01G32G21G23G16G08G22G10G27G20
  23565655.930 6 123838367.371 6        38.300    23565664.055 6  96497468.56346
        22.600    23565663.59046  23565660.328 3  92476727.247 3        32.700
  24165255.180 7 126989271.210 7        41.300    24165261.957 7  98952745.08549
        37.600    24165261.04349
  22116229.516 8 116221591.210 8        46.400                    90562297.52949
        36.800    22116232.05949
  22868155.359 7 120172984.627 7        42.500    22868159.164 7  93641306.53948
        30.900    22868158.39148  22868159.871 5  89739600.362 5        36.300
  23680054.219 7 124439506.667 7        41.300                    96965879.95247
        27.200    23680057.91447
  20719670.797 9 108882619.691 9        51.100    20719677.734 9  84843638.64649
        55.500    20719676.52349  20719672.867 7  81308500.534 7        42.000
  25075928.586 2 131774906.561 2        31.200                   102681764.78743
        13.900    25075932.77343
  21106934.641 9 110917705.145 9        50.900    21106940.371 9  86429411.14349
        54.900    21106939.98449  21106935.293 7  82828153.990 7        41.300
  20458778.414 9 107511637.454 9        50.400    20458784.617 9  83775326.22549
        55.500    20458784.03949  20458780.426 7  80284726.107 7        43.300
  22945211.789 6 120577917.826 6        40.700                    93956838.41047
        27.000    22945215.03947
 21  1  4  0 51  0.0000000  0 10G01G32G21G23G16G08G22G10G27G20
  23547379.953 6 123742320.809 6        40.500    23547387.070 6  96422627.11646
        23.000    23547387.07046  23547383.594 3  92405004.151 3        33.700
  24148586.773 7 126901676.275 7        41.000    24148593.281 7  98884489.29949
        38.100    24148592.46949
  22106002.555 8 116167849.811 8        46.500                    90520421.13849
        36.900    22106005.37549
  22884901.352 7 120260986.002 7        41.800    22884905.707 7  93709879.03148
        30.400    22884904.83648  22884906.164 5  89805315.650 5        36.000
  23701109.555 7 124550152.296 7        41.800                    97052097.31547
        28.300    23701113.26247
  20711785.648 9 108841182.117 9        51.000    20711792.398 9  84811349.62849
        56.000    20711791.40649  20711787.738 7  81277556.907 7        42.000
  25054698.086 6 131663324.453 6        38.700                   102594817.67447
        25.700    25054700.14547
  21113236.750 9 110950825.004 9        50.800    21113242.727 9  86455218.83149
        55.000    21113242.47349  21113237.980 7  82852886.325 7        41.300
  20465740.727 9 107548224.625 9        51.400    20465746.914 9  83803835.70149
        55.000    20465746.37149  20465742.785 7  80312047.701 7        42.700
  22962321.031 7 120667824.591 7        41.400                    94026895.61247
        27.200    22962323.66447
 21  1  4  0 51 30.0000000  0 10G01G32G21G23G16G08G22G10G27G20
  23529128.703 6 123646412.504 6        40.200    23529136.238 6  96347893.39546
        24.400    23529135.54746  23529132.207 3  92333384.385 3        32.800
  24131949.578 6 126814247.289 6        40.600    24131956.367 7  98816362.82249
        38.100    24131955.55949
  22095816.922 8 116114321.975 8        46.900                    90478711.15649
        37.100    22095819.71949
  22901706.680 7 120349298.183 7        42.500    22901710.980 7  93778693.71748
        30.900    22901710.24648  22901711.293 5  89871263.022 5        35.900
  23722189.180 7 124660931.044 7        41.400                    97138418.39947
        26.800    23722193.75847
  20703976.352 9 108800144.580 9        50.700    20703983.141 9  84779372.32949
        55.100    20703982.14149  20703978.426 7  81246911.992 7        41.600
  25033478.344 5 131551815.351 5        37.000                   102507927.48146
        22.300    25033480.13746
  21119637.820 9 110984461.805 9        50.400    21119643.645 9  86481429.33549
        54.900    21119643.46949  21119638.789 7  82878004.713 7        41.100
  20472788.477 9 107585261.409 9        50.500    20472794.871 9  83832695.51849
        55.000    20472794.36749  20472790.469 7  80339705.029 7        42.600
  22979479.563 7 120757993.572 7        41.400                    94097157.15347
        28.100    22979482.33247
 21  1  4  0 52  0.0000000  0 10G01G32G21G23G16G08G22G10G27G20
  23510904.023 6 123550643.221 6        40.100    23510912.191 7  96273268.01347
        26.400    23510912.03147  23510908.063 3  92261868.451 3        33.400
  24115343.961 7 126726987.379 7        41.100    24115350.676 7  98748368.10249
        38.000    24115350.12549
  22085671.484 8 116061007.547 8        46.800                    90437167.46349
        37.200    22085674.32849
  22918570.375 7 120437918.621 7        43.000    22918574.797 8  93847748.60148
        30.800    22918574.34048  22918575.266 5  89937440.605 5        35.400
  23743294.656 7 124771840.347 7        41.500                    97224841.22847
        27.700    23743299.32047
  20696243.734 9 108759508.822 9        50.300    20696250.508 9  84747708.10949
        55.500    20696249.46549  20696245.691 7  81216567.109 7        42.100
  25012272.781 3 131440380.81013        32.800                   102421095.49455
        19.000    25012275.01245
  21126136.375 9 111018614.053 9        50.700    21126142.344 9  86508041.47749
        54.900    21126142.22749  21126137.758 6  82903508.033 6        40.600
  20479921.945 9 107622747.573 9        51.200    20479928.453 9  83861905.50949
        54.900    20479927.48849  20479924.070 7  80367697.926 7        42.500
  22996687.672 7 120848422.340 7        41.600                    94167621.11547
        28.200    22996690.31347
 21  1  4  0 52 30.0000000  0 10G01G32G21G23G16G08G22G10G27G20
  23492706.734 6 123455014.076 6        38.900    23492714.660 6  96198751.82146
        24.300    23492713.86746  23492710.078 3  92190457.019 3        33.100
  24098771.570 6 126639899.774 6        40.700    24098778.930 7  98680507.64549
        38.200    24098778.06649
  22075567.039 8 116007906.867 8        46.800                    90395790.31949
        37.400    22075569.45749
  22935492.539 7 120526845.019 7        43.600    22935497.172 8  93917041.89448
        31.500    22935496.23048  22935497.305 5  90003846.702 5        35.500
  23764425.242 7 124882877.415 7        41.300                    97311363.61847
        25.800    23764428.44547
  20688587.875 9 108719277.085 9        51.200    20688594.625 9  84716358.69849
        55.300    20688593.45749  20688589.699 7  81186523.922 7        41.500
  24991083.180 6 131329023.44916        38.600                   102334323.42956
        22.500    24991083.79746
  21132733.453 9 111053280.508 9        50.600    21132739.410 9  86535054.30249
        54.900    21132739.21149  21132734.418 6  82929395.325 6        40.800
  20487140.906 9 107660683.096 9        51.100    20487146.898 9  83891465.65049
        55.100    20487146.33249  20487142.918 7  80396026.397 7        42.500
  23013944.438 7 120939108.531 7        41.300                    94238285.68047
        27.400    23013947.51647
 21  1  4  0 53  0.0000000  0 10G01G32G21G23G16G08G22G10G27G20
  23474536.016 6 123359525.653 6        40.200    23474543.586 7  96124345.33247
        25.800    23474543.56647  23474539.348 3  92119150.843 3        32.700
  24082233.539 7 126552987.405 7        42.200    24082239.699 7  98612783.72649
        39.000    24082238.66849
  22065502.594 8 115955019.804 8        47.400                    90354579.63749
        37.800    22065505.36749
  22952472.234 7 120616074.731 7        43.200    22952476.840 8  93986571.54548
        31.500    22952476.28948  22952476.715 5  90070479.264 5        35.600
  23785578.422 7 124994039.591 7        42.100                    97397983.48247
        26.300    23785581.84047
  20681008.883 9 108679450.514 9        51.400    20681016.121 9  84685325.00449
        55.300    20681014.73049  20681011.066 7  81156783.279 7        42.000
  24969906.656 5 131217744.00915        35.700                   102247612.06156
        22.500    24969909.33646
  21139427.773 9 111088459.565 9        51.400    21139433.613 9  86562466.56549
        54.900    21139433.55549  21139428.617 6  82955665.409 6        40.600
  20494445.266 9 107699067.576 9        51.100    20494451.395 9  83921375.63549
        55.000    20494450.82049  20494447.320 7  80424690.142 7        42.900
  23031249.805 7 121030049.823 7        41.400                    94309149.01347
        27.700    23031252.90647
 21  1  4  0 53 30.0000000  0 10G01G32G21G23G16G08G22G10G27G20
  23456392.453 6 123264178.883 6        39.700    23456399.246 6  96050049.17247
        25.800    23456399.12547  23456394.484 3  92047950.321 3        32.500
  24065728.555 7 126466253.298 7        41.400    24065734.473 7  98545198.73049
        38.700    24065733.66049
  22055478.875 8 115902346.438 8        47.000                    90313535.44449
        37.900    22055482.09449
  22969509.750 7 120705605.218 7        43.100    22969513.840 8  94056335.54148
        30.400    22969513.09048  22969514.117 4  90137336.438 4        34.900
  23806755.391 7 125105324.306 7        42.100                    97484698.82647
        26.400    23806758.80547
  20673508.039 9 108640031.140 9        51.300    20673514.410 9  84654608.60449
        55.200    20673513.60249  20673509.754 7  81127346.785 7        42.100
  24948746.063 4 131106546.269 4        34.900                   102160964.44245
        19.600    24948748.36745
  21146219.375 9 111124149.708 9        51.000    21146225.359 9  86590277.07349
        54.900    21146225.27049  21146220.645 6  82982317.161 6        40.800
  20501835.117 9 107737900.789 9        50.800    20501841.180 9  83951635.27349
        54.900    20501840.57849  20501837.059 7  80453688.956 7        42.600
  23048603.531 6 121121243.723 6        40.600                    94380209.18947
        27.900    23048606.70747
 21  1  4  0 54  0.0000000  0 10G01G32G21G23G16G08G22G10G27G20
  23438275.102 6 123168974.375 6        40.800    23438282.699 6  95975863.88447
        26.300    23438282.66847  23438278.168 3  91976856.178 3        33.200
  24049257.352 7 126379700.273 7        41.300    24049264.070 7  98477754.81649
        38.100    24049263.41849
  22045496.703 8 115849886.880 8        47.600                    90272657.89349
        38.400    22045499.32449
  22986603.680 7 120795433.754 7        42.900    22986607.527 7  94126331.80048
        30.400    22986606.79348  22986608.113 4  90204416.167 4        34.700
  23827954.789 7 125216727.513 7        42.200                    97571506.52447
        25.400    23827958.00047
  20666084.336 9 108601019.750 9        51.600    20666090.578 9  84624210.12749
        55.800    20666090.09449  20666086.305 7  81098214.896 7        41.600
  24927602.813 5 130995431.288 5        37.200                   102074381.36346
        22.600    24927604.94946
  21153107.875 9 111160349.231 9        51.700    21153113.770 9  86618484.49449
        54.900    21153113.77049  21153108.863 6  83009349.263 6        40.100
  20509309.953 9 107777182.251 9        51.100    20509316.238 9  83982244.20149
        55.000    20509315.73449  20509312.254 7  80483022.511 7        42.900
  23066005.328 7 121212688.356 7        41.100                    94451464.74947
        26.900    23066007.89547
 21  1  4  0 54 30.0000000  0 10G01G32G21G23G16G08G22G10G27G20
  23420184.797 6 123073912.837 6        38.900    23420193.434 7  95901789.97447
        25.200    23420193.09847  23420188.398 3  91905868.702 3        32.500
  24032822.008 7 126293331.280 7        41.300    24032829.332 7  98410454.32949
        39.200    24032828.11349
  22035554.625 8 115797640.999 8        47.500                    90231946.82449
        37.800    22035557.49649
  23003753.180 7 120885557.705 7        42.400    23003757.340 7  94196558.27547
        29.900    23003756.68847  23003758.039 4  90271716.546 4        34.900
  23849176.078 7 125328248.063 7        42.600                    97658405.64747
        26.000    23849179.42647
  20658738.563 9 108562418.009 9        51.500    20658745.363 9  84594130.85249
        55.000    20658744.29349  20658740.512 7  81069388.921 7        41.800
  24906473.969 6 130884400.61116        38.600                   101987863.98756
        22.600    24906475.07046
  21160093.281 9 111197056.503 9        50.700    21160098.996 9  86647087.57449
        55.000    21160098.85549  21160093.785 7  83036760.551 7        41.200
  20516870.227 9 107816911.581 9        51.700    20516876.594 9  84013202.11749
        55.400    20516875.85949  20516872.250 7  80512690.510 7        43.000
  23083453.836 6 121304381.149 6        40.600                    94522913.66447
        26.500    23083456.28547
 21  1  4  0 55  0.0000000  0 10G01G32G21G23G16G08G22G10G27G20
  23402123.539 6 122978995.439 6        39.900    23402130.820 6  95827828.42247
        25.600    23402130.26647  23402126.652 3  91834988.855 3        33.600
  24016422.273 7 126207149.773 7        41.500    24016429.770 7  98343299.92049
        39.400    24016428.42249
  22025653.016 8 115745609.197 8        47.000                    90191402.58549
        37.700    22025656.11349
  23020959.031 7 120975974.951 7        41.300    23020963.570 7  94267013.26047
        29.100    23020963.27347  23020963.828 5  90339235.933 5        35.600
  23870419.336 7 125439882.710 7        41.100                    97745393.67647
        25.600    23870423.21547
  20651471.055 9 108524227.818 9        51.500    20651477.902 9  84564372.26549
        55.100    20651476.76649  20651473.160 7  81040870.251 7        41.700
  24885361.156 4 130773456.628 4        34.500                   101901414.23446
        20.100    24885364.35946
  21167174.570 9 111234270.327 9        50.200    21167180.746 9  86676085.36349
        54.900    21167180.25849  21167175.859 6  83064550.079 6        40.400
  20524515.883 9 107857088.857 9        50.800    20524521.848 9  84044509.07649
        55.100    20524521.25449  20524517.973 7  80542693.026 7        43.000
  23100948.852 6 121396319.558 6        40.100                    94594553.98447
        26.200    23100951.60247
 21  1  4  0 55 30.0000000  0 10G01G32G21G23G16G08G22G10G27G20
  23384088.227 6 122884222.522 6        40.300    23384096.539 6  95753979.43847
        26.200    23384095.97747  23384091.934 3  91764216.930 3        33.000
  24000058.328 7 126121158.253 7        42.300    24000065.520 7  98276293.54749
        38.300    24000064.39549
  22015792.602 8 115693790.785 8        47.400                    90151024.60849
        38.100    22015795.13349
  23038220.016 7 121066682.420 7        42.200    23038224.684 7  94337694.38547
        29.800    23038224.03547  23038224.766 4  90406971.986 4        34.500
  23891683.914 7 125551628.705 7        41.400                    97832468.48347
        26.200    23891687.47747
  20644282.203 9 108486450.370 9        50.800    20644289.004 9  84534935.28249
        55.600    20644287.88349  20644284.160 7  81012659.823 7        42.200
  24864266.375 5 130662600.926 5        37.100                   101815033.10746
        23.500    24864268.69146
  21174352.266 9 111271988.677 9        50.500    21174358.223 9  86705476.28849
        54.900    21174358.01649  21174353.109 6  83092716.395 6        40.500
  20532246.359 9 107897713.251 9        50.800    20532252.313 9  84076164.43949
        55.200    20532251.75049  20532248.430 7  80573029.409 7        42.400
  23118490.523 6 121488501.441 6        40.000                    94666384.01947
        26.400    23118493.70347
 21  1  4  0 56  0.0000000  0 10G01G32G21G23G16G08G22G10G27G20
  23366081.797 6 122789595.337 6        40.100    23366089.473 7  95680244.01347
        25.100    23366089.15647  23366084.480 3  91693553.80413        32.800
  23983731.164 7 126035360.170 7        42.100    23983738.676 7  98209437.91349
        38.800    23983737.61349
  22005972.352 8 115642186.361 8        47.600                    90110813.36149
        37.700    22005974.84449
  23055535.727 7 121157678.013 7        41.900    23055540.410 7  94408600.02848
        30.200    23055539.96548  23055541.004 4  90474923.259 4        34.500
  23912969.359 6 125663483.860 6        40.800                    97919628.30947
        25.900    23912972.95347
  20637172.531 9 108449087.960 9        50.600    20637179.402 9  84505821.72349
        55.800    20637178.25449  20637174.410 7  80984759.331 7        41.800
  24843189.039 6 130551835.568 6        38.400                   101728722.55146
        22.800    24843190.46546
  21181625.602 9 111310210.369 9        51.600    21181631.453 9  86735259.43849
        55.200    21181631.52049  21181626.906 7  83121258.585 7        41.100
  20540061.813 9 107938784.855 9        52.300    20540068.188 9  84108168.28349
        55.000    20540067.43449  20540064.016 7  80603699.756 7        42.100
  23136078.070 6 121580924.893 6        40.500                    94738402.27547
        26.000    23136081.35547
 21  1  4  0 56 30.0000000  0 10G01G32G21G23G16G08G22G10G27G20
  23348102.656 6 122695114.422 6        40.100    23348110.254 6  95606622.57047
        25.400    23348109.32847  23348106.270 3  91622999.904 3        33.800
  23967442.297 7 125949758.378 7        42.500    23967449.164 7  98142735.23949
        39.100    23967448.80949
  21996193.094 8 115590796.018 8        47.600                    90070768.95149
        38.200    21996195.88349
  23072906.125 7 121248959.011 7        42.000    23072910.699 7  94479728.08747
        29.600    23072909.69947  23072911.113 5  90543087.626 5        35.200
  23934274.984 6 125775445.116 6        40.900                    98006870.83247
        26.000    23934278.38347
  20630142.125 9 108412141.681 9        51.800    20630148.582 9  84477032.41249
        55.400    20630147.46949  20630143.930 7  80957169.581 7        41.900
  24822128.750 6 130441162.532 6        38.800                   101642483.85046
        24.900    24822130.22746
  21188994.508 9 111348933.598 9        51.600    21189000.176 9  86765433.38249
        54.900    21189000.25049  21188995.266 7  83150175.274 7        41.300
  20547962.648 9 107980303.108 9        51.900    20547968.672 9  84140520.16449
        55.000    20547968.16049  20547964.641 7  80634703.635 7        42.600
  23153711.180 6 121673586.972 6        40.400                    94810606.48147
        27.300    23153714.39847
 21  1  4  0 57  0.0000000  0 10G01G32G21G23G16G08G22G10G27G20
  23330151.148 6 122600780.467 6        39.600    23330158.875 7  95533115.61847
        26.400    23330158.23447  23330154.785 3  91552555.799 3        33.600
  23951190.320 7 125864355.689 7        41.700    23951197.449 7  98076187.69649
        40.200    23951197.37549
  21986454.695 8 115539619.418 8        47.400                    90030891.11149
        38.500    21986457.63749
  23090330.477 7 121340522.685 7        43.200    23090334.934 7  94551076.40647
        29.900    23090333.82447  23090334.578 4  90611463.102 4        34.800
  23955599.750 6 125887508.953 6        40.000                    98094193.28647
        25.900    23955603.92647
  20623190.688 9 108375612.636 9        51.900    20623197.594 9  84448568.23149
        55.300    20623196.09449  20623192.203 7  80929891.405 7        41.500
  24801086.359 6 130330583.435 6        39.700                   101556318.35846
        22.500    24801087.34846
  21196458.195 9 111388156.596 9        51.300    21196464.145 9  86795996.76249
        55.000    21196463.93849  21196459.215 6  83179465.158 6        40.100
  20555948.109 9 108022267.507 9        51.500    20555954.344 9  84173219.68949
        55.000    20555953.74249  20555949.918 7  80666040.687 7        42.500
  23171389.297 7 121766485.683 7        41.100                    94882995.09247
        26.700    23171392.15647
 21  1  4  0 57 30.0000000  0 10G01G32G21G23G16G08G22G10G27G20
  23312228.875 7 122506594.338 7        41.100    23312235.551 6  95459723.88347
        26.700    23312235.09447  23312231.016 3  91482222.038 3        33.400
  23934976.828 7 125779155.187 7        42.100    23934984.734 7  98009797.71949
        39.700    23934984.04349
  21976756.563 8 115488656.705 8        47.700                    89991179.92249
        38.200    21976759.82449
  23107807.516 7 121432366.526 7        42.000    23107811.844 7  94622643.03047
        29.600    23107811.30147  23107811.430 4  90680047.787 4        34.500
  23976944.508 6 125999673.757 6        40.700                    98181594.41946
        24.900    23976947.64146
  20616319.336 9 108339502.810 9        50.300    20616326.039 9  84420430.69749
        55.900    20616324.55549  20616320.871 7  80902926.275 7        41.700
  24780060.484 5 130220100.580 5        37.200                   101470227.85146
        21.800    24780063.18046
  21204016.617 9 111427877.730 9        51.300    21204022.590 9  86826948.30049
        54.900    21204022.47349  21204017.895 6  83209127.093 6        40.400
  20564018.734 9 108064677.657 9        51.300    20564024.805 9  84206266.55949
        54.900    20564024.19549  20564020.535 7  80697710.595 7        42.200
  23189111.820 7 121859618.378 7        41.100                    94955566.02047
        25.800    23189114.47347
 21  1  4  0 58  0.0000000  0 10G01G32G21G23G16G08G22G10G27G20
  23294333.320 6 122412556.936 6        39.800    23294341.008 7  95386448.04347
        26.000    23294340.40647  23294336.488 3  91411999.338 3        33.600
  23918803.094 7 125694160.042 7        42.000    23918809.965 6  97943567.75549
        38.700    23918808.83249
  21967099.203 8 115437908.162 8        47.500                    89951635.62049
        38.200    21967102.07849
  23125337.586 7 121524488.219 7        42.400    23125341.941 7  94694426.16447
        28.500    23125341.13747  23125341.699 4  90748839.957 4        34.800
  23998306.906 6 126111936.185 6        40.000                    98269071.63946
        24.200    23998311.05146
  20609527.805 9 108303813.990 9        50.800    20609534.582 9  84392621.23049
        55.000    20609533.33249  20609529.641 7  80876275.527 7        42.200
  24759055.508 6 130109715.657 6        38.000                   101384213.61846
        22.000    24759056.97746
  21211670.227 9 111468095.553 9        51.800    21211675.734 9  86858286.86849
        54.900    21211675.65249  21211670.953 6  83239159.863 6        40.400
  20572173.594 9 108107533.371 9        51.800    20572179.973 9  84239660.61349
        55.000    20572179.36749  20572176.051 7  80729713.243 7        42.900
  23206878.203 6 121952983.215 6        40.200                    95028317.84847
        26.100    23206881.26647
 21  1  4  0 58 30.0000000  0 10G01G32G21G23G16G08G22G10G27G20
  23276466.977 6 122318669.104 6        39.000    23276474.746 7  95313288.75647
        26.100    23276474.85947  23276470.648 3  91341888.405 3        33.900
  23902668.570 7 125609373.328 7        42.600    23902675.789 7  97877500.19249
        39.100    23902674.60949
  21957482.867 8 115387373.698 8        47.300                    89912258.13349
        38.600    21957485.75449
  23142920.344 7 121616885.211 7        42.800    23142925.023 7  94766423.81947
        29.700    23142924.18447  23142924.598 5  90817837.711 5        35.300
  24019687.922 6 126224293.789 6        40.100                    98356623.01846
        24.700    24019691.07846
  20602816.961 9 108268547.199 9        51.000    20602823.621 9  84365140.61549
        54.900    20602822.32849  20602818.898 7  80849939.951 7        42.100
  24738068.484 6 129999430.862 6        38.100                   101298277.47846
        21.800    24738070.56646
  21219417.383 9 111508808.456 9        51.400    21219423.641 9  86890011.21049
        54.900    21219423.21949  21219418.609 6  83269562.351 6        40.400
  20580413.711 9 108150834.320 9        51.900    20580419.898 9  84273401.60149
        55.000    20580419.32449  20580415.746 7  80762048.356 7        42.800
  23224688.828 7 122046577.329 7        41.000                    95101248.30047
        26.400    23224691.76247
 21  1  4  0 59  0.0000000  0 11G01G32G21G23G16G14G08G22G10G27G20
  23258629.125 6 122224931.410 6        40.200    23258637.023 7  95240246.42447
        26.400    23258636.06347  23258632.980 4  91271889.533 4        34.700
  23886575.078 7 125524797.789 7        42.100    23886581.594 7  97811597.16749
        39.200    23886580.92649
  21947907.617 9 115337053.169 9        48.100                    89873047.34949
        38.400    21947910.15649
  23160554.656 7 121709554.767 7        42.700    23160559.336 7  94838633.85547
        29.800    23160558.64847  23160559.527 5  90887038.995 5        35.100
  24041087.180 6 126336744.380 6        39.600                    98444246.85646
        24.200    24041090.13346
  25211387.266 4 132486740.06614        34.800    25211393.129 6 103236435.79955
        19.600    25211393.14145
  20596186.344 9 108233704.237 9        49.600    20596193.148 9  84337990.24949
        55.400    20596192.00449  20596188.598 7  80823920.849 7        41.600
  24717101.688 5 129889247.798 5        37.300                   101212420.59246
        22.200    24717103.41446
  21227258.961 9 111550014.456 9        51.600    21227264.719 9  86922119.78849
        55.000    21227264.46549  21227259.449 6  83300333.078 6        40.400
  20588737.922 9 108194579.780 9        52.000    20588744.242 9  84307488.96849
        54.900    20588743.82049  20588740.270 7  80794715.408 7        42.100
  23242542.367 7 122140398.888 7        41.300                    95174356.00747
        26.900    23242545.48047
 21  1  4  0 59 30.0000000  0 11G01G32G21G23G16G14G08G22G10G27G20
  23240820.602 7 122131344.871 7        41.700    23240828.652 7  95167321.89347
        28.100    23240828.00847  23240823.840 4  91202003.539 4        34.300
  23870520.656 7 125440436.644 7        41.700    23870528.113 7  97745861.23449
        39.300    23870527.87149
  21938372.672 8 115286946.725 8        47.600                    89834003.36249
        38.800    21938375.12949
  23178240.148 7 121802494.562 7        41.600    23178245.250 7  94911054.46647
        29.600    23178244.42247  23178244.848 4  90956442.091 4        34.700
  24062502.547 6 126449284.894 6        40.000                    98531940.74347
        25.400    24062506.07047
  25193787.828 6 132394242.544 6        38.400    25193790.750 5 103164359.84745
        19.300    25193790.48045
  20589637.023 9 108199286.487 9        51.200    20589643.840 9  84311171.22549
        55.500    20589642.43049  20589639.176 7  80798219.280 7        42.100
  24696156.078 6 129779168.450 6        40.300                   101126644.53646
        22.500    24696156.11746
  21235193.508 9 111591712.134 9        49.900    21235199.348 9  86954611.48849
        54.900    21235199.14549  21235194.633 6  83331470.981 6        40.200
  20597147.164 9 108238769.548 9        50.200    20597153.348 9  84341922.55549
        55.000    20597152.77049  20597149.441 7  80827714.254 7        42.400
  23260439.008 6 122234445.651 6        40.200                    95247639.20047
        26.900    23260441.90647
 21  1  4  1  0  0.0000000  0 11G01G32G21G23G16G14G08G22G10G27G20
  23223040.469 7 122037910.436 7        41.300    23223048.309 7  95094515.87747
        28.600    23223048.44147  23223043.313 3  91132231.073 3        33.600
  23854510.398 7 125356293.130 7        42.800    23854516.297 7  97680294.89649
        40.300    23854515.99249  23854511.563 2  93610182.20612        31.800
  21928878.234 8 115237054.303 8        47.600                    89795126.18149
        38.600    21928881.00449
  23195977.328 7 121895702.265 7        42.300    23195981.512 7  94983683.82047
        29.000    23195981.02347  23195982.469 4  91026045.223 4        34.800
  24083934.766 6 126561912.573 6        39.300                    98619702.56246
        24.600    24083938.35546
  25176239.313 4 132302032.553 4        34.000    25176244.328 5 103092507.86245
        16.900    25176242.80945
  20583168.523 9 108165296.135 9        50.700    20583175.828 9  84284685.22849
        55.600    20583174.35949  20583170.863 7  80772836.855 7        42.500
  24675226.742 6 129669194.973 6        38.300                   101040950.95546
        24.000    24675228.69946
  21243221.734 9 111633899.995 9        49.900    21243227.535 9  86987485.15249
        55.000    21243227.50449  21243222.641 6  83362974.893 6        40.200
  20605640.789 9 108283403.432 9        50.900    20605646.895 9  84376702.20249
        55.000    20605646.11349  20605642.555 7  80861044.745 7        42.400
  23278377.602 6 122328715.539 6        39.900                    95321096.24447
        27.200    23278380.98047
 21  1  4  1  0 30.0000000  0 11G01G32G21G23G16G14G08G22G10G27G20
  23205289.930 7 121944628.323 7        42.100    23205297.004 7  95021828.55447
        28.500    23205297.07047  23205292.086 3  91062572.412 3        33.100
  23838539.531 7 125272369.737 7        42.600    23838546.020 7  97614900.05249
        39.800    23838545.64849  23838541.656 2  93547512.11512        31.800
  21919424.586 9 115187376.285 9        48.000                    89756416.05649
        38.700    21919427.46549
  23213764.500 7 121989174.771 7        41.800    23213768.973 7  95056519.53847
        29.400    23213768.16447  23213769.422 4  91095846.095 4        34.800
  24105382.500 6 126674623.683 6        39.600                    98707529.38747
        26.000    24105386.24647
  25158748.813 5 132210112.230 5        36.700    25158751.883 5 103020881.55645
        19.300    25158751.21945
  20576782.000 9 108131733.160 9        51.700    20576788.652 9  84258532.26449
        55.600    20576787.71949  20576783.824 7  80747773.633 7        42.500
  24654320.375 6 129559328.875 6        38.900                   100955341.04646
        21.700    24654322.36746
  21251342.414 9 111676575.718 9        49.800    21251348.352 9  87020738.96549
        55.000    21251348.30149  21251343.723 6  83394843.130 6        40.300
  20614218.625 9 108328480.391 9        50.100    20614224.715 9  84411827.09749
        54.900    20614224.00849  20614220.625 7  80894706.116 7        42.000
  23296358.797 6 122423205.419 6        39.600                    95394724.68547
        25.300    23296361.91847
 21  1  4  1  1  0.0000000  0 11G01G32G21G23G16G14G08G22G10G27G20
  23187568.172 7 121851499.497 7        41.700    23187575.289 7  94949260.67947
        27.800    23187574.86347  23187570.500 3  90993028.178 3        33.600
  23822611.563 7 125188669.389 7        41.300    23822618.379 7  97549679.00349
        38.800    23822617.60949  23822614.777 2  93485008.68112        31.700
  21910011.953 8 115137912.068 8        47.600                    89717872.53049
        38.400    21910014.77749
  23231602.070 7 122082909.542 7        42.600    23231606.066 7  95129559.63647
        28.400    23231605.32847  23231606.555 5  91165842.847 5        35.000
  24126847.250 6 126787416.922 6        40.200                    98795420.19246
        23.900    24126850.66846
  25141312.461 6 132118484.09016        38.400    25141316.242 6 102949483.00156
        21.300    25141316.55146
  20570476.563 9 108098600.137 9        50.700    20570483.785 9  84232714.32049
        55.500    20570482.55549  20570478.906 7  80723031.419 7        42.200
  24633434.734 6 129449572.046 6        38.100                   100869816.26946
        24.600    24633436.30546
  21259555.859 9 111719737.642 9        50.000    21259561.781 9  87054371.63549
        54.900    21259561.48049  21259557.254 6  83427074.437 6        40.400
  20622880.750 9 108373999.952 9        50.900    20622886.766 9  84447296.87849
        55.000    20622886.11749  20622882.625 7  80928697.967 7        42.200
  23314381.016 6 122517913.482 6        40.200                    95468523.18946
        24.200    23314383.96946
 21  1  4  1  1 30.0000000  0 11G01G32G21G23G16G14G08G22G10G27G20
  23169875.734 7 121758524.775 7        42.100    23169882.734 7  94876812.86247
        28.500    23169882.78147  23169877.922 4  90923599.067 4        34.500
  23806726.578 6 125105195.267 6        40.900    23806733.988 7  97484634.27149
        39.100    23806733.18849  23806729.328 2  93422674.192 2        31.100
  21900640.180 9 115088661.708 9        48.100                    89679495.63449
        38.400    21900642.64549
  23249488.656 7 122176904.309 7        42.000    23249492.410 7  95202802.27747
        28.500    23249492.36347  23249492.930 3  91236033.738 3        33.600
  24148325.672 6 126900289.339 6        40.100                    98883372.71446
        24.700    24148329.02046
  25123932.164 5 132027151.093 5        36.100    25123935.328 5 102878314.42145
        16.300    25123935.45745
  20564254.305 9 108065898.246 9        51.300    20564260.910 9  84207232.32949
        56.100    20564259.53949  20564256.082 7  80698611.189 7        41.600
  24612569.953 6 129339926.554 6        38.700                   100784378.26146
        22.800    24612571.14846
  21267861.547 9 111763384.170 9        50.000    21267867.453 9  87088381.91649
        54.900    21267867.27349  21267862.656 6  83459667.617 6        40.700
  20631626.930 9 108419961.827 9        50.100    20631633.066 9  84483111.32749
        54.900    20631632.55949  20631628.840 7  80963020.150 7        41.500
  23332444.508 6 122612837.389 6        40.700                    95542489.84747
        26.500    23332447.52047
 21  1  4  1  2  0.0000000  0 11G01G32G21G23G16G14G08G22G10G27G20
  23152211.648 6 121665704.879 6        40.500    23152220.184 7  94804485.73047
        26.900    23152219.80947  23152215.816 4  90854285.571 4        34.200
  23790886.078 7 125021950.354 7        42.600    23790892.781 7  97419768.10849
        39.900    23790892.10549  23790888.063 2  93360510.731 2        31.100
  21891309.258 9 115039625.459 9        48.900                    89641285.57949
        39.200    21891311.59449
  23267424.594 7 122271156.412 7        42.100    23267428.574 7  95276245.48747
        28.600    23267427.66047  23267428.160 3  91306416.782 3        33.600
  24169819.391 6 127013238.181 6        39.400                    98971384.76246
        21.300    24169822.76246
  25106608.984 5 131936115.855 5        36.500    25106612.969 6 102807377.79346
        21.300    25106612.86746
  20558113.266 9 108033628.611 9        50.300    20558120.141 9  84182087.16449
        55.500    20558118.93849  20558115.043 7  80674513.735 7        41.700
  24591726.273 6 129230394.388 6        38.600                   100699028.54646
        24.300    24591727.55946
  21276258.930 9 111807513.455 9        50.700    21276265.254 9  87122768.37549
        54.900    21276264.86749  21276260.043 6  83492621.312 6        40.200
  20640457.336 9 108466365.428 9        52.700    20640463.328 9  84519269.96449
        55.000    20640462.87149  20640459.238 7  80997672.200 7        42.300
  23350548.648 7 122707974.566 7        41.000                    95616622.70947
        26.300    23350551.43447
 21  1  4  1  2 30.0000000  0 11G01G32G21G23G16G14G08G22G10G27G20
  23134578.008 6 121573040.864 6        40.800    23134586.301 7  94732280.05447
        28.100    23134586.09047  23134582.262 4  90785088.509 4        34.200
  23775089.203 7 124938937.839 7        42.300    23775096.324 7  97355083.04649
        39.500    23775095.22749  23775092.051 2  93298520.866 2        31.300
  21882018.289 9 114990803.539 9        48.300                    89603242.54849
        39.400    21882021.14549
  23285408.164 7 122365663.566 7        41.600    23285412.762 7  95349887.41147
        28.900    23285411.99247  23285413.148 3  91376990.345 3        33.600
  24191326.961 6 127126260.490 6        39.200                    99059454.09846
        23.000    24191329.88346
  25089342.156 5 131845381.017 5        36.400    25089346.293 6 102736675.31245
        19.300    25089346.92245
  20552055.000 9 108001793.303 9        51.100    20552062.145 9  84157280.42849
        55.200    20552060.91849  20552057.105 7  80650740.596 7        42.400
  24570905.664 6 129120977.390 6        39.400                   100613768.59446
        24.500    24570906.39546
  21284748.141 9 111852123.982 9        49.700    21284753.953 9  87157529.83049
        54.900    21284754.18449  21284749.230 6  83525934.385 6        40.400
  20649371.500 9 108513210.507 9        50.200    20649377.715 9  84555772.61649
        55.000    20649377.30549  20649373.582 7  81032653.899 7        42.800
  23368693.344 7 122803322.746 7        41.700                    95690919.98647
        26.800    23368695.79747
 21  1  4  1  3  0.0000000  0 11G01G32G21G23G16G14G08G22G10G27G20
  23116974.742 6 121480533.156 6        40.900    23116982.375 7  94660196.17447
        29.000    23116982.28547  23116977.344 3  90716008.113 3        33.400
  23759337.094 7 124856160.330 7        41.000    23759343.785 7  97290581.11649
        38.300    23759342.91049  23759339.734 2  93236706.552 2        31.500
  21872768.234 9 114942195.001 9        48.000                    89565365.78349
        38.700    21872771.05149
  23303440.148 7 122460422.902 7        41.900    23303444.625 7  95423725.84147
        27.700    23303444.45347  23303444.953 3  91447752.107 3        32.800
  24212846.992 6 127239353.754 6        38.700                    99147578.71346
        22.500    24212851.17246
  25072133.359 5 131754948.964 5        35.800    25072137.559 6 102666208.80545
        19.900    25072137.22745
  20546079.883 9 107970393.402 9        50.500    20546086.660 9  84132812.97449
        55.200    20546085.64149  20546081.902 7  80627292.644 7        42.200
  24550105.609 6 129011677.198 6        39.100                   100528599.65246
        24.200    24550107.39546
  21293328.609 9 111897213.579 9        51.200    21293334.352 9  87192664.58949
        54.900    21293334.79749  21293329.660 6  83559605.182 6        39.600
  20658369.852 9 108560496.127 9        51.300    20658375.789 9  84592618.55249
        55.100    20658375.50449  20658371.664 7  81067964.584 7        42.000
  23386876.555 6 122898880.040 6        40.500                    95765380.20346
        24.300    23386879.83246
 21  1  4  1  3 30.0000000  0 11G01G32G21G23G16G14G08G22G10G27G20
  23099400.695 6 121388182.774 6        39.900    23099408.738 7  94588234.83947
        27.400    23099407.92647  23099404.027 3  90647045.186 3        33.600
  23743630.258 7 124773621.147 7        41.800    23743637.410 7  97226264.88649
        38.500    23743636.46149  23743632.484 2  93175070.167 2        31.200
  21863559.430 9 114893801.140 9        48.000                    89527656.29149
        38.300    21863562.18849
  23321519.773 7 122555432.245 7        41.600    23321524.207 7  95497759.07547
        27.800    23321523.82047  23321524.582 3  91518700.694 3        33.500
  24234381.469 6 127352515.454 6        39.400                    99235756.65846
        22.800    24234384.63346
  25054982.398 5 131664822.793 5        35.600    25054986.633 5 102595980.51945
        17.400    25054985.93845
  20540188.070 9 107939430.430 9        51.100    20540194.711 9  84108685.98449
        55.400    20540193.65649  20540190.016 7  80604170.936 7        42.100
  24529328.664 6 128902496.069 6        39.200                   100443523.44547
        25.300    24529330.43047
  21301999.867 9 111942780.827 9        50.100    21302005.469 9  87228171.53649
        54.900    21302005.60249  21302000.820 6  83593632.673 6        40.200
  20667451.570 9 108608222.168 9        50.800    20667457.902 9  84629807.66349
        55.100    20667457.44549  20667453.789 7  81103604.151 7        41.800
  23405099.914 7 122994644.447 7        41.200                    95840001.82846
        23.500    23405103.21946
 21  1  4  1  4  0.0000000  0 11G01G32G21G23G16G14G08G22G10G27G20
  23081858.008 6 121295990.853 6        40.300    23081865.223 7  94516397.02047
        29.100    23081864.62947  23081860.215 3  90578200.547 3        33.400
  23727969.422 7 124691323.615 7        42.000    23727976.883 7  97162136.95449
        39.200    23727975.98449  23727971.875 2  93113614.290 2        31.800
  21854391.078 9 114845621.945 9        48.700                    89490114.07149
        38.400    21854393.84049
  23339646.617 7 122650689.334 7        41.600    23339650.832 7  95571985.40247
        27.900    23339649.98047  23339652.086 4  91589834.228 4        34.100
  24255928.359 6 127465743.405 6        40.500                    99323986.22346
        22.300    24255932.08646
  25037890.984 5 131575005.196 5        37.600    25037896.504 5 102525992.79046
        20.100    25037895.40246
  20534379.609 9 107908906.116 9        50.900    20534385.859 9  84084900.80349
        55.000    20534384.91049  20534381.418 7  80581376.801 7        42.000
  24508576.250 6 128793435.892 6        39.200                   100358541.50347
        26.300    24508576.89547
  21310761.555 9 111988824.218 9        51.600    21310767.164 9  87264049.50549
        54.800    21310767.03549  21310762.656 6  83628015.713 6        40.200
  20676617.328 9 108656388.298 9        52.300    20676623.762 9  84667339.70649
        55.000    20676623.19549  20676619.547 7  81139572.377 7        42.200
  23423362.625 6 123090613.633 6        40.100                    95914782.99446
        24.600    23423365.59046
 21  1  4  1  4 30.0000000  0 11G01G32G21G23G16G14G08G22G10G27G20
  23064344.164 6 121203957.305 6        40.700    23064351.719 7  94444682.60447
        28.600    23064350.93447  23064347.945 4  90509474.265 4        34.300
  23712354.859 7 124609269.783 7        42.600    23712362.488 7  97098198.90949
        39.500    23712361.45349  23712357.773 2  93052340.276 2        31.700
  21845263.500 9 114797656.636 9        49.100                    89452738.52249
        38.600    21845266.22349
  23357819.797 7 122746190.781 7        42.500    23357824.371 7  95646402.12647
        28.000    23357823.59847  23357825.223 5  91661150.202 5        35.300
  24277487.133 6 127579033.775 6        40.300                    99412264.38246
        22.500    24277490.16046
  25020859.328 6 131485498.045 6        39.400    25020863.441 6 102456246.90546
        20.600    25020862.28946
  20528654.492 9 107878821.032 9        51.500    20528661.074 9  84061457.88249
        55.700    20528660.09449  20528656.359 7  80558910.672 7        42.100
  24487845.617 6 128684497.860 6        39.200                   100273654.72847
        26.300    24487847.21947
  21319613.422 9 112035340.951 9        51.700    21319618.961 9  87300296.32249
        54.800    21319618.66049  21319614.184 6  83662752.259 6        40.100
  20685866.539 9 108704993.075 9        52.000    20685872.672 9  84705213.56249
        54.900    20685872.20749  20685868.719 7  81175868.124 7        42.300
  23441663.188 6 123186784.419 6        40.000                    95989721.26446
        24.500    23441666.12546
 21  1  4  1  5  0.0000000  0 11G01G32G21G23G16G14G08G22G10G27G20
  23046860.859 6 121112083.269 6        40.300    23046868.133 7  94373092.46747
        27.300    23046868.03147  23046864.492 3  90440867.080 3        33.400
  23696788.328 7 124527462.989 7        42.300    23696794.535 7  97034453.37649
        39.300    23696794.08249  23696790.195 2  92991250.803 2        31.800
  21836176.766 9 114749905.433 9        48.900                    89415529.80049
        38.300    21836179.21149
  23376039.313 7 122841934.472 7        41.300    23376043.914 7  95721007.59147
        28.400    23376043.00047  23376044.141 4  91732647.114 4        34.600
  24299056.758 6 127692384.609 6        39.200                    99500589.72247
        25.200    24299060.45347
  25003886.039 5 131396304.331 5        36.500    25003890.285 5 102386745.34645
        18.300    25003889.14145
  20523013.414 9 107849177.426 9        51.400    20523020.215 9  84038358.96349
        56.100    20523019.18449  20523015.352 7  80536774.239 7        42.100
  24467139.344 6 128575684.451 6        39.900                   100188865.04747
        25.800    24467140.17647
  21328554.742 9 112082329.694 9        49.500    21328560.887 9  87336910.93049
        54.600    21328560.47349  21328555.871 6  83697841.249 6        40.100
  20695199.250 9 108754036.378 9        50.200    20695205.520 9  84743429.11749
        55.000    20695204.71149  20695201.203 7  81212491.354 7        41.700
  23460001.180 6 123283155.199 6        38.800                    96064815.37946
        22.200    23460004.56346
 21  1  4  1  5 30.0000000  0 11G01G32G21G23G16G14G08G22G10G27G20
  23029407.945 6 121020369.718 6        39.500    23029416.301 7  94301627.38047
        28.800    23029416.03147  23029411.137 4  90372379.728 4        34.000
  23681268.063 7 124445906.402 7        42.600    23681275.043 7  96970902.78749
        39.400    23681274.11749  23681270.480 3  92930348.158 3        32.200
  21827130.461 9 114702368.238 9        48.200                    89378487.85649
        39.000    21827133.66449
  23394304.938 7 122937918.019 7        42.100    23394309.215 7  95795799.94847
        28.700    23394308.29347  23394308.801 3  91804323.125 3        33.900
  24320637.031 6 127805792.895 6        38.100                    99588959.79946
        21.800    24320640.69546
  24986972.359 4 131307426.865 4        34.400    24986977.938 5 102317490.03945
        18.600    24986975.70745
  20517456.672 9 107819976.265 9        50.000    20517463.309 9  84015604.81849
        55.400    20517462.44149  20517458.680 7  80514968.171 7        42.100
  24446457.055 6 128466997.639 6        39.200                   100104174.04546
        24.200    24446458.09846
  21337586.102 9 112129788.665 9        51.400    21337591.992 9  87373891.94949
        54.800    21337591.99649  21337586.648 6  83733281.404 6        39.900
  20704615.336 9 108803517.717 9        51.400    20704621.391 9  84781985.99649
        55.300    20704620.65249  20704617.230 7  81249441.707 7        42.000
  23478378.320 6 123379723.602 6        40.300                    96140063.46046
        24.700    23478381.30946
 21  1  4  1  6  0.0000000  0 11G01G32G21G23G16G14G08G22G10G27G20
  23011987.047 6 120928817.213 6        40.900    23011994.410 7  94230287.81747
        28.300    23011993.84047  23011989.207 3  90304012.610 3        33.800
  23665796.766 7 124364602.827 7        42.500    23665803.613 7  96907549.37249
        39.400    23665802.84849  23665798.984 2  92869634.496 2        31.900
  21818125.203 9 114655044.970 9        49.000                    89341612.59149
        38.800    21818128.24649
  23412615.031 7 123034138.812 7        41.300    23412619.605 7  95870777.18247
        29.400    23412618.68847  23412618.504 3  91876176.361 3        33.100
  24342228.914 6 127919255.932 6        38.100                    99677372.55146
        20.900    24342231.87546
  24970120.602 5 131218868.048 5        37.100    24970123.824 5 102248483.13545
        17.800    24970123.74245
  20511984.203 9 107791219.223 9        51.100    20511991.332 9  83993196.73249
        55.200    20511989.98449  20511986.152 7  80493493.746 7        42.800
  24425798.109 6 128358439.084 6        39.200                   100019582.94347
        25.200    24425800.16447
  21346706.180 9 112177715.937 9        50.500    21346712.230 9  87411237.87349
        54.700    21346712.52349  21346706.691 6  83769071.253 6        39.400
  20714114.258 9 108853436.364 9        50.900    20714120.789 9  84820883.63149
        55.400    20714119.93849  20714116.375 7  81286718.616 7        42.300
  23496791.703 6 123476487.104 6        40.500                    96215463.57346
        24.300    23496795.01246
 21  1  4  1  6 30.0000000  0 11G01G32G21G23G16G14G08G22G10G27G20
  22994596.000 6 120837426.834 6        40.900    22994602.961 7  94159074.51047
        28.900    22994603.41047  22994598.391 4  90235766.550 4        34.200
  23650374.625 7 124283555.463 7        41.800    23650381.363 7  96844395.60249
        39.700    23650379.96549  23650376.082 3  92809112.104 3        32.600
  21809161.133 9 114607936.584 9        48.400                    89304904.76249
        39.200    21809163.64849
  23430969.953 7 123130594.646 7        42.300    23430974.324 7  95945937.55847
        27.600    23430974.10247  23430974.172 3  91948205.035 3        33.700
  24363829.438 5 128032772.088 5        37.300                    99765826.65746
        21.100    24363833.43046
  24953330.969 6 131130630.733 6        39.800    24953334.457 6 102179726.77846
        22.600    24953334.62946
  20506596.594 9 107762907.781 9        51.200    20506603.445 9  83971135.87949
        56.200    20506602.57849  20506598.855 7  80472352.117 7        42.000
  24405166.117 6 128250011.120 6        40.400                    99935093.65846
        24.300    24405166.84846
  21355915.109 9 112226109.881 9        49.600    21355921.227 9  87448947.43949
        54.500    21355921.26649  21355915.871 6  83805209.598 6        39.800
  20723696.742 9 108903791.966 9        50.600    20723703.070 9  84860121.76249
        54.900    20723702.56649  20723699.055 7  81324321.829 7        42.300
  23515242.156 6 123573444.326 6        38.800                    96291014.65846
        22.600    23515244.69946
 21  1  4  1  7  0.0000000  0 11G01G32G21G23G16G14G08G22G10G27G20
  22977235.469 6 120746199.100 6        40.300    22977243.352 7  94087987.98947
        28.200    22977243.12147  22977239.078 4  90167641.955 4        34.300
  23635000.609 7 124202767.081 7        42.000    23635007.668 7  96781443.62949
        40.100    23635006.43849  23635002.895 2  92748783.132 2        31.800
  21800236.938 9 114561042.433 9        48.500                    89268363.87349
        39.100    21800240.17649
  23449368.906 7 123227282.776 7        41.200    23449373.563 7  96021278.94547
        27.300    23449372.60547  23449373.527 3  92020407.195 3        33.700
  24385441.086 6 128146337.148 6        38.600                    99854318.91246
        21.300    24385443.85546
  24936601.609 6 131042717.311 6        38.300    24936605.160 6 102111222.69146
        20.100    24936603.99646
  20501294.406 9 107735042.984 9        51.200    20501301.039 9  83949423.04549
        55.500    20501300.04349  20501296.363 7  80451543.975 7        42.400
  24384558.359 6 128141715.039 6        40.600                    99850707.05447
        25.400    24384558.87147
  21365212.820 9 112274968.360 9        51.000    21365218.891 9  87487018.99249
        54.600    21365218.64549  21365214.008 6  83841694.818 6        40.000
  20733361.945 9 108954583.649 9        51.800    20733368.344 9  84899699.69149
        55.200    20733367.92249  20733364.328 7  81362250.668 7        41.800
  23533728.813 6 123670592.403 6        38.900                    96366714.42747
        25.000    23533731.25047
 21  1  4  1  7 30.0000000  0 11G01G32G21G23G16G14G08G22G10G27G20
  22959906.336 6 120655134.921 6        40.600    22959914.559 7  94017028.92147
        28.300    22959914.16047  22959909.238 4  90099639.540 4        34.700
  23619676.422 7 124122240.705 7        43.000    23619683.547 7  96718695.81249
        40.100    23619682.87149  23619678.848 2  92688649.827 2        31.400
  21791354.172 9 114514362.534 9        49.300                    89231989.95249
        39.700    21791357.37949
  23467811.297 7 123324200.702 7        41.400    23467815.965 7  96096799.38547
        28.600    23467815.22747  23467816.637 4  92092780.914 4        34.000
  24407060.359 5 128259949.806 5        37.200                    99942848.27046
        20.400    24407063.52746
  24919932.734 4 130955130.585 4        34.400    24919937.090 5 102042973.33045
        17.400    24919937.02345
  20496077.008 9 107707626.358 9        51.600    20496084.027 9  83928059.43049
        55.600    20496082.96949  20496079.059 7  80431070.487 7        42.600
  24363974.953 6 128033553.280 6        39.800                    99766425.13246
        24.700    24363976.11746
  21374598.273 9 112324289.642 9        51.100    21374604.285 9  87525451.16149
        54.600    21374604.12549  21374599.527 6  83878525.655 6        40.200
  20743110.414 9 109005810.915 9        51.500    20743116.660 9  84939617.04249
        55.000    20743116.05949  20743112.430 7  81400504.794 7        42.100
  23552251.922 6 123767929.216 6        40.000                    96442561.30046
        22.900    23552254.21146
 21  1  4  1  8  0.0000000  0 11G01G32G21G23G16G14G08G22G10G27G20
  22942608.750 6 120564234.968 6        40.800    22942616.992 7  93946197.79647
        28.200    22942616.44947  22942611.965 4  90031759.717 4        34.500
  23604403.516 7 124041979.213 7        42.000    23604410.031 7  96656154.40749
        39.400    23604409.20349  23604405.461 3  92628714.306 3        32.100
  21782512.336 9 114467896.773 9        48.300                    89195782.87749
        39.000    21782514.74649
  23486298.336 7 123421345.889 7        41.300    23486302.238 7  96172496.93947
        27.900    23486301.66047  23486302.930 4  92165324.416 4        34.200
  24428688.938 6 128373606.563 6        38.800                   100031411.98346
        20.900    24428691.64846
  24903327.891 5 130867873.091 5        36.200    24903333.758 6 101974980.34045
        19.900    24903333.12545
  20490945.469 9 107680659.556 9        51.100    20490952.449 9  83907046.34649
        55.700    20490951.46949  20490947.363 7  80410932.965 7        42.700
  24343418.594 6 127925526.811 6        39.700                    99682248.65447
        26.400    24343419.77747
  21384071.609 9 112374071.705 9        50.100    21384077.301 9  87564242.38749
        54.500    21384076.84449  21384072.848 6  83915700.568 6        39.600
  20752941.094 9 109057472.995 9        49.900    20752947.383 9  84979873.20449
        55.000    20752947.04349  20752943.109 7  81439083.623 7        41.600
  23570809.867 6 123865452.356 6        38.900                    96518553.34846
        22.300    23570812.26646
 21  1  4  1  8 30.0000000  0 11G01G32G21G23G16G14G08G22G10G27G20
  22925342.305 6 120473500.139 6        40.200    22925350.188 7  93875495.35047
        28.500    22925350.11747  22925345.750 4  89964003.240 4        34.100
  23589181.234 7 123961985.687 7        41.600    23589187.723 7  96593821.79349
        40.100    23589187.12549  23589183.453 3  92568978.882 3        32.400
  21773710.891 9 114421645.479 9        48.500                    89159742.91649
        38.900    21773713.60549
  23504826.289 6 123518716.009 6        40.700    23504831.434 7  96248369.75247
        29.300    23504830.48447  23504831.563 4  92238035.824 4        34.000
  24450324.711 5 128487304.684 5        37.600                   100120007.92146
        22.600    24450328.76646
  24886788.250 6 130780947.365 6        38.700    24886791.293 5 101907245.99846
        20.600    24886790.46946
  20485899.656 9 107654143.330 9        51.000    20485906.262 9  83886384.34649
        55.900    20485905.48849  20485901.578 7  80391131.885 7        42.200
  24322887.844 6 127817638.020 6        39.700                    99598179.45546
        24.500    24322889.10246
  21393632.234 9 112424312.785 9        49.900    21393638.105 9  87603391.29049
        54.600    21393637.71149  21393633.371 6  83953218.262 6        40.200
  20762854.797 9 109109569.413 9        49.800    20762860.824 9  85020467.80549
        55.000    20762860.38349  20762857.145 7  81477986.776 7        41.400
  23589402.570 6 123963159.877 6        38.600                    96594689.08646
        20.900    23589404.93046
 21  1  4  1  9  0.0000000  0 11G01G32G21G23G16G14G08G22G10G27G20
  22908106.867 6 120382930.899 6        40.600    22908115.484 7  93804921.94147
        29.400    22908115.58247  22908111.230 3  89896370.354 3        33.700
  23574010.648 7 123882262.716 7        43.200    23574017.035 7  96531700.03049
        39.400    23574016.37549  23574012.711 2  92509445.521 2        31.900
  21764950.125 9 114375608.196 9        49.100                    89123869.72049
        39.500    21764953.11349
  23523398.148 7 123616308.285 7        41.300    23523402.430 7  96324415.64547
        28.100    23523402.01647  23523402.684 3  92310913.174 3        33.200
  24471968.180 5 128601042.493 5        37.100                   100208634.77146
        20.400    24471971.64146
  24870310.758 6 130694355.738 6        38.900    24870313.848 6 101839772.04746
        20.400    24870313.09046
  20480939.820 9 107628079.085 9        50.700    20480946.559 9  83866074.54049
        55.400    20480945.61749  20480941.930 7  80371668.326 7        42.400
  24302383.563 6 127709888.457 6        39.600                    99514218.76347
        25.400    24302384.99247
  21403279.680 9 112475010.644 9        50.600    21403285.551 9  87642896.10549
        54.700    21403285.57049  21403280.543 6  83991077.048 6        39.700
  20772851.344 9 109162099.112 9        50.600    20772857.074 9  85061400.03549
        55.000    20772856.40649  20772853.172 7  81517213.489 7        41.600
  23608030.609 6 124061049.283 6        38.800                    96670966.57046
        22.200    23608032.78146
 21  1  4  1  9 30.0000000  0 11G01G32G21G23G16G14G08G22G10G27G20
  22890904.914 7 120292528.291 7        41.700    22890912.406 7  93734478.38047
        29.600    22890912.24247  22890907.574 4  89828861.938 4        34.100
  23558891.672 7 123802813.549 7        43.400    23558898.441 7  96469791.59149
        40.400    23558897.98849  23558893.883 2  92450116.630 2        31.800
  21756230.398 9 114329785.449 9        48.300                    89088163.69349
        39.500    21756233.31649
  23542012.008 7 123714120.473 7        41.300    23542015.148 7  96400632.93947
        28.400    23542014.53947  23542015.516 3  92383954.788 3        32.700
  24493619.406 6 128714816.567 6        38.400                   100297289.88746
        21.800    24493622.28146
  24853896.641 6 130608101.147 6        38.500    24853900.457 6 101772560.66746
        20.900    24853899.11346
  20476066.047 9 107602468.437 9        51.300    20476073.102 9  83846118.18949
        55.500    20476071.99649  20476068.297 7  80352543.511 7        42.100
  24281907.555 6 127602280.441 6        40.500                    99430368.34247
        26.200    24281908.00847
  21413013.438 9 112526163.652 9        51.100    21413019.422 9  87682755.59649
        54.400    21413019.37149  21413014.172 6  84029275.746 6        40.300
  20782929.461 9 109215061.732 9        51.900    20782935.629 9  85102669.59649
        54.900    20782934.80149  20782931.359 7  81556763.471 7        41.800
  23626692.148 5 124159118.687 5        36.300                    96747384.26946
        20.100    23626695.66046
 21  1  4  1 10  0.0000000  0 11G01G32G21G23G16G14G08G22G10G27G20
  22873733.570 7 120202293.095 7        42.500    22873741.133 7  93664165.25547
        28.900    22873740.94547  22873737.098 4  89761478.529 4        34.000
  23543825.836 7 123723641.121 7        44.100    23543832.242 7  96408098.80249
        40.800    23543831.60249  23543827.734 3  92390994.402 3        32.200
  21747551.352 9 114284176.915 9        48.000                    89052624.60249
        39.200    21747554.16449
  23560665.094 6 123812150.120 6        39.700    23560669.840 7  96477019.69347
        26.000    23560669.36747  23560670.242 3  92457158.726 3        33.200
  24515275.648 5 128828624.614 5        37.100                   100385971.46846
        21.100    24515279.58246
  24837546.156 5 130522186.191 5        35.500    24837551.027 6 101705613.86945
        18.600    24837550.35545
  20471279.023 9 107577312.738 9        51.100    20471285.969 9  83826516.34349
        55.600    20471284.88749  20471281.113 7  80333758.385 7        42.600
  24261456.609 6 127494815.602 6        40.400                    99346629.52547
        26.100    24261458.17247
  21422833.766 9 112577769.838 9        49.000    21422839.891 9  87722968.21549
        54.100    21422839.80149  21422834.973 6  84067812.813 6        39.400
  20793090.336 9 109268456.560 9        49.900    20793096.492 9  85144275.95949
        55.400    20793095.60949  20793092.152 7  81596636.249 7        41.700
  23645387.742 5 124257365.676 5        36.900                    96823940.32846
        21.500    23645391.19546
 21  1  4  1 10 30.0000000  0 11G01G32G21G23G16G14G08G22G10G27G20
  22856594.297 6 120112225.953 6        40.700    22856601.977 7  93593983.08347
        28.600    22856601.04747  22856597.441 5  89694220.680 5        35.000
  23528812.914 7 123644748.253 7        42.100    23528819.855 7  96346623.85549
        39.800    23528819.02349  23528815.188 3  92332080.882 3        32.800
  21738913.227 9 114238782.524 9        48.600                    89017252.36349
        39.600    21738916.10549
  23579360.586 6 123910394.639 6        39.800    23579365.207 7  96553573.83547
        27.000    23579364.77047  23579365.168 3  92530523.082 3        33.600
  24536938.383 5 128942464.220 5        37.500                   100474677.69146
        20.600    24536941.90646
  24821262.188 5 130436613.298 5        36.800    24821267.762 6 101638933.67246
        20.100    24821267.16846
  20466578.977 9 107552613.033 9        51.700    20466585.844 9  83807269.82049
        56.000    20466584.55149  20466580.883 7  80315313.794 7        42.200
  24241034.352 6 127387495.864 6        40.300                    99263003.72047
        26.900    24241035.55947
  21432740.594 9 112629827.162 9        51.000    21432745.875 9  87763532.36849
        54.500    21432745.98449  21432741.008 6  84106686.773 6        39.800
  20803332.773 9 109322282.742 9        51.400    20803339.188 9  85186218.43549
        55.000    20803338.48849  20803334.914 7  81636831.116 7        42.200
  23664117.836 6 124355787.655 6        38.000                    96900632.77746
        21.300    23664119.92246
 21  1  4  1 11  0.0000000  0 11G01G32G21G23G16G14G08G22G10G27G20
  22839487.367 7 120022327.832 7        41.400    22839494.371 7  93523932.63147
        29.400    22839494.35947  22839489.809 3  89627088.978 3        33.600
  23513853.516 7 123566137.984 7        43.100    23513860.309 7  96285369.12049
        39.800    23513859.66849  23513856.121 3  92273378.466 3        32.000
  21730315.711 9 114193602.979 9        48.000                    88982047.54249
        39.400    21730318.56349
  23598096.477 6 124008851.725 6        39.900    23598100.996 7  96630293.62647
        25.600    23598100.22347  23598101.789 3  92604046.242 3        33.400
  24558606.961 6 129056332.269 6        38.200                   100563405.99646
        22.000    24558610.91846
  24805044.297 5 130351385.171 5        36.200    24805049.398 6 101572522.04046
        20.100    24805048.87546
  20461966.273 9 107528371.015 9        51.900    20461972.598 9  83788379.93849
        55.700    20461971.56349  20461967.859 7  80297211.004 7        42.300
  24220640.719 7 127280323.146 7        41.000                    99179492.50147
        26.700    24220641.68447
  21442732.109 9 112682333.817 9        51.600    21442737.609 9  87804446.65749
        54.200    21442737.38749  21442732.902 6  84145896.336 6        39.900
  20813657.672 9 109376539.781 9        51.300    20813663.797 9  85228496.63949
        55.000    20813663.43449  20813659.887 7  81677347.731 7        41.800
  23682879.234 5 124454383.256 5        36.900                    96977460.52246
        20.900    23682881.65246
 21  1  4  1 11 30.0000000  0 11G01G32G21G23G16G14G08G22G10G27G20
  22822412.078 7 119932599.267 7        41.600    22822419.945 7  93454014.28647
        28.500    22822419.20347  22822415.184 3  89560083.889 3        33.900
  23498949.367 7 123487813.196 7        44.400    23498955.797 7  96224336.83449
        40.400    23498954.62549  23498951.457 3  92214889.182 3        32.400
  21721759.492 9 114148637.880 9        48.900                    88947009.81549
        39.600    21721761.92649
  23616872.422 6 124107518.826 6        40.100    23616876.664 7  96707177.07247
        26.100    23616875.75447  23616877.172 3  92677726.232 3        33.300
  24580280.688 6 129170226.028 6        38.100                   100652154.41145
        19.900    24580283.92645
  24788893.469 6 130266504.293 6        38.700    24788896.375 6 101506381.08546
        21.300    24788895.77046
  20457440.453 9 107504587.767 9        51.900    20457446.867 9  83769847.53349
        55.800    20457445.78949  20457442.113 7  80279450.781 7        41.800
  24200275.047 7 127173299.277 7        41.400                    99096097.27847
        27.300    24200275.54747
  21452808.711 9 112735287.762 9        50.700    21452814.648 9  87845709.47549
        54.300    21452814.43849  21452809.941 6  84185439.838 6        39.400
  20824064.297 9 109431226.814 9        51.700    20824070.617 9  85271109.90049
        55.500    20824069.85249  20824066.535 7  81718185.435 7        42.000
  23701673.953 5 124553149.951 5        37.100                    97054421.57246
        21.700    23701677.38346
 21  1  4  1 12  0.0000000  0 11G01G32G21G23G16G14G08G22G10G27G20
  22805369.789 7 119843041.354 7        41.900    22805377.867 7  93384228.92547
        28.900    22805377.71547  22805372.887 4  89493206.295 4        34.300
  23484099.141 7 123409776.897 7        44.000    23484106.219 7  96163529.33049
        40.800    23484105.19949  23484101.355 2  92156615.286 2        31.500
  21713243.758 9 114103887.052 9        48.600                    88912139.04749
        39.900    21713246.36749
  23635687.484 6 124206393.649 6        40.300    23635691.797 7  96784222.38747
        25.800    23635691.41447  23635692.035 3  92751561.261 3        33.200
  24601957.367 5 129284142.570 5        37.700                   100740920.56646
        20.400    24601961.05546
  24772807.758 6 130181973.327 6        39.700    24772811.223 6 101440512.78046
        21.800    24772810.91046
  20453002.039 9 107481264.933 9        51.500    20453008.820 9  83751673.89449
        55.700    20453007.66849  20453003.945 7  80262034.377 7        41.900
  24179937.453 6 127066426.130 6        40.500                    99012819.50747
        25.500    24179938.37947
  21462970.469 9 112788687.141 9        51.000    21462976.168 9  87887319.37449
        54.400    21462976.15649  21462971.453 6  84225316.018 6        39.000
  20834552.594 9 109486343.239 9        51.100    20834558.777 9  85314057.75149
        55.200    20834558.33649  20834554.703 7  81759343.793 7        41.400
  23720500.625 5 124652085.691 5        36.900                    97131514.30146
        21.100    23720504.61346
 21  1  4  1 12 30.0000000  0 11G01G32G21G23G16G14G08G22G10G27G20
  22788360.438 7 119753654.542 7        43.200    22788368.195 7  93314576.88048
        30.200    22788367.88748  22788363.793 4  89426456.402 4        34.800
  23469304.734 7 123332031.764 7        43.400    23469312.289 7  96102948.71949
        41.300    23469311.36349  23469306.938 3  92098558.851 3        32.100
  21704768.539 9 114059350.657 9        48.400                    88877435.38049
        39.900    21704771.30949
  23654541.648 6 124305473.358 6        40.000    23654545.969 7  96861427.34247
        27.900    23654545.51647  23654546.270 3  92825549.355 3        33.200
  24623639.852 5 129398080.793 5        37.800                   100829703.59946
        21.700    24623643.77346
  24756789.625 6 130097794.578 6        39.300    24756793.031 6 101374918.93646
        22.500    24756792.61746
  20448651.430 9 107458402.896 9        51.600    20448658.121 9  83733859.32149
        55.800    20448657.21949  20448653.410 7  80244962.077 7        42.100
  24159629.070 7 126959705.182 7        41.000                    98929660.36147
        27.700    24159630.35947
  21473215.969 9 112842529.722 9        51.200    21473222.012 9  87929274.63249
        54.100    21473221.90649  21473217.066 6  84265523.139 6        39.500
  20845122.500 9 109541888.012 9        51.500    20845128.617 9  85357339.39449
        55.600    20845128.08649  20845124.730 7  81800822.040 7        41.600
  23739359.477 5 124751187.560 5        36.000                    97208736.53246
        20.400    23739362.29746
 21  1  4  1 13  0.0000000  0 11G01G32G21G23G16G14G08G22G10G27G20
  22771383.086 7 119664439.808 7        42.300    22771390.746 7  93245058.94247
        29.900    22771390.30547  22771386.387 5  89359835.053 5        35.100
  23454566.313 7 123254580.863 7        42.800    23454573.371 7  96042597.39349
        41.300    23454572.33649  23454569.098 3  92040722.193 3        32.100
  21696334.125 9 114015028.939 9        48.700                    88842898.98149
        39.800    21696336.71949
  23673434.375 6 124404755.810 6        39.600    23673438.953 7  96938790.30547
        25.800    23673438.05147  23673439.070 3  92899688.899 3        33.300
  24645324.578 5 129512037.316 5        36.200                   100918500.85445
        18.300    24645327.67645
  24740837.711 6 130013970.880 6        38.400    24740841.367 6 101309601.76446
        20.100    24740840.83646
  20444389.086 9 107436004.071 9        51.400    20444396.047 9  83716405.67949
        56.400    20444394.85949  20444391.047 7  80228235.663 7        42.300
  24139350.367 7 126853138.838 7        41.700                    98846621.64147
        27.400    24139351.57847
  21483546.289 9 112896813.713 9        51.100    21483551.957 9  87971573.84849
        54.400    21483551.97349  21483547.016 6  84306059.886 6        39.700
  20855773.781 9 109597860.596 9        51.200    20855779.977 9  85400954.38549
        55.000    20855779.37549  20855775.695 7  81842619.738 7        41.700
  23758248.891 5 124850453.980 5        36.600                    97286086.94645
        19.300    23758251.59045
 21  1  4  1 13 30.0000000  0 11G01G32G21G23G16G14G08G22G10G27G20
  22754439.484 7 119575397.961 7        41.700    22754446.570 7  93175675.71347
        29.500    22754446.08247  22754442.383 5  89293342.800 5        35.200
  23439884.531 7 123177427.171 7        42.500    23439891.398 7  95982477.64949
        40.600    23439890.38349  23439886.824 3  91983107.491 3        32.200
  21687941.031 9 113970921.627 9        48.600                    88808529.66349
        39.500    21687943.44549
  23692365.109 6 124504238.655 6        39.900    23692369.828 7  97016309.37547
        25.500    23692369.00447  23692370.578 3  92973977.930 3        32.400
  24667013.289 5 129626008.833 5        37.200                   101007309.81645
        19.900    24667016.35245
  24724954.992 6 129930504.753 6        38.500    24724958.285 5 101244563.19445
        19.600    24724957.62145
  20440215.008 9 107414068.862 9        51.200    20440221.852 9  83699313.30449
        55.500    20440220.78549  20440216.844 7  80211855.486 7        42.600
  24119100.398 7 126746728.564 7        41.100                    98763704.55147
        26.300    24119102.01647
  21493959.641 9 112951537.129 9        50.900    21493965.555 9  88014215.48149
        54.300    21493965.15249  21493960.227 6  84346924.793 6        39.300
  20866506.016 9 109654260.238 9        51.500    20866512.359 9  85444902.15149
        55.400    20866511.83649  20866507.914 7  81884736.342 7        41.500
  23777169.969 5 124949882.860 5        36.900                    97363564.00646
        20.600    23777172.94146
 21  1  4  1 14  0.0000000  0 11G01G32G21G23G16G14G08G22G10G27G20
  22737528.289 7 119486529.549 7        42.500    22737535.738 7  93106427.61848
        30.900    22737535.10948  22737531.238 5  89226980.056 5        35.000
  23425260.086 7 123100573.341 7        44.300    23425266.633 7  95922591.56149
        41.600    23425265.84849  23425261.945 3  91925716.620 3        32.400
  21679588.359 9 113927028.697 9        48.500                    88774327.39049
        39.800    21679590.78949
  23711334.641 7 124603919.134 7        41.100    23711338.707 7  97093982.46147
        26.800    23711338.23847  23711338.910 3  93048414.677 3        32.400
  24688703.617 5 129739993.404 5        37.100                   101096128.96946
        20.400    24688706.89146
  24709139.469 6 129847398.607 6        38.300    24709144.387 6 101179805.14346
        21.300    24709143.94946  24709143.438 1  96963994.74311        29.900
  20436129.203 9 107392598.766 9        51.300    20436136.082 9  83682583.35749
        55.900    20436135.17649  20436131.457 7  80195822.611 7        42.600
  24098881.945 7 126640476.013 7        41.100                    98680910.37047
        28.000    24098882.81647
  21504456.281 9 113006697.815 9        50.500    21504462.188 9  88057197.83249
        53.800    21504462.05949  21504457.258 6  84388116.208 6        39.600
  20877319.922 9 109711085.965 9        51.300    20877326.074 9  85489181.94049
        55.100    20877325.43449  20877321.656 7  81927171.131 7        41.800
  23796121.078 5 125049471.828 5        36.800                    97441165.81846
        21.100    23796124.08646
 21  1  4  1 14 30.0000000  0 11G01G32G21G23G16G14G08G22G10G27G20
  22720650.086 7 119397835.433 7        41.900    22720657.555 7  93037315.36147
        29.200    22720656.75847  22720652.367 4  89160747.534 4        34.600
  23410692.805 7 123024022.406 7        43.600    23410699.629 7  95862941.48249
        41.700    23410698.71549  23410694.770 3  91868551.990 3        32.200
  21671276.305 9 113883350.274 9        49.200                    88740292.25349
        39.800    21671279.25049
  23730339.984 6 124703794.972 6        40.900    23730344.242 7  97171807.78547
        28.400    23730344.05947  23730344.016 1  93122997.26411        30.900
  24710395.875 5 129853988.298 5        36.500                   101184956.15645
        19.900    24710398.37545
  24693392.867 5 129764655.012 5        36.600    24693398.227 6 101115329.56746
        20.100    24693397.85246  24693398.578 1  96902205.663 1        28.100
  20432132.578 9 107371594.695 9        51.100    20432139.203 9  83666216.54849
        56.000    20432138.18849  20432134.250 7  80180137.747 7        42.600
  24078692.625 7 126534383.340 7        41.000                    98598240.77447
        26.200    24078693.53147
  21515035.563 9 113062293.799 9        50.500    21515041.531 9  88100519.38049
        53.700    21515041.42649  21515036.980 6  84429632.692 6        39.400
  20888214.438 9 109768337.057 9        50.600    20888220.668 9  85533793.17149
        55.000    20888219.98849  20888216.391 7  81969923.557 7        41.400
  23815102.273 6 125149218.491 6        38.300                    97518890.38746
        21.500    23815105.42646
 21  1  4  1 15  0.0000000  0 11G01G32G21G23G16G14G08G22G10G27G20
  22703805.547 7 119309316.537 7        41.400    22703812.875 7  92968339.64047
        29.700    22703812.95747  22703808.527 4  89094645.734 4        34.800
  23396183.648 7 122947777.299 7        43.400    23396190.563 7  95803529.72749
        41.700    23396189.74249  23396185.340 3  91811615.702 3        32.000
  21663005.711 9 113839886.458 9        49.100                    88706424.34749
        39.800    21663008.28949
  23749382.688 6 124803863.829 6        40.700    23749386.961 7  97249783.50947
        25.500    23749386.00447  23749387.031 1  93197724.06811        30.300
  24732090.719 5 129967990.817 5        36.800                   101273789.29146
        20.400    24732092.66046
  24677717.602 5 129682276.571 5        37.700    24677721.805 5 101051138.58345
        19.300    24677720.84445  24677722.852 1  96840689.32011        30.000
  20428224.508 9 107351058.425 9        51.600    20428231.375 9  83650214.24949
        55.900    20428230.25849  20428226.391 7  80164802.217 7        42.300
  24058534.789 7 126428452.262 7        41.500                    98515697.04147
        26.300    24058535.96547
  21525698.023 9 113118323.175 9        50.800    21525703.605 9  88144178.63949
        53.900    21525703.55549  21525699.031 6  84471472.803 6        39.600
  20899189.578 9 109826012.784 9        51.600    20899196.121 9  85578735.27949
        55.100    20899195.63749  20899191.641 7  82012993.097 7        41.700
  23834112.875 6 125249121.173 6        40.200                    97596736.69446
        21.100    23834115.58646
 21  1  4  1 15 30.0000000  0 12G01G32G21G23G16G28G14G08G22G10G27G20
  22686994.609 6 119220973.329 6        40.900    22687001.844 7  92899500.82148
        30.800    22687002.26248  22686997.488 4  89028675.244 4        34.600
  23381732.969 7 122871840.779 7        42.700    23381740.395 7  95744358.43049
        41.400    23381739.29749  23381735.227 3  91754909.894 3        32.700
  21654775.688 9 113796637.375 9        48.700                    88672723.77549
        39.400    21654778.12149
  23768461.094 6 124904123.146 6        39.800    23768465.578 7  97327907.63546
        24.800    23768465.45746  23768466.086 2  93272593.011 2        31.100
  24753785.953 5 130081998.942 5        37.500                   101362626.77145
        19.900    24753788.07845
  25493851.633 5 133971088.57015        36.900                   104393062.20155
        15.600    25493853.09045
  24662111.320 5 129600265.693 5        37.200    24662116.152 6 100987234.00146
        20.100    24662115.29346  24662116.230 1  96779447.39111        28.800
  20424405.742 9 107330991.067 9        51.400    20424412.539 9  83634577.34849
        55.400    20424411.53149  20424407.738 7  80149816.845 7        42.600
  24038407.141 6 126322684.770 6        40.400                    98433280.85147
        27.200    24038409.05947
  21536442.023 9 113174783.748 9        50.000    21536447.699 9  88188173.89549
        54.000    21536447.85249  21536442.754 6  84513634.947 6        39.900
  20910245.406 9 109884112.142 9        50.500    20910252.055 9  85624007.50649
        55.200    20910251.50849  20910247.906 7  82056378.992 7        41.300
  23853153.336 6 125349177.243 6        40.300                    97674702.48246
        21.800    23853155.93446
 21  1  4  1 16  0.0000000  0 12G01G32G21G23G16G28G14G08G22G10G27G20
  22670216.773 7 119132807.142 7        42.200    22670224.246 7  92830799.90248
        30.300    22670223.81648  22670219.594 4  88962836.854 4        34.400
  23367342.469 7 122796216.060 7        44.000    23367349.270 7  95685430.09749
        42.100    23367348.46149  23367344.609 3  91698436.905 3        32.400
  21646586.422 9 113753603.210 9        48.800                    88639190.65949
        39.800    21646589.35949
  23787575.602 6 125004570.866 6        39.500    23787579.539 6  97406178.58746
        22.300    23787579.70746  23787580.535 2  93347602.640 2        31.900
  24775480.438 5 130196009.304 5        36.500                   101451466.05145
        18.600    24775483.50445
  25477747.789 5 133886465.028 5        35.200                   104327121.80945
        18.600    25477750.63345
  24646575.977 5 129518625.267 5        37.300    24646580.184 6 100923618.07545
        19.000    24646579.57445  24646580.473 1  96718482.12411        29.600
  20420676.648 9 107311394.200 9        51.000    20420683.477 9  83619307.05949
        55.700    20420682.41049  20420678.523 7  80135182.832 7        41.900
  24018311.891 7 126217082.696 7        41.100                    98350993.53647
        27.400    24018313.57847
  21547267.805 9 113231673.911 9        50.600    21547273.785 9  88232503.88949
        54.100    21547273.59449  21547268.859 6  84556117.853 6        39.600
  20921381.984 9 109942634.779 9        50.800    20921388.473 9  85669609.54649
        55.200    20921387.92249  20921384.270 7  82100080.918 7        41.600
  23872221.859 6 125449385.122 6        38.900                    97752786.51346
        21.800    23872225.25046
 21  1  4  1 16 30.0000000  0 12G01G32G21G23G16G28G14G08G22G10G27G20
  22653473.625 7 119044818.197 7        42.300    22653480.574 7  92762237.11348
        31.100    22653480.18848  22653476.328 5  88897130.835 5        35.200
  23353011.781 7 122720905.614 7        44.300    23353017.754 7  95626746.63549
        42.300    23353017.28549  23353013.371 3  91642198.563 3        33.100
  21638438.055 9 113710783.304 9        48.200                    88605824.50549
        40.200    21638440.94949
  23806725.125 6 125105204.197 6        39.600    23806729.504 6  97484594.18046
        22.500    23806728.63746  23806729.742 2  93422750.896 2        31.600
  24797175.977 5 130310020.139 5        36.900                   101540305.63145
        18.300    24797178.74645
  25461690.477 4 133802086.388 4        34.900                   104261372.17345
        15.600    25461694.36745
  24631110.391 5 129437357.435 5        36.700    24631115.184 5 100860292.44245
        18.600    24631113.94145  24631116.602 1  96657795.123 1        29.400
  20417036.852 9 107292267.789 9        50.800    20417044.000 9  83604403.36149
        55.800    20417042.70349  20417039.172 7  80120900.124 7        42.700
  23998249.289 6 126111647.655 6        40.500                    98268836.39547
        26.700    23998250.12147
  21558174.813 9 113288991.141 9        49.300    21558180.570 9  88277166.67049
        53.800    21558180.66049  21558175.766 6  84598919.674 6        39.400
  20932598.984 9 110001579.320 9        50.300    20932605.035 9  85715540.35849
        55.100    20932604.44949  20932600.813 7  82144097.949 7        41.200
  23891319.336 6 125549742.403 6        39.200                    97830986.99346
        21.800    23891322.27746
 21  1  4  1 17  0.0000000  0 12G01G32G21G23G16G28G14G08G22G10G27G20
  22636762.914 7 118957007.347 7        41.100    22636770.738 7  92693813.09748
        30.200    22636770.68048  22636766.652 5  88831557.819 5        35.500
  23338740.383 7 122645912.262 7        44.300    23338747.605 7  95568310.27149
        42.600    23338746.65649  23338742.383 3  91586197.066 3        32.400
  21630330.461 9 113668177.341 9        48.300                    88572625.06749
        40.300    21630333.15649
  23825910.359 6 125206020.644 6        39.800    23825914.941 7  97563152.46147
        25.200    23825914.45347  23825915.281 3  93498035.908 3        32.400
  24818870.930 5 130424027.870 5        36.200                   101629142.88945
        19.600    24818874.26245
  25445682.289 5 133717954.621 5        37.300                   104195814.84545
        19.000    25445684.50045
  24615717.555 6 129356464.553 6        38.100    24615721.648 5 100797259.02945
        19.300    24615720.48445  24615723.109 1  96597388.11811        30.400
  20413487.203 9 107273613.744 9        50.300    20413494.113 9  83589867.74049
        55.600    20413492.85949  20413489.348 7  80106970.138 7        42.600
  23978216.359 6 126006381.275 6        40.200                    98186810.65647
        27.600    23978218.18447
  21569162.641 9 113346733.386 9        49.000    21569168.805 9  88322160.62349
        53.800    21569168.68849  21569163.836 6  84642038.875 6        39.200
  20943895.570 9 110060944.897 9        49.600    20943902.102 9  85761799.23949
        55.000    20943901.41849  20943897.586 7  82188429.387 7        41.600
  23910444.500 6 125650246.463 6        38.800                    97909301.84846
        20.600    23910446.73046
 21  1  4  1 17 30.0000000  0 12G01G32G21G23G16G28G14G08G22G10G27G20
  22620087.469 7 118869375.874 7        42.000    22620094.824 7  92625528.87248
        30.400    22620093.95348  22620090.148 5  88766118.747 5        35.300
  23324531.008 7 122571239.446 7        43.600    23324537.238 7  95510123.67049
        42.100    23324536.63349  23324532.879 3  91530434.885 3        32.700
  21622263.781 9 113625787.137 9        48.400                    88539593.74849
        40.200    21622266.43849
  23845130.102 7 125307018.419 7        41.100    23845134.230 7  97641851.99347
        27.700    23845133.58647  23845135.094 3  93573456.322 3        33.600
  24840563.891 5 130538030.709 5        35.400                   101717976.19545
        19.600    24840567.82445
  25429719.156 5 133634072.36515        36.900                   104130452.05655
        15.600    25429721.92245
  24600396.422 6 129275949.758 6        38.600    24600400.320 6 100734520.25546
        21.100    24600399.29346  24600400.461 1  96537263.36511        29.200
  20410027.703 9 107255433.888 9        50.200    20410034.574 9  83575701.60949
        55.500    20410033.27749  20410029.902 7  80093394.283 7        42.700
  23958217.781 6 125901286.002 6        40.600                    98104918.25147
        28.100    23958219.46147
  21580231.477 9 113404899.157 9        49.400    21580237.355 9  88367484.60549
        53.900    21580237.27749  21580232.441 6  84685474.377 6        39.400
  20955272.453 9 110120731.290 9        49.800    20955279.055 9  85808386.03349
        55.000    20955278.44549  20955274.500 7  82233075.051 7        41.100
  23929597.477 5 125750896.273 5        36.300                    97987730.27746
        20.900    23929600.50446
 21  1  4  1 18  0.0000000  0 12G01G32G21G23G16G28G14G08G22G10G27G20
  22603445.555 7 118781924.447 7        42.100    22603453.414 7  92557384.90247
        29.700    22603452.57047  22603448.441 4  88700814.180 4        34.600
  23310382.359 7 122496889.881 7        44.400    23310389.512 7  95452188.96549
        42.700    23310388.23849  23310384.918 3  91474914.110 3        33.500
  21614237.859 9 113583611.733 9        48.700                    88506729.80049
        40.600    21614241.20349
  23864382.703 6 125408195.031 6        39.300    23864387.645 7  97720690.90447
        25.400    23864386.82847  23864388.270 3  93649010.241 3        32.400
  24862258.391 6 130652026.464 6        38.300                   101806804.07146
        20.100    24862261.37546
  25413803.094 2 133550441.902 2        31.300                   104065285.43744
        14.800    25413808.74644
  24585146.531 5 129195815.395 5        36.900    24585152.684 6 100672077.88246
        21.500    24585151.67246  24585151.867 1  96477422.74511        28.800
  20406658.453 9 107237728.918 9        50.800    20406665.406 9  83561905.53549
        56.300    20406664.06649  20406660.719 7  80080173.035 7        42.400
  23938251.648 7 125796363.246 7        41.100                    98023160.27747
        27.900    23938253.44947
  21591380.352 9 113463486.281 9        49.500    21591385.859 9  88413136.91949
        53.900    21591386.05549  21591380.738 6  84729224.499 6        39.100
  20966729.695 9 110180937.430 9        49.700    20966735.855 9  85855299.89849
        55.200    20966735.39849  20966731.535 7  82278034.179 7        41.300
  23948777.359 5 125851689.503 5        36.200                    98066270.37046
        21.700    23948781.37146
 21  1  4  1 18 30.0000000  0 12G01G32G21G23G16G28G14G08G22G10G27G20
  22586838.031 7 118694653.092 7        41.700    22586846.348 7  92489381.27948
        31.200    22586846.06648  22586841.262 5  88635644.055 5        35.000
  23296296.188 7 122422865.682 7        44.300    23296303.207 7  95394507.78449
        42.900    23296302.27349  23296298.477 3  91419636.351 3        33.600
  21606253.297 9 113541650.593 9        48.800                    88474032.81649
        40.400    21606256.07449
  23883669.891 6 125509547.406 6        39.800    23883673.504 7  97799666.75846
        23.800    23883672.99246  23883674.727 3  93724695.458 3        33.000
  24883948.320 5 130766011.724 5        37.100                   101895623.71245
        19.000    24883951.48445
  25397939.117 5 133467065.161 5        36.000                   104000316.35845
        16.300    25397941.50045
  24569970.891 5 129116063.253 5        37.800    24569975.082 6 100609933.37345
        19.900    24569974.57045  24569974.898 1  96417867.60611        28.700
  20403380.133 9 107220499.521 9        50.200    20403386.648 9  83548480.02349
        55.500    20403385.52349  20403382.172 7  80067306.924 7        42.000
  23918318.922 6 125691614.425 6        40.800                    97941537.84247
        28.300    23918320.52747
  21602608.813 9 113522491.928 9        48.900    21602614.426 9  88459115.34749
        53.600    21602614.48449  21602609.402 6  84773287.142 6        39.200
  20978265.664 9 110241561.680 9        49.700    20978272.266 9  85902539.57049
        55.000    20978271.80549  20978268.363 7  82323305.511 7        41.300
  23967985.391 5 125952622.998 5        37.000                    98144919.83146
        20.900    23967988.04746
 21  1  4  1 19  0.0000000  0 12G01G32G21G23G16G28G14G08G22G10G27G20
  22570266.281 7 118607563.012 7        43.100    22570273.582 7  92421518.90348
        31.400    22570273.64848  22570268.883 5  88570609.284 5        35.800
  23282272.406 7 122349170.036 7        43.700    23282279.207 7  95337082.61149
        43.000    23282278.28549  23282275.102 3  91364603.876 3        33.500
  21598309.281 9 113499904.314 9        49.000                    88441503.25349
        40.500    21598311.95349
  23902988.875 6 125611073.454 6        39.200    23902993.586 7  97878777.96347
        25.500    23902992.69947  23902993.582 3  93800510.366 3        32.300
  24905636.422 6 130879984.123 6        39.200                   101984433.39946
        20.600    24905640.15246
  25382122.672 6 133383944.433 6        40.700                   103935547.03046
        21.100    25382124.87546
  24554867.523 5 129036696.248 5        37.600    24554871.566 5 100548088.96745
        19.300    24554870.09045  24554872.406 1  96358600.03011        29.700
  20400192.156 9 107203746.994 9        50.300    20400198.883 9  83535426.09649
        56.500    20400197.75049  20400194.055 7  80054796.917 7        42.000
  23898419.594 7 125587041.867 7        41.400                    97860052.74947
        26.700    23898420.58247
  21613916.125 9 113581914.442 9        48.600    21613922.230 9  88505418.60549
        53.400    21613922.09849  21613917.164 6  84817661.110 6        39.600
  20989881.797 9 110302603.530 9        49.700    20989888.070 9  85950104.63649
        55.100    20989887.71149  20989884.152 7  82368888.711 7        41.100
  23987218.195 5 126053695.233 5        36.100                    98223677.40046
        20.600    23987221.38746
 21  1  4  1 19 30.0000000  0 12G01G32G21G23G16G28G14G08G22G10G27G20
  22553727.953 7 118520655.153 7        42.600    22553735.035 7  92353798.51448
        30.600    22553734.75048  22553730.766 5  88505710.596 5        35.400
  23268311.461 7 122275805.997 7        44.100    23268318.352 7  95279915.84549
        42.900    23268317.45349  23268314.109 4  91309819.078 4        34.100
  21590406.023 9 113458373.040 9        48.600                    88409141.22449
        40.500    21590408.66849
  23922342.039 6 125712771.022 6        39.900    23922346.363 7  97958022.79747
        25.400    23922345.80947  23922347.039 3  93876453.317 3        33.500
  24927321.664 5 130993941.045 5        37.500                   102073231.00445
        19.000    24927325.46145
  25366353.680 5 133301082.573 5        37.400                   103870979.29145
        17.800    25366356.00845
  24539838.102 5 128957716.872 5        37.300    24539841.957 6 100486546.60345
        19.300    24539842.32045  24539842.949 1  96299621.93011        30.000
  20397094.867 9 107187472.431 9        49.800    20397101.938 9  83522744.62149
        56.500    20397100.95749  20397097.082 7  80042643.844 7        42.400
  23878553.773 7 125482647.439 7        41.000                    97778706.44047
        26.500    23878554.86747
  21625303.266 9 113641751.871 9        50.500    21625308.844 9  88552045.17849
        53.800    21625308.83649  21625303.641 6  84862344.915 6        39.200
  21001577.227 9 110364062.308 9        50.500    21001583.355 9  85997994.58649
        55.000    21001582.91449  21001579.191 7  82414783.249 7        41.100
  24006476.656 3 126154904.476 3        33.500                    98302541.70445
        17.800    24006480.44545
 21  1  4  1 20  0.0000000  0 12G01G32G21G23G16G28G14G08G22G10G27G20
  22537224.703 7 118433930.237 7        42.400    22537232.418 7  92286220.69648
        30.900    22537232.14848  22537227.465 5  88440948.468 5        35.100
  23254414.852 7 122202776.306 7        44.800    23254421.453 7  95223009.60449
        43.500    23254420.88749  23254416.734 3  91255283.941 3        32.400
  21582544.086 9 113417056.418 9        49.200                    88376946.46849
        40.600    21582546.18449
  23941726.281 6 125814637.694 6        39.300    23941730.328 7  98037399.41547
        25.800    23941730.17647  23941732.027 3  93952522.554 3        33.200
  24949003.516 5 131107880.232 5        37.700                   102162014.75945
        19.300    24949007.39145
  25350633.656 3 133218481.503 3        33.600                   103806614.84445
        15.600    25350638.21145
  24524883.602 6 128879127.727 6        38.300    24524888.027 6 100425308.31246
        20.400    24524887.54346  24524888.109 1  96240935.29311        30.200
  20394089.250 9 107171677.178 9        50.100    20394096.344 9  83510436.62649
        55.800    20394095.23049  20394091.340 7  80030848.676 7        42.300
  23858722.016 6 125378432.648 6        40.700                    97697500.11547
        26.500    23858723.92647
  21636768.305 9 113702002.113 9        49.300    21636774.199 9  88598993.41949
        53.500    21636773.86349  21636769.371 6  84907336.965 6        39.200
  21013351.055 9 110425936.953 9        49.500    21013357.656 9  86046208.59149
        55.000    21013357.04749  21013353.172 7  82460988.327 7        41.100
  24025762.961 5 126256248.308 5        35.700                    98381510.94045
        19.000    24025765.82445
 21  1  4  1 20 30.0000000  0 12G01G32G21G23G16G28G14G08G22G10G27G20
  22520756.242 7 118347388.723 7        41.800    22520763.770 7  92218785.77048
        30.600    22520763.26248  22520759.277 5  88376323.360 5        35.500
  23240581.930 7 122130083.512 7        44.600    23240588.898 7  95166365.88049
        43.800    23240587.90649  23240583.063 3  91201000.358 3        32.900
  21574722.281 9 113375954.527 9        48.800                    88344919.01749
        40.900    21574724.87549
  23961142.805 6 125916670.885 6        39.100    23961146.625 6  98116905.77546
        24.800    23961146.22746  23961147.098 2  94028716.128 2        31.500
  24970683.281 5 131221798.911 5        37.400                   102250782.58145
        18.300    24970685.67645
  25334966.336 5 133136143.421 5        37.500                   103742455.18945
        17.400    25334969.19545
  24510002.766 5 128800930.847 5        37.100    24510007.855 6 100364375.70646
        20.900    24510007.82046  24510008.641 1  96182541.48311        29.900
  20391174.906 9 107156362.267 9        50.400    20391181.945 9  83498502.92149
        56.400    20391180.92249  20391176.762 7  80019412.199 7        42.000
  23838924.969 6 125274398.840 6        39.900                    97616434.82847
        27.500    23838926.84847
  21648311.906 9 113762662.794 9        49.500    21648317.695 9  88646261.48249
        53.500    21648317.09849  21648312.680 6  84952635.536 6        39.200
  21025204.805 9 110488226.332 9        49.800    21025211.043 9  86094745.76449
        55.600    21025210.36349  21025206.402 7  82507503.108 7        41.200
  24045073.656 5 126357724.563 5        36.500                    98460583.32146
        20.100    24045076.26646
 21  1  4  1 21  0.0000000  0 12G01G32G21G23G16G28G14G08G22G10G27G20
  22504323.727 7 118261031.728 7        42.300    22504330.949 7  92151494.63648
        32.100    22504330.77048  22504326.227 5  88311836.044 5        36.000
  23226812.953 7 122057730.707 7        44.100    23226820.242 7  95109987.08949
        43.500    23226819.07449  23226815.246 3  91146970.691 3        32.900
  21566941.945 9 113335067.403 9        48.800                    88313058.93849
        40.300    21566944.52349
  23980590.570 6 126018868.470 6        39.200    23980594.695 7  98196540.27146
        23.500    23980593.62146  23980594.934 1  94105032.51811        30.600
  24992354.305 5 131335694.390 5        36.700                   102339532.30345
        17.400    24992358.68845
  25319347.766 5 133054070.761 5        35.900                   103678502.37445
        16.900    25319351.37945
  24495197.773 6 128723128.957 6        38.800    24495202.945 6 100303750.83946
        23.900    24495202.72346  24495201.941 1  96124442.77611        30.100
  20388352.219 9 107141528.708 9        50.200    20388359.359 9  83486944.30549
        55.600    20388358.14849  20388354.227 7  80008335.189 7        42.200
  23819163.008 7 125170548.162 7        41.100                    97535512.24747
        28.000    23819164.77747
  21659932.586 9 113823732.081 9        49.500    21659938.402 9  88693847.94449
        53.400    21659938.41049  21659933.727 6  84998239.252 6        39.500
  21037136.820 9 110550929.722 9        50.800    21037143.316 9  86143605.53949
        55.500    21037142.43449  21037138.691 6  82554327.072 6        40.700
  24064408.836 5 126459331.288 5        37.300                    98539757.37046
        20.600    24064411.21146
 21  1  4  1 21 30.0000000  0 12G01G32G21G23G16G28G14G08G22G10G27G20
  22487925.328 7 118174859.767 7        43.200    22487932.473 7  92084347.68748
        31.200    22487932.39148  22487928.395 5  88247486.876 5        35.400
  23213110.734 7 121985720.368 7        43.900    23213117.246 7  95053875.15649
        43.300    23213115.75449  23213112.156 3  91093196.744 3        33.500
  21559201.992 9 113294395.045 9        48.700                    88281366.19649
        40.400    21559204.76649
  24000068.781 6 126121227.798 6        39.500    24000073.477 7  98276300.78146
        22.900    24000073.31646  24000073.281 2  94181469.72612        31.100
  25014024.000 5 131449564.669 5        37.200                   102428262.37545
        19.900    25014028.30945
  25303781.539 5 132972265.311 5        37.300                   103614757.93645
        18.300    25303784.55945
  24480468.852 6 128645724.397 6        38.800    24480472.973 6 100243435.60446
        21.100    24480472.28146  24480472.973 1  96066640.62511        30.100
  20385621.438 9 107127177.344 9        50.000    20385628.254 9  83475761.42349
        56.000    20385627.10949  20385623.277 7  79997618.260 7        42.600
  23799435.445 6 125066882.710 6        40.900                    97454733.99247
        29.200    23799437.83247
  21671631.266 9 113885207.638 9        50.500    21671636.922 9  88741750.96749
        53.500    21671636.77349  21671632.285 6  85044146.275 6        39.400
  21049147.344 9 110614045.941 9        50.400    21049153.895 9  86192787.00649
        55.100    21049153.20749  21049149.695 7  82601459.288 7        41.300
  24083768.164 5 126561066.247 5        37.900                    98619031.36346
        20.100    24083770.33646
 21  1  4  1 22  0.0000000  0 12G01G32G21G23G16G28G14G08G22G10G27G20
  22471562.727 7 118088873.554 7        42.800    22471570.066 7  92017345.45548
        31.000    22471569.44548  22471565.129 5  88183276.414 5        36.200
  23199472.867 7 121914055.316 7        43.900    23199479.625 7  94998032.27049
        43.600    23199478.90249  23199474.570 3  91039680.673 3        33.400
  21551503.227 9 113253937.422 9        48.500                    88249840.78249
        40.600    21551505.87149
  24019577.188 5 126223746.630 5        36.800    24019581.945 6  98356185.57246
        22.000    24019581.37146  24019582.266 2  94258025.933 2        31.100
  25035688.148 5 131563406.767 5        37.700                   102516970.51945
        18.300    25035691.10545
  25288264.945 5 132890729.481 5        35.800                   103551223.43245
        16.900    25288268.11745
  24465815.031 5 128568719.412 5        37.900    24465818.750 6 100183431.73646
        20.100    24465817.70746  24465819.227 1  96009136.90611        30.400
  20382982.469 9 107113309.207 9        50.200    20382989.109 9  83464955.07749
        56.300    20382987.97749  20382984.238 7  79987262.175 7        41.800
  23779745.164 7 124963403.836 7        41.900                    97374101.12347
        29.700    23779746.56347
  21683406.414 9 113947087.282 9        49.100    21683412.059 9  88789968.88649
        53.500    21683411.85549  21683407.324 6  85090355.117 6        39.500
  21061236.477 9 110677573.928 9        49.400    21061242.793 9  86242289.32549
        55.100    21061242.26649  21061238.418 7  82648899.032 7        41.300
  24103151.992 6 126662927.454 6        38.600                    98698403.76945
        17.800    24103153.70745
 21  1  4  1 22 30.0000000  0 12G01G32G21G23G16G28G14G08G22G10G27G20
  22455235.727 7 118003074.408 7        42.600    22455242.891 7  91950488.99748
        31.300    22455242.43848  22455237.789 5  88119205.638 5        35.300
  23185902.266 7 121842738.874 7        44.100    23185908.484 7  94942461.02549
        43.300    23185907.58649  23185903.656 3  90986424.905 3        33.500
  21543845.188 9 113213695.082 9        48.500                    88218483.11649
        40.900    21543848.06649
  24039115.469 6 126326423.080 6        38.600    24039119.984 6  98436193.15246
        22.200    24039119.68846  24039120.551 1  94334699.912 1        30.900
  25057345.547 5 131677218.303 5        36.100                   102605654.87845
        18.300    25057348.54345
  25272801.258 5 132809465.979 5        35.800                   103487901.23145
        15.600    25272804.16045
  24451237.672 6 128492116.958 6        38.100    24451241.848 6 100123741.51845
        19.600    24451240.23445  24451241.457 1  95951933.81011        29.400
  20380435.773 9 107099926.278 9        50.400    20380442.574 9  83454526.82049
        55.700    20380441.30149  20380437.418 7  79977268.429 7        42.700
  23760090.016 7 124860113.592 7        41.600                    97293615.23347
        29.000    23760090.91847
  21695258.203 9 114009369.389 9        49.400    21695264.480 9  88838500.40449
        53.400    21695264.36749  21695259.145 6  85136864.507 6        39.000
  21073404.000 9 110741513.278 9        50.900    21073409.875 9  86292112.19049
        55.000    21073409.56349  21073405.809 6  82696645.924 6        40.600
  24122558.445 5 126764913.131 5        37.700                    98777873.13945
        17.400    24122561.14845
 21  1  4  1 23  0.0000000  0 12G01G32G21G23G16G28G14G08G22G10G27G20
  22438944.539 7 117917462.945 7        43.600    22438951.859 7  91883778.80848
        31.400    22438951.39148  22438947.602 5  88055275.021 5        35.700
  23172397.359 7 121771773.578 7        43.900    23172404.402 7  94887163.40849
        43.400    23172403.37549  23172399.453 3  90933431.312 3        32.900
  21536228.219 9 113173667.995 9        48.500                    88187293.18549
        41.100    21536231.18849
  24058684.219 6 126429254.625 6        38.100    24058688.586 6  98516321.66246
        21.300    24058687.40646  24058688.359 1  94411489.70911        29.200
  25078996.570 5 131790996.484 5        37.200                   102694313.15446
        20.400    25079000.07046
  25257389.461 5 132728477.196 5        36.000                   103424793.06545
        16.300    25257391.24245
  24436737.969 6 128415919.342 6        38.300    24436742.637 6 100064366.74846
        21.100    24436741.14846  24436742.848 1  95895032.947 1        29.900
  20377981.336 9 107087028.943 9        50.900    20377988.285 9  83444476.94349
        56.100    20377986.98849  20377983.195 7  79967637.312 7        42.600
  23740469.719 6 124757013.752 6        40.600                    97213277.72947
        26.900    23740471.67647
  21707186.234 9 114072051.761 9        49.700    21707192.293 9  88887343.79949
        53.400    21707192.28549  21707187.660 6  85183672.772 6        39.500
  21085649.180 9 110805862.803 9        51.400    21085655.367 9  86342254.67349
        55.000    21085654.77049  21085651.277 6  82744699.138 6        40.800
  24141989.664 5 126867021.004 5        37.200                    98857437.70345
        17.800    24141992.39145
 21  1  4  1 23 30.0000000  0 12G01G32G21G23G16G28G14G08G22G10G27G20
  22422688.578 7 117832039.703 7        42.600    22422696.336 7  91817215.27948
        31.700    22422696.32448  22422692.379 5  87991485.008 5        35.800
  23158959.984 7 121701161.991 7        44.100    23158967.063 7  94832141.39949
        43.300    23158966.12549  23158962.516 3  90880701.90313        33.600
  21528652.227 9 113133855.639 9        48.300                    88156270.58749
        40.400    21528655.12949
  24078280.414 5 126532238.762 5        37.000    24078286.172 6  98596569.02546
        21.500    24078285.38746  24078285.840 1  94488393.48411        29.900
  25100640.805 5 131904739.379 5        37.600                   102782944.02945
        19.600    25100645.05145
  25242031.563 5 132647764.963 5        37.000                   103361900.35345
        16.300    25242032.86745
  24422315.828 6 128340128.760 6        39.700    24422319.863 6 100005309.13546
        22.200    24422318.04746  24422320.141 1  95838436.12411        30.700
  20375619.742 9 107074618.244 9        50.300    20375626.441 9  83434806.26449
        56.000    20375625.43849  20375621.863 7  79958369.576 7        42.300
  23720887.344 6 124654105.796 6        40.900                    97133089.71947
        27.900    23720888.74647
  21719190.063 9 114135131.961 9        49.900    21719195.809 9  88936497.20949
        53.100    21719195.87149  21719191.105 6  85230778.093 6        38.900
  21097971.984 9 110870621.304 9        51.000    21097978.320 9  86392715.83149
        55.000    21097977.82049  21097974.508 6  82793057.752 6        40.500
  24161441.867 5 126969248.797 5        35.900                    98937095.71445
        16.900    24161445.48045
 21  1  4  1 24  0.0000000  0 12G01G32G21G23G16G28G14G08G22G10G27G20
  22406469.773 7 117746805.658 7        43.500    22406476.816 7  91750799.20048
        32.900    22406476.20748  22406471.434 5  87927836.251 5        35.800
  23145591.469 7 121630907.031 7        44.900    23145598.262 7  94777397.28849
        43.700    23145597.73449  23145592.902 3  90828238.829 3        33.300
  21521117.664 9 113094258.625 9        48.700                    88125415.78649
        40.600    21521119.90249
  24097907.492 6 126635373.328 6        38.300    24097912.176 6  98676933.56446
        22.000    24097911.13346  24097912.180 2  94565409.495 2        31.600
  25122277.477 3 132018444.715 3        33.200                   102871545.57444
        14.800    25122281.82044
  25226724.664 5 132567331.497 5        36.800                   103299224.85345
        16.300    25226726.53145
  24407971.453 6 128264747.735 6        38.300    24407975.496 6  99946570.69146
        21.800    24407974.17646  24407975.785 1  95782145.124 1        30.600
  20373350.922 9 107062695.229 9        50.800    20373357.617 9  83425515.59749
        55.800    20373356.59449  20373352.707 7  79949466.028 7        42.600
  23701341.578 7 124551391.940 7        41.800                    97053052.98347
        28.200    23701343.23847
  21731269.734 9 114198608.046 9        49.900    21731275.230 9  88985959.09949
        53.500    21731275.09049  21731270.207 6  85278179.081 6        39.200
  21110372.930 9 110935787.871 9        50.100    21110379.094 9  86443494.97449
        55.000    21110378.46949  21110375.059 6  82841721.089 6        40.600
  24180919.297 5 127071594.858 5        35.500                    99016845.89945
        16.900    24180921.50445
 21  1  4  1 24 30.0000000  0 12G01G32G21G23G16G28G14G08G22G10G27G20
  22390285.570 7 117661761.638 7        43.600    22390293.227 7  91684531.16349
        38.300    22390293.16449  22390288.238 5  87864329.389 5        35.600
  23132291.180 7 121561011.557 7        43.600    23132297.230 8  94722933.29849
        43.800    23132296.83249  23132292.773 3  90776044.125 3        33.800
  21513623.453 9 113054877.127 9        48.800                    88094728.89949
        40.900    21513625.86349
  24117561.570 5 126738656.058 5        37.900    24117565.102 6  98757413.61446
        20.400    24117564.98446  24117566.301 1  94642536.143 1        30.300
  25143908.672 6 132132109.523 6        38.000                   102960115.56946
        20.100    25143911.30146
  25211472.305 5 132487179.559 5        36.300                   103236768.84645
        17.400    25211475.47345
  24393704.883 6 128189778.626 6        38.000    24393709.406 6  99888153.25046
        20.900    24393708.63346  24393710.402 2  95726161.74012        31.000
  20371174.813 9 107051261.211 9        49.800    20371181.984 9  83416605.97349
        55.600    20371180.90649  20371177.094 7  79940927.633 7        42.200
  23681833.492 7 124448873.618 7        42.100                    96973168.57647
        28.700    23681834.25847
  21743423.734 9 114262477.961 9        49.900    21743429.156 9  89035727.86249
        53.200    21743428.97349  21743423.965 6  85325874.145 6        39.400
  21122851.289 9 111001361.612 9        50.000    21122857.418 9  86494591.38349
        55.000    21122856.93449  21122853.273 7  82890688.493 7        41.400
  24200415.711 3 127174057.224 3        33.200                    99096686.68745
        15.600    24200418.74245
 21  1  4  1 25  0.0000000  0 12G01G32G21G23G16G28G14G08G22G10G27G20
  22374138.969 7 117576908.727 7        43.300    22374146.027 7  91618412.04849
        37.600    22374145.79749  22374141.688 5  87800965.284 5        35.400
  23119059.422 7 121491478.550 7        44.500    23119065.988 7  94668751.74149
        43.900    23119065.06649  23119061.348 3  90724120.19013        33.900
  21506170.188 9 113015710.867 9        48.800                    88064209.73949
        41.400    21506172.96549
  24137242.852 5 126842085.006 5        36.900    24137246.426 5  98838007.63245
        19.900    24137246.13345  24137247.109 1  94719772.062 1        30.000
  25165530.148 5 132245731.464 5        36.400                   103048652.15445
        17.800    25165533.03945
  25196273.656 5 132407311.373 5        35.400                   103174533.83343
        13.900    25196276.57043
  24379517.625 6 128115224.225 6        40.000    24379521.516 6  99830058.91346
        20.400    24379521.21146  24379522.801 1  95670487.986 1        30.500
  20369092.336 9 107040317.258 9        50.300    20369099.168 9  83408078.21449
        55.800    20369098.37549  20369094.293 7  79932755.198 7        42.400
  23662361.828 7 124346553.120 7        41.400                    96893438.32647
        27.800    23662363.30947
  21755651.938 9 114326739.871 9        50.300    21755657.766 9  89085802.07549
        52.900    21755657.69149  21755652.586 6  85373861.935 6        39.400
  21135406.656 9 111067341.762 9        50.300    21135413.027 9  86546004.48049
        55.000    21135412.68449  21135408.504 6  82939959.368 6        40.900
  24219935.203 2                        31.500
        14.800    24219938.25844
 21  1  4  1 25 30.0000000  0 12G01G32G21G23G16G28G14G08G22G10G27G20
  22358028.258 7 117492247.078 7        42.800    22358035.234 7  91552441.97849
        42.700    22358034.93449  22358031.305 5  87737743.966 5        36.500
  23105896.367 7 121422310.125 7        44.000    23105903.688 7  94614854.28249
        43.800    23105902.53949  23105898.742 3  90672468.422 3        33.400
  21498758.156 9 112976759.907 9        48.300                    88033858.35249
        40.900    21498760.68449
  24156951.758 5 126945657.240 5        37.500    24156957.199 6  98918713.24746
        21.300    24156956.21946  24156957.063 1  94797114.965 1        30.800
  25187142.359 3 132359307.978 3        32.900                   103137153.31545
        15.600    25187145.66845
  25181130.336 5 132327728.575 5        35.800                   103112521.25245
        16.900    25181132.88745
  24365409.609 6 128041086.204 6        39.300    24365414.359 6  99772289.03446
        21.800    24365413.47346  24365414.840 2  95615125.140 2        31.600
  20367103.180 9 107029863.191 9        50.400    20367109.875 9  83399932.18249
        55.900    20367108.95349  20367104.824 7  79924948.581 7        42.200
  23642929.047 7 124244431.526 7        41.300                    96813863.07447
        28.000    23642930.18447
  21767954.547 9 114391390.924 9        50.400    21767960.379 9  89136179.51749
        52.800    21767960.26649  21767955.492 6  85422140.313 6        39.200
  21148039.328 9 111133726.600 9        50.100    21148045.613 9  86597732.92549
        55.300    21148045.46949  21148041.277 7  82989532.462 7        41.000
  24239476.109 1 127379322.813 1        29.900                    99256634.89853
        13.900    24239484.32843
 21  1  4  1 26  0.0000000  0 12G01G32G21G23G16G28G14G08G22G10G27G20
  22341954.172 7 117407777.278 7        43.000    22341961.293 7  91486621.38549
        42.500    22341960.77349  22341956.586 5  87674665.932 5        36.100
  23092803.875 7 121353508.864 7        44.200    23092811.387 7  94561242.91549
        43.400    23092809.97749  23092806.539 4  90621090.899 4        34.300
  21491387.141 9 112938023.792 9        49.000                    88003674.36849
        41.400    21491389.59049
  24176688.625 6 127049370.283 6        38.100    24176692.941 6  98999528.56346
        22.900    24176692.19146  24176693.168 3  94874562.981 3        32.700
  25208746.484 5 132472836.106 5        36.400                   103225616.81645
        17.400    25208749.31345
  25166041.805 6 132248433.519 6        38.400                   103050732.79645
        18.300    25166043.36745
  24351382.086 6 127967366.845 6        39.500    24351385.844 7  99714845.38446
        23.600    24351385.65646  24351386.797 2  95560075.009 2        31.900
  20365207.133 9 107019900.848 9        50.000    20365213.957 9  83392169.30549
        55.000    20365213.11349  20365209.238 7  79917509.167 7        42.200
  23623534.594 7 124142510.335 7        42.100                    96734443.99947
        28.700    23623535.41847
  21780331.000 9 114456428.886 9        49.000    21780336.508 9  89186858.45249
        53.000    21780336.60949  21780332.086 6  85470707.615 6        39.400
  21160748.695 9 111200514.984 9        49.100    21160755.117 9  86649775.81549
        55.200    21160754.66049  21160751.016 7  83039406.903 7        41.100
  24259038.555 1 127482121.35811        30.700

 21  1  4  1 26 30.0000000  0 12G01G32G21G23G16G28G14G08G22G10G27G20
  22325916.930 7 117323500.450 7        42.900    22325923.996 7  91420951.14749
        42.700    22325923.65249  22325919.066 5  87611731.973 5        35.800
  23079782.594 7 121285077.757 7        44.500    23079789.133 8  94507919.98649
        43.900    23079787.99249  23079783.887 3  90569989.772 3        33.500
  21484056.680 9 112899502.911 9        49.200                    87973658.10649
        41.100    21484059.19949
  24196451.125 6 127153222.185 6        38.400    24196454.949 6  99080452.11946
        22.300    24196454.94146  24196455.938 3  94952114.712 3        32.500
  25230340.719 5 132586313.099 5        36.200                   103314040.48845
        17.800    25230343.45345
  25151006.570 5 132169428.369 5        36.000                   102989170.35545
        17.800    25151009.28945
  24337433.648 6 127894068.763 6        39.700    24337437.395 7  99657730.01646
        22.900    24337438.40246  24337437.453 3  95505339.445 3        32.200
  20363405.461 9 107010431.002 9        50.500    20363412.258 9  83384790.20749
        55.800    20363411.22349  20363407.238 7  79910437.516 7        42.200
  23604176.430 7 124040791.441 7        41.100                    96655182.55247
        27.800    23604178.83247
  21792780.539 9 114521851.881 9        49.900    21792786.570 9  89237837.40549
        53.000    21792786.24649  21792781.621 6  85519562.428 6        38.800
  21173535.063 9 111267706.130 9        49.700    21173541.113 9  86702132.54749
        54.900    21173540.50049  21173537.066 6  83089582.091 6        40.800
  24278621.148 1 127585027.69811        30.300

 21  1  4  1 27  0.0000000  0 12G01G32G21G23G16G28G14G08G22G10G27G20
  22309915.977 7 117239417.489 7        43.400    22309923.586 8  91355432.01649
        43.600    22309923.62149  22309918.910 5  87548942.776 5        35.800
  23066831.320 7 121217019.686 7        44.900    23066837.922 7  94454887.73549
        44.200    23066837.21549  23066833.121 3  90519167.221 3        33.300
  21476767.477 9 112861197.585 9        49.300                    87943809.80849
        41.200    21476769.83249
  24216238.258 6 127257210.780 6        38.000    24216243.305 6  99161482.19546
        21.300    24216242.48446  24216244.008 2  95029768.513 2        31.600
  25251924.289 4 132699737.466 4        34.600                   103402423.05645
        17.400    25251927.89845
  25136028.813 5 132090715.606 5        37.200                   102927835.72445
        17.400    25136030.90245
  24323564.867 6 127821194.409 6        38.200    24323569.969 6  99600944.79646
        20.400    24323569.98846  24323571.273 2  95450920.356 2        31.700
  20361697.188 9 107001455.019 9        50.100    20361704.164 9  83377795.92349
        55.800    20361703.04349  20361699.043 7  79903734.671 7        42.300
  23584859.578 7 123939276.737 7        41.600                    96576080.21547
        29.200    23584861.24647
  21805303.094 9 114587657.910 9        49.800    21805309.059 9  89289114.83049
        53.000    21805308.98049  21805303.477 6  85568703.322 6        39.400
  21186397.375 9 111335299.088 9        50.500    21186403.715 9  86754802.37949
        55.200    21186403.08649  21186399.527 7  83140057.357 7        41.100
  24298222.836 2 127688039.82612        31.300

 21  1  4  1 27 30.0000000  0 12G01G32G21G23G16G28G14G08G22G10G27G20
  22293953.148 7 117155528.922 7        43.900    22293959.992 7  91290064.31349
        44.100    22293959.64149  22293956.063 5  87486298.700 5        37.200
  23053951.430 8 121149336.969 8        45.300    23053958.402 7  94402147.96549
        44.400    23053957.57049  23053953.699 3  90468624.880 3        33.600
  21469519.164 9 112823107.109 9        48.600                    87914128.92349
        41.000    21469521.16849
  24236053.094 6 127361333.541 6        38.100    24236058.293 7  99242616.82446
        22.800    24236056.81646  24236056.563 1  95107522.531 1        28.600
  25273498.242 5 132813106.40215        36.900                   103490762.50255
        16.900    25273500.62145
  25121106.016 6 132012297.280 6        38.100                   102866730.53545
        16.900    25121108.94545
  24309778.641 5 127748745.863 5        35.500    24309783.063 6  99544491.39146
        21.100    24309783.34446  24309782.980 1  95396819.14011        29.600
  20360083.039 9 106992972.892 9        51.000    20360089.832 9  83371186.47049
        55.400    20360088.83649  20360084.879 7  79897400.602 7        42.600
  23565581.180 7 123837967.929 7        41.900                    96497138.29447
        28.200    23565583.04747
  21817897.820 9 114653844.434 9        49.900    21817903.660 9  89340688.73649
        52.600    21817903.59449  21817898.625 6  85618128.329 6        38.700
  21199336.008 9 111403292.423 9        50.800    21199342.563 9  86807784.19149
        55.200    21199341.82449  21199338.074 6  83190831.581 6        40.500
  24317845.945 3 127791156.13013        32.800

 21  1  4  1 28  0.0000000  0 12G01G32G21G23G16G28G14G08G22G10G27G20
  22278026.258 7 117071835.214 7        43.200    22278033.352 7  91224848.47749
        43.300    22278032.94149  22278029.418 5  87423800.220 5        36.700
  23041143.992 7 121082032.069 7        44.500    23041150.617 7  94349702.59749
        43.900    23041149.88749  23041146.281 3  90418364.768 3        33.600
  21462312.188 9 112785232.028 9        49.100                    87884615.87749
        41.200    21462313.96549
  24255891.750 5 127465587.929 5        37.700    24255896.781 7  99323853.95746
        22.600    24255896.56346  24255896.555 1  95185374.81911        29.200
  25295059.977 4 132926417.013 4        34.900                   103579056.57345
        16.900    25295063.40245
  25106239.922 5 131934175.283 5        36.700                   102805856.25545
        16.900    25106242.02745
  24296074.367 6 127676725.121 6        39.100    24296077.672 6  99488371.34846
        20.900    24296076.95746  24296078.086 1  95343037.45011        30.100
  20358562.719 9 106984985.568 9        50.200    20358570.172 9  83364962.58149
        55.900    20358568.96149  20358565.332 7  79891436.037 7        42.500
  23546342.477 7 123736866.262 7        42.200                    96418357.79947
        29.800    23546344.08247
  21830564.508 9 114720409.097 9        48.500    21830570.367 9  89392557.31249
        52.700    21830570.22349  21830565.758 6  85667835.702 6        39.000
  21212350.711 9 111471684.808 9        49.100    21212357.176 9  86861076.95649
        55.100    21212356.53549  21212352.566 6  83241903.820 6        40.600
  24337488.602 3 127894373.868 3        33.400                    99657960.40655
        15.600    24337491.18445
 21  1  4  1 28 30.0000000  0 12G01G32G21G23G16G28G14G08G22G10G27G20
  22262137.352 7 116988338.115 7        42.200    22262144.426 7  91159785.83649
        43.000    22262143.53549  22262139.754 5  87361448.568 5        35.400
  23028409.156 7 121015108.628 7        44.300    23028415.309 7  94297554.47249
        44.100    23028414.58249  23028410.777 3  90368389.49713        33.600
  21455145.430 9 112747573.069 9        49.000                    87855271.23749
        41.000    21455147.99249
  24275754.930 5 127569972.565 5        37.500    24275760.551 7  99405192.59546
        21.800    24275760.27746  24275760.559 1  95263324.41411        28.900
  25316611.008 5 133039668.01815        36.600                   103667304.02455
        18.600    25316614.66845
  25091430.102 5 131856353.258 5        36.300                   102745215.65545
        16.900    25091433.20345
  24282450.305 5 127605135.469 5        37.100    24282454.785 6  99432587.20746
        21.100    24282454.50846  24282455.902 1  95289577.603 1        30.900
  20357137.805 9 106977495.109 9        49.900    20357144.730 9  83359125.85149
        55.800    20357143.53949  20357139.750 7  79885842.517 7        43.100
  23527143.500 7 123635974.725 7        42.200                    96339741.02947
        29.900    23527144.96147
  21843303.445 9 114787350.612 9        48.400    21843309.176 9  89444719.53249
        52.700    21843308.91049  21843304.191 6  85717824.481 6        38.800
  21225441.125 9 111540476.073 9        48.500    21225447.523 9  86914680.52549
        54.900    21225447.30549  21225443.340 6  83293273.893 6        40.500
  24357149.383 3 127997692.241 3        32.500                    99738468.01455
        15.600    24357151.74645
 21  1  4  1 29  0.0000000  0 12G01G32G21G23G16G28G14G08G22G10G27G20
  22246285.773 7 116905037.708 7        43.500    22246292.887 7  91094876.45349
        44.000    22246292.36349  22246288.410 5  87299243.750 5        36.300
  23015747.070 7 120948568.540 7        44.500    23015753.559 8  94245705.07549
        44.200    23015752.56649  23015748.633 3  90318700.460 3        33.400
  21448019.961 9 112710129.743 9        49.300                    87826094.61949
        40.900    21448022.75849
  24295643.539 5 127674484.643 5        37.700    24295647.301 5  99486630.55145
        19.000    24295647.56645  24295648.309 1  95341369.092 1        30.000
  25338150.570 5 133152855.632 5        36.400                   103755502.21645
        19.300    25338152.88345
  25076680.180 6 131778832.461 6        38.700                   102684809.85945
        16.900    25076681.43445
  24268909.852 6 127533978.469 6        38.200    24268913.727 6  99377140.19445
        19.600    24268912.12545  24268915.012 2  95236440.946 2        31.500
  20355806.570 9 106970501.276 9        50.600    20355813.969 9  83353676.10549
        56.600    20355812.74249  20355809.098 7  79880619.824 7        42.600
  23507984.750 7 123535294.160 7        41.900                    96261288.64447
        28.700    23507985.57047
  21856112.734 9 114854666.118 9        48.500    21856118.781 9  89497173.16149
        52.600    21856118.65649  21856114.391 6  85768092.559 6        38.800
  21238607.297 9 111609664.409 9        48.800    21238613.879 9  86968593.50249
        55.000    21238613.21949  21238609.691 6  83344940.503 6        40.900
  24376828.695 3 128101108.567 3        32.600                    99819052.34454
        14.800    24376831.10544
 21  1  4  1 29 30.0000000  0 12G01G32G21G23G16G28G14G08G22G10G27G20
  22230471.836 7 116821935.013 7        43.000    22230478.801 7  91030121.14049
        43.600    22230478.57849  22230474.465 5  87237186.590 5        37.000
  23003157.773 7 120882414.719 7        44.700    23003164.535 8  94194156.64749
        44.700    23003164.16449  23003159.691 3  90269299.874 3        32.900
  21440935.781 9 112672901.705 9        48.300                    87797085.76649
        40.800    21440938.28949
  24315555.789 6 127779122.042 6        38.000    24315558.984 5  99568166.25745
        18.600    24315558.56345  24315560.258 1  95419507.38311        29.300
  25359676.664 4 133265978.082 4        34.800                   103843649.61045
        17.400    25359679.27745
  25061984.625 5 131701615.009 5        36.100                   102624640.32845
        16.900    25061987.75845
  24255451.234 6 127463256.667 6        38.000    24255456.879 6  99322032.31146
        20.400    24255454.97346  24255456.563 1  95183629.182 1        30.200
  20354570.625 9 106964005.378 9        50.300    20354577.512 9  83348614.36349
        56.100    20354576.73849  20354572.828 7  79875769.030 7        42.600
  23488866.117 7 123434826.243 7        41.900                    96183001.99147
        29.400    23488868.18447
  21868993.625 9 114922353.680 9        49.200    21868999.730 9  89549916.72849
        52.500    21868999.33649  21868994.270 6  85818638.461 6        38.900
  21251848.844 9 111679248.862 9        50.300    21251855.281 9  87022815.15049
        54.800    21251854.41849  21251851.102 6  83396902.921 6        40.700
  24396527.719 2 128204621.10612        31.600

 21  1  4  1 30  0.0000000  0 12G01G32G21G23G16G28G14G08G22G10G27G20
  22214695.672 7 116739030.617 7        43.500    22214702.563 7  90965520.33749
        43.700    22214702.47749  22214698.207 5  87175277.482 5        36.900
  22990643.758 7 120816649.622 7        44.700    22990649.734 7  94142911.13049
        44.200    22990648.98849  22990645.070 3  90220189.601 3        33.600
  21433892.664 9 112635888.867 9        49.200                    87768244.59149
        41.300    21433895.30949
  24335490.109 6 127883882.380 6        38.300    24335495.094 6  99649797.69446
        20.100    24335494.25846  24335494.680 1  95497737.55611        28.500
  25381189.117 5 133379032.36715        35.000                   103931743.80155
        17.400    25381192.95745
  25047348.766 5 131624702.928 5        36.200                   102564708.85345
        17.400    25047352.76645
  24242076.914 6 127392972.086 6        38.400    24242081.734 6  99267265.14746
        20.100    24242079.64146  24242080.785 1  95131143.995 1        29.800
  20353429.461 9 106958008.047 9        50.200    20353436.422 9  83343941.10549
        55.600    20353435.46149  20353431.578 7  79871290.466 7        42.800
  23469788.141 7 123334572.670 7        41.400                    96104882.32947
        28.400    23469789.52347
  21881944.383 9 114990410.907 9        49.200    21881950.340 9  89602948.33149
        52.300    21881950.25849  21881945.324 6  85869460.421 6        39.100
  21265165.359 9 111749228.123 9        49.700    21265172.117 9  87077344.44249
        54.600    21265170.97349  21265167.613 6  83449160.169 6        40.400
  24416242.734 5 128308227.801 5        35.400

 21  1  4  1 30 30.0000000  0 12G01G32G21G23G16G28G14G08G22G10G27G20
  22198957.328 7 116656325.085 7        43.500    22198964.711 8  90901074.47649
        44.200    22198964.23049  22198960.047 5  87113516.880 5        36.200
  22978202.852 7 120751275.601 7        44.100    22978209.941 8  94091970.34449
        44.100    22978208.75049  22978205.102 3  90171371.372 3        33.700
  21426890.234 9 112599091.648 9        48.300                    87739571.44849
        41.500    21426892.94549
  24355448.594 5 127988763.224 5        37.500    24355453.566 6  99731523.02045
        19.600    24355453.31645
  25402690.484 5 133492016.44015        36.200                   104019783.34655
        19.300    25402693.50045
  25032771.766 6 131548098.445 6        38.400                   102505017.04245
        19.300    25032774.83245
  24228786.406 6 127323126.850 6        38.800    24228790.949 6  99212840.29746
        22.200    24228789.96146  24228790.645 1  95078986.82911        30.400
  20352383.430 9 106952509.952 9        50.000    20352390.199 9  83339656.87849
        55.000    20352389.13349  20352385.273 7  79867184.740 7        42.600
  23450752.078 7 123234534.650 7        42.300                    96026930.64347
        29.900    23450753.07047
  21894965.133 9 115058835.373 9        48.600    21894971.129 9  89656266.08749
        52.400    21894970.85949  21894965.805 6  85920556.620 6        38.500
  21278556.773 9 111819600.819 9        48.600    21278563.383 9  87132180.30149
        54.600    21278562.65649  21278558.902 6  83501711.189 6        40.400
  24435975.180 3 128411926.131 3        33.000                   100061237.74755
        15.600    24435976.97345
 21  1  4  1 31  0.0000000  0 12G01G32G21G23G16G28G14G08G22G10G27G20
  22183256.977 7 116573820.017 7        42.800    22183264.395 8  90836784.83149
        44.400    22183264.36349  22183260.035 5  87051905.949 5        36.500
  22965838.305 7 120686296.144 7        44.600    22965844.461 7  94041337.01849
        44.100    22965843.41449  22965839.652 4  90122847.742 4        34.600
  21419929.117 9 112562510.610 9        48.400                    87711066.75449
        40.900    21419931.71949
  24375429.719 5 128093763.157 5        37.700    24375434.367 6  99813341.11745
        19.900    24375434.18445
  25424175.297 3 133604928.312 3        32.400                   104107766.64345
        17.400    25424180.13745
  25018253.945 5 131471804.364 5        37.100                   102445567.10145
        17.800    25018257.20345
  24215580.602 6 127253723.985 6        38.400    24215583.359 6  99158760.19546
        21.700    24215582.40646  24215582.777 1  95027160.029 1        30.100
  20351432.320 9 106947512.899 9        49.900    20351439.266 9  83335763.05349
        55.600    20351438.24249  20351434.590 7  79863453.174 7        41.800
  23431756.828 7 123134715.134 7        42.700                    95949149.19948
        30.600    23431758.13348
  21908055.445 9 115127625.766 9        49.400    21908061.125 8  89709868.99649
        51.900    21908060.78549  21908056.184 6  85971926.051 6        38.800
  21292023.508 9 111890366.623 9        50.000    21292029.555 9  87187322.47449
        54.700    21292028.94549  21292025.164 6  83554555.761 6        40.500
  24455726.180 4 128515715.073 4        34.300                   100142112.12543
        13.900    24455728.41043
 21  1  4  1 31 30.0000000  0 12G01G32G21G23G16G28G14G08G22G10G27G20
  22167594.688 7 116491516.167 7        42.300    22167602.363 7  90772651.99349
        43.500    22167601.82449  22167597.938 5  86990445.322 5        36.800
  22953548.273 7 120621713.849 7        44.000    22953555.227 7  93991013.16349
        44.400    22953553.96949  22953550.246 3  90074620.698 3        33.900
  21413008.969 9 112526145.783 9        49.000                    87682730.52749
        41.600    21413011.62149
  24395432.969 6 128198879.947 6        38.800    24395436.629 5  99895250.28345
        19.300    24395436.24245
  25445648.930 5 133717766.03615        35.400                   104195692.02655
        15.600    25445651.48845
  25003794.664 5 131395822.949 5        37.500                   102386360.77745
        17.400    25003798.16045
  24202456.391 6 127184765.751 6        38.300    24202460.738 6  99105026.47446
        21.500    24202460.71946  24202461.797 1  94975665.24311        30.700
  20350576.742 9 106943017.471 9        49.800    20350583.887 9  83332260.12449
        55.500    20350582.82849  20350579.105 7  79860096.191 7        42.900
  23412803.250 7 123035115.535 7        42.300                    95871539.14048
        31.600    23412805.18848
  21921215.227 9 115196779.850 9        48.200    21921220.770 9  89763755.30049
        52.100    21921220.61749  21921215.910 6  86023567.075 6        38.800
  21305564.367 9 111961524.259 9        48.900    21305570.391 9  87242769.99049
        54.700    21305569.87949  21305566.152 6  83607692.960 6        40.700
  24475492.711 3 128619592.563 3        32.200                   100223055.76043
        13.900    24475495.37543
 21  1  4  1 32  0.0000000  0 12G01G32G21G23G16G28G14G08G22G10G27G20
  22151971.695 7 116409413.764 7        43.600    22151978.578 7  90708676.11549
        43.900    22151978.05949  22151974.383 5  86929135.113 5        37.000
  22941335.016 8 120557530.672 8        45.200    22941341.289 7  93941000.29849
        44.900    22941340.60249  22941336.629 3  90026691.705 3        33.800
  21406130.250 9 112489996.844 9        48.500                    87654562.52649
        41.400    21406133.04349
  24415457.945 6 128304110.798 6        38.200    24415461.746 5  99977248.39545
        19.300    24415460.78145
  25467105.625 5 133830525.356 5        37.100                   104283556.58645
        17.800    25467108.85945
  24989395.789 5 131320155.948 5        36.600                   102327399.44645
        16.900    24989398.41445
  24189418.914 5 127116253.691 5        35.800    24189423.723 6  99051640.48046
        20.400    24189423.83246  24189424.875 1  94924503.69911        30.800
  20349816.977 9 106939023.881 9        50.000    20349824.070 9  83329148.23249
        55.700    20349822.99649  20349819.125 7  79857113.949 7        42.500
  23393892.516 7 122935736.744 7        42.100                    95794101.14947
        29.800    23393893.84047
  21934443.117 9 115266294.799 9        48.700    21934449.332 9  89817922.78649
        52.100    21934449.17649  21934444.164 6  86075477.601 6        38.900
  21319179.219 9 112033072.033 9        50.200    21319185.578 9  87298521.49649
        54.600    21319184.97349  21319181.617 6  83661121.491 6        40.600
  24495275.773 2 128723556.752 2        31.900                   100304066.73543
        13.900    24495278.44543
 21  1  4  1 32 30.0000000  0 12G01G32G21G23G16G28G14G08G22G10G27G20
  22136386.398 7 116327513.779 7        44.600    22136393.508 8  90644857.95849
        44.700    22136393.25849  22136389.000 5  86867976.074 5        37.000
  22929197.258 7 120493749.379 7        44.500    22929204.129 8  93891300.60449
        44.600    22929203.17249  22929199.609 3  89979062.876 3        33.800
  21399292.305 9 112454063.928 9        49.100                    87626562.86349
        41.600    21399295.03549
  24435504.680 5 128409453.688 5        36.900    24435508.488 6 100059333.73445
        19.900    24435507.23445
  25488545.344 1 133943205.16811        25.300                   104371359.00555
        15.600    25488551.99245
  24975056.328 5 131244805.529 5        36.300                   102268684.88545
        16.900    24975059.99245
  24176467.164 5 127048190.262 5        37.200    24176472.133 7  98998604.08346
        22.300    24176471.58246  24176472.754 2  94873677.12112        31.700
  20349152.758 9 106935532.924 9        49.600    20349159.594 9  83326427.99349
        55.700    20349158.67649  20349154.637 7  79854507.067 7        42.300
  23375023.133 7 122836580.746 7        42.100                    95716836.77148
        30.500    23375025.34048
  21947740.133 9 115336168.563 9        49.900    21947745.836 9  89872369.86949
        52.300    21947745.69949  21947740.789 6  86127656.050 6        39.000
  21332868.156 9 112105008.862 9        50.300    21332874.582 9  87354576.15549
        54.500    21332874.22749  21332870.563 6  83714840.534 6        40.600
  24515076.086 3 128827605.285 3        33.100                   100385143.59845
        15.600    24515078.28545
