     2.11           OBSERVATION DATA    G (GPS)             RINEX VERSION / TYPE
teqc  2016Nov7                          20170410 00:12:33UTCPGM / RUN BY / DATE
ZIMM                                                        MARKER NAME
14001M004                                                   MARKER NUMBER
TRIMBLE NETR9       SWISSTOPO                               OBSERVER / AGENCY
5429R49141          TRIMBLE NETR9       5.10                REC # / TYPE / VERS
99390               TRM29659.00     NONE                    ANT # / TYPE
  4331297.3480   567555.6400  4633133.7280                  APPROX POSITION XYZ
        0.0000        0.0000        0.0000                  ANTENNA: DELTA H/E/N
     1     1                                                WAVELENGTH FACT L1/2
    10    C1    L1    S1    C2    L2    S2    P2    C5    L5# / TYPES OF OBSERV
          S5                                                # / TYPES OF OBSERV
    30.0000                                                 INTERVAL
Linux 2.4.21-27.ELsmp|Opteron|gcc -static|Linux x86_64|=+   COMMENT
     2.11           OBSERVATION DATA    M (MIXED)           COMMENT
NetR9 5.10          Receiver Operator   09-APR-17 00:00:00  COMMENT
L2C CARRIER PHASE MEASUREMENTS: PHASE SHIFTS REMOVED        COMMENT
L2C PHASE MATCHES L2 P PHASE                                COMMENT
GLONASS C/A & P PHASE MATCH: PHASE SHIFTS REMOVED           COMMENT
GIOVE-A if present is mapped to satellite ID 51             COMMENT
GIOVE-B if present is mapped to satellite ID 52             COMMENT
Forced Modulo Decimation to 30 seconds                      COMMENT
teqc edited: all GLONASS satellites excluded                COMMENT
teqc edited: all Galileo satellites excluded                COMMENT
  2017     4     9     0     0    0.0000000     GPS         TIME OF FIRST OBS
                                                            END OF HEADER
 17  4  9  0  0  0.0000000  0 10G01G32G08G28G14G03G22G11G27G10
  20954613.438 9 110117237.061 9        53.800    20954620.574 9  85805680.13949
        45.200    20954620.30549  20954616.465 6  82230438.132 6        40.900
  22167465.383 8 116490844.805 8        47.500    22167472.035 8  90772115.99249
        39.800    22167471.49249  22167468.129 5  86989934.047 5        37.800
  21037163.711 9 110551076.190 9        52.500    21037171.055 9  86143744.28349
        46.800    21037169.96149  21037166.863 6  82554413.680 6        40.800
  23493981.305 7 123461711.344 7        43.300                    96203946.87047
        26.700    23493984.37147
  22226053.398 8 116798709.825 8        47.600                    91012001.56949
        35.300    22226057.94149
  23097997.219 8 121380805.537 8        46.900    23098004.242 7  94582472.20049
        34.000    23098003.53549  23098001.383 4  90641520.659 4        34.600
  21288272.641 9 111870635.976 9        50.000                    87171933.60349
        42.500    21288274.38349
  20185453.797 9 106075226.944 9        49.900                    82656094.34349
        45.300    20185456.86749
  23401088.586 8 122973603.513 8        45.400    23401095.156 8  95823635.73248
        33.200    23401095.00448  23401092.453 4  91830973.314 4        34.500
  23566395.195 7 123842285.284 7        42.700    23566400.156 7  96500523.18048
        30.500    23566399.84448  23566395.746 3  92479653.024 3        33.100
 17  4  9  0  0 30.0000000  0 10G01G32G08G28G14G03G22G11G27G10
  20944671.445 9 110064991.667 9        53.300    20944678.395 9  85764969.46049
        45.300    20944678.10549  20944674.203 6  82191423.723 6        40.900
  22168264.977 8 116495047.691 8        47.500    22168272.000 8  90775390.97449
        39.500    22168271.15249  22168267.965 5  86993072.570 5        37.400
  21048900.563 9 110612753.268 9        52.400    21048907.941 9  86191804.33249
        46.700    21048906.81649  21048903.781 6  82600471.233 6        40.800
  23491939.930 7 123450981.471 7        43.900                    96195585.93947
        28.600    23491942.94947
  22217948.313 8 116756115.475 8        47.900                    90978811.19449
        36.300    22217952.25449
  23079692.289 8 121284612.918 8        46.400    23079699.305 7  94507516.93349
        34.200    23079698.44949  23079696.293 3  90569688.531 3        33.500
  21276962.406 9 111811198.893 9        49.500                    87125619.00049
        42.200    21276963.57449
  20179593.695 9 106044434.995 9        49.600                    82632100.62549
        45.000    20179597.14849
  23421603.703 8 123081410.842 8        45.200    23421610.914 8  95907641.41548
        33.000    23421610.62948  23421607.027 3  91911478.780 3        33.500
  23584833.688 7 123939184.250 7        42.000    23584839.465 7  96576028.85647
        29.700    23584839.23447  23584834.375 2  92552012.637 2        31.900
 17  4  9  0  1  0.0000000  0 10G01G32G08G28G14G03G22G11G27G10
  20934783.797 9 110013032.038 9        53.400    20934791.148 9  85724481.42749
        45.300    20934790.98449  20934786.910 7  82152622.699 7        41.300
  22169180.344 9 116499855.036 9        48.000    22169186.457 8  90779136.96449
        39.400    22169185.59049  22169181.988 5  86996662.475 5        37.200
  21060727.258 9 110674902.419 9        52.200    21060734.121 9  86240232.23949
        46.600    21060733.18449  21060730.027 6  82646881.302 6        40.700
  23489997.703 7 123440777.409 7        42.400                    96187634.71747
        26.800    23490000.46947
  22209938.742 8 116714024.036 8        47.800                    90946012.68749
        36.100    22209942.59049
  23061430.945 8 121188649.869 8        46.400    23061438.230 8  94432740.54849
        34.700    23061437.55549  23061435.578 4  90498027.828 4        34.500
  21265720.203 9 111752122.820 9        49.400                    87079585.69949
        42.600    21265721.60549
  20173825.133 9 106014119.033 9        49.600                    82608477.79349
        45.200    20173827.94949
  23442153.156 8 123189399.421 8        45.000    23442159.648 8  95991788.35048
        33.500    23442159.19548  23442155.883 3  91992119.608 3        33.700
  23603296.609 7 124036209.260 7        41.700    23603302.723 7  96651632.75147
        29.600    23603302.09447  23603297.875 3  92624466.380 3        32.400
 17  4  9  0  1 30.0000000  0 10G01G32G08G28G14G03G22G11G27G10
  20924950.930 9 109961359.234 9        52.100    20924958.348 9  85684216.90849
        45.300    20924957.69949  20924953.918 7  82114035.869 7        41.300
  22170210.094 8 116505266.978 8        47.600    22170216.797 8  90783354.07849
        39.200    22170216.04749  22170212.273 5  87000703.877 5        37.100
  21072643.516 9 110737522.281 9        52.200    21072650.637 9  86289026.91849
        46.400    21072649.66849  21072646.570 6  82693642.873 6        40.500
  23488156.453 7 123431099.361 7        43.700                    96180093.38047
        28.300    23488159.12547
  22202024.805 8 116672437.155 8        47.400                    90913607.33749
        36.300    22202028.47749
  23043213.945 8 121092917.948 8        47.000    23043221.773 8  94358144.26349
        35.300    23043221.02049  23043218.691 4  90426539.735 4        34.700
  21254547.484 9 111693409.037 9        49.700                    87033834.70149
        42.100    21254548.91849
  20168147.289 9 105984280.757 9        49.900                    82585227.18749
        44.900    20168150.13349
  23462736.852 7 123297567.328 7        44.600    23462743.594 7  96076075.03448
        31.900    23462742.64148  23462740.441 3  92072894.336 3        33.900
  23621783.289 7 124133358.301 7        42.000    23621789.258 7  96727333.30547
        29.900    23621789.20347  23621785.102 3  92697012.739 3        32.100
 17  4  9  0  2  0.0000000  0 10G01G32G08G28G14G03G22G11G27G10
  20915172.625 9 109909973.944 9        53.600    20915179.645 9  85644176.42149
        45.500    20915179.35949  20915175.578 6  82075663.741 6        40.800
  22171354.766 9 116511283.182 9        48.300    22171361.586 9  90788042.03149
        39.500    22171360.81349  22171357.332 5  87005196.503 5        37.200
  21084648.836 9 110800611.304 9        52.300    21084656.199 9  86338187.19049
        46.400    21084655.26249  21084652.281 6  82740754.798 6        40.900
  23486414.844 7 123421947.202 7        43.700                    96172961.81447
        28.000    23486417.83647
  22194207.383 9 116631356.799 9        48.900                    90881596.68549
        36.300    22194211.39549
  23025040.563 8 120997418.262 8        47.600    23025047.930 8  94283728.93849
        34.900    23025047.02749  23025045.223 4  90355225.057 4        34.700
  21243443.469 9 111635057.700 9        49.300                    86988366.13349
        42.200    21243444.86349
  20162560.031 9 105954921.247 9        49.500                    82562349.64849
        44.700    20162562.85949
  23483353.750 7 123405912.244 7        43.100    23483361.148 7  96160499.64048
        31.400    23483360.21948  23483357.551 3  92153801.245 3        33.300
  23640293.344 7 124230629.370 7        42.400    23640300.105 7  96803128.92947
        29.700    23640299.94147  23640295.840 3  92769650.220 3        33.000
 17  4  9  0  2 30.0000000  0 10G01G32G08G28G14G03G22G11G27G10
  20905449.406 9 109858877.437 9        53.400    20905456.238 9  85604360.96549
        45.800    20905456.05549  20905452.215 6  82037507.266 6        40.800
  22172614.828 9 116517903.863 9        48.100    22172621.332 9  90793201.02449
        39.700    22172620.54749  22172616.715 5  87010140.542 5        37.200
  21096743.258 9 110864168.181 9        52.300    21096750.918 9  86387712.01849
        46.500    21096749.84849  21096746.691 7  82788216.089 7        41.100
  23484773.180 7 123413320.779 7        43.600                    96166239.93447
        27.600    23484776.22347
  22186486.742 8 116590784.697 8        47.800                    90849982.08249
        36.300    22186490.71949
  23006912.453 8 120902152.444 8        47.000    23006919.156 7  94209495.85449
        34.600    23006918.47349  23006916.258 4  90284085.015 4        34.400
  21232409.000 9 111577069.667 9        49.300                    86943180.65949
        42.300    21232409.99649
  20157064.563 9 105926042.227 9        49.500                    82539846.51449
        44.500    20157067.67649
  23504004.750 7 123514432.425 7        44.000    23504011.891 7  96245060.81548
        31.900    23504011.31348  23504007.766 3  92234839.038 3        32.700
  23658826.719 7 124328021.029 7        42.200    23658832.395 7  96879018.54148
        30.000    23658832.04748  23658828.008 3  92842377.751 3        32.700
 17  4  9  0  3  0.0000000  0 10G01G32G08G28G14G03G22G11G27G10
  20895780.969 9 109808070.449 9        52.900    20895787.961 9  85564771.10949
        46.000    20895787.77349  20895783.813 7  81999566.988 7        41.100
  22173989.555 8 116525128.731 8        47.500    22173996.168 9  90798830.81049
        39.200    22173995.75849  22173991.863 5  87015535.752 5        37.300
  21108926.398 9 110928191.662 9        52.100    21108933.910 9  86437600.43249
        46.200    21108932.68849  21108929.883 7  82836025.812 7        41.100
  23483231.148 7 123405220.726 7        43.100                    96159928.19147
        28.200    23483234.77347
  22178863.000 8 116550722.314 8        47.900                    90818764.65049
        37.000    22178866.46549
  22988828.516 8 120807121.660 8        46.300    22988835.422 8  94135445.90349
        35.100    22988834.59449  22988832.438 4  90213120.492 4        34.300
  21221442.938 9 111519445.486 9        49.200                    86898278.71249
        42.700    21221444.38349
  20151660.742 9 105897644.820 9        49.300                    82517718.66449
        44.700    20151663.86349
  23524688.563 7 123623125.641 7        44.100    23524694.914 7  96329756.81248
        31.200    23524694.03948  23524691.844 3  92316006.050 3        33.700
  23677382.477 7 124425531.184 7        42.000    23677388.160 7  96955000.48847
        29.600    23677387.66847  23677383.980 3  92915193.774 3        32.600
 17  4  9  0  3 30.0000000  0 10G01G32G08G28G14G03G22G11G27G10
  20886168.125 9 109757553.745 9        53.200    20886175.016 9  85525407.45549
        45.800    20886174.68849  20886170.844 7  81961843.481 7        41.600
  22175479.422 8 116532957.486 8        47.800    22175486.203 9  90804931.14049
        39.200    22175485.60249  22175482.297 5  87021381.914 5        37.300
  21121198.203 9 110992679.927 9        52.200    21121205.625 9  86487851.01949
        46.200    21121204.34849  21121201.605 6  82884182.627 6        40.600
  23481791.039 7 123397646.715 7        43.800                    96154026.37347
        29.100    23481793.53947
  22171337.148 9 116511171.140 9        48.100                    90787945.57749
        36.600    22171340.42249
  22970789.727 8 120712327.118 8        47.200    22970797.148 8  94061580.04549
        35.100    22970796.70349  22970794.551 4  90142332.372 4        34.200
  21210546.961 9 111462185.179 9        49.500                    86853660.29549
        42.900    21210548.77349
  20146348.969 9 105869730.114 9        49.500                    82495966.94649
        44.700    20146351.67249
  23545404.945 7 123731989.620 7        44.100    23545411.313 7  96414585.90148
        32.200    23545411.15248  23545408.543 4  92397300.562 4        34.900
  23695959.773 7 124523157.918 7        41.800    23695965.969 7  97031073.27247
        29.600    23695965.86747  23695961.883 3  92988096.862 3        32.400
 17  4  9  0  4  0.0000000  0 10G01G32G08G28G14G03G22G11G27G10
  20876610.359 9 109707328.241 9        53.600    20876617.637 9  85486270.69149
        45.500    20876617.03949  20876613.137 7  81924337.422 7        41.000
  22177083.570 8 116541390.000 8        47.600    22177090.078 8  90811501.94949
        39.000    22177089.59449  22177086.406 5  87027678.933 5        36.900
  21133558.023 9 111057631.604 9        52.000    21133565.180 9  86538462.70649
        46.000    21133563.89849  21133560.977 6  82932685.496 6        40.800
  23480450.023 7 123390598.673 7        44.100                    96148534.38347
        28.100    23480452.80947
  22163907.930 8 116472132.899 8        47.800                    90757526.18649
        35.800    22163911.42649
  22952796.086 8 120617770.202 8        46.700    22952803.602 8  93987899.35349
        35.300    22952802.66049  22952800.328 4  90071721.718 4        34.400
  21199720.063 9 111405289.640 9        49.300                    86809326.11949
        42.200    21199721.33249
  20141129.164 9 105842299.192 9        49.600                    82474592.20149
        44.600    20141131.91449
  23566152.797 7 123841022.353 7        44.000    23566160.340 7  96499546.46048
        32.500    23566159.61348  23566156.125 4  92478721.104 4        34.000
  23714559.758 7 124620899.434 7        41.800    23714565.859 7  97107235.48748
        30.100    23714565.71948  23714561.676 3  93061085.646 3        32.800
 17  4  9  0  4 30.0000000  0 10G01G32G08G28G14G03G22G11G27G10
  20867108.367 9 109657394.988 9        53.400    20867115.797 9  85447361.66749
        45.600    20867115.15249  20867111.543 7  81887049.607 7        41.100
  22178803.531 8 116550426.114 8        47.600    22178809.914 8  90818543.09449
        39.400    22178808.81349  22178805.445 5  87034426.694 5        37.400
  21146005.906 9 111123045.167 9        51.900    21146013.332 9  86589434.30949
        45.700    21146012.20349  21146008.988 6  82981533.276 6        40.400
  23479208.086 7 123384076.702 7        42.800                    96143452.32347
        27.000    23479211.34847
  22156576.945 9 116433609.139 9        48.200                    90727507.70549
        35.800    22156580.64549
  22934847.898 8 120523452.249 8        47.200    22934855.199 7  93914404.85449
        35.000    22934854.49649  22934852.461 4  90001289.496 4        34.600
  21188962.867 9 111348760.112 9        49.500                    86765277.13749
        41.900    21188964.15649
  20136001.383 9 105815353.179 9        49.500                    82453595.31149
        44.500    20136004.09449
  23586932.508 7 123950221.846 7        43.700    23586939.293 7  96584636.97048
        30.300    23586939.16048  23586935.324 2  92560266.179 2        31.500
  23733180.836 7 124718753.971 7        41.100    23733186.316 7  97183485.76247
        26.900    23733186.51247  23733182.355 2  93134158.853 2        31.500
 17  4  9  0  5  0.0000000  0 10G01G32G08G28G14G03G22G11G27G10
  20857662.375 9 109607754.922 9        53.400    20857669.512 9  85408681.10749
        45.900    20857669.27749  20857665.145 7  81849980.735 7        41.000
  22180637.570 9 116560065.661 9        48.800    22180644.379 8  90826054.43849
        40.000    22180643.15249  22180639.375 5  87041625.076 5        37.000
  21158541.320 9 111188919.329 9        52.000    21158548.711 9  86640764.81649
        46.100    21158547.81349  21158544.539 6  83030725.018 6        40.400
  23478067.328 7 123378080.880 7        43.400                    96138780.24847
        28.500    23478069.88347
  22149344.852 8 116395601.378 8        47.600                    90697891.29249
        36.000    22149348.44149
  22916945.195 8 120429374.644 8        46.600    22916952.926 8  93841097.64949
        35.600    22916951.74649  22916949.590 5  89931036.763 5        35.200
  21178275.031 9 111292596.668 9        49.500                    86721513.42349
        42.400    21178276.40649
  20130966.258 9 105788894.170 9        49.800                    82432977.90749
        44.800    20130969.51249
  23607744.133 7 124059585.969 7        43.500    23607750.922 7  96669855.76648
        31.500    23607750.44148  23607747.309 3  92641934.210 3        32.800
  23751823.273 6 124816719.715 6        40.600    23751829.008 7  97259822.71547
        28.100    23751829.04747  23751824.652 2  93207315.094 2        31.700
 17  4  9  0  5 30.0000000  0 10G01G32G08G28G14G03G22G11G27G10
  20848272.109 9 109558409.000 9        53.200    20848278.766 9  85370229.73449
        46.200    20848278.63749  20848274.973 7  81813131.508 7        41.500
  22182586.828 9 116570308.436 9        48.000    22182593.109 8  90834035.83149
        39.500    22182592.52049  22182589.094 5  87049273.916 5        37.200
  21171164.141 9 111255252.568 9        52.200    21171171.789 9  86692453.04449
        46.000    21171170.55949  21171167.637 7  83080259.571 7        41.200
  23477026.633 7 123372610.942 7        44.500                    96134517.94947
        28.100    23477030.28947
  22142210.656 9 116358111.390 9        48.200                    90668678.35349
        36.300    22142214.55949
  22899089.289 8 120335538.718 8        46.400    22899096.184 8  93767978.75849
        35.500    22899095.66049  22899093.332 5  89860964.492 5        35.200
  21167657.828 9 111236799.928 9        50.000                    86678035.45149
        42.800    21167658.93849
  20126024.336 9 105762923.049 9        49.500                    82412740.66949
        45.100    20126026.89549
  23628586.297 7 124169112.765 7        43.900    23628593.188 7  96755201.33148
        30.900    23628592.71948  23628590.113 3  92723723.691 3        33.200
  23770486.055 7 124914794.970 7        41.200    23770492.332 7  97336244.97547
        26.500    23770492.49647  23770487.988 2  93280553.088 2        31.600
 17  4  9  0  6  0.0000000  0 10G01G32G08G28G14G03G22G11G27G10
  20838938.055 9 109509358.145 9        53.700    20838944.953 9  85332008.29749
        46.100    20838944.72749  20838940.766 7  81776502.626 7        41.300
  22184650.625 9 116581154.040 9        48.600    22184657.156 9  90842486.95849
        39.600    22184656.10949  22184652.801 5  87057372.909 5        36.600
  21183873.883 9 111322043.259 9        51.800    21183881.180 9  86744497.72749
        45.800    21183879.95749  21183877.215 6  83130135.719 6        40.700
  23476085.813 7 123367666.814 7        43.600                    96130665.37847
        28.700    23476089.51247
  22135175.055 9 116321140.438 9        48.200                    90639869.84249
        36.300    22135179.00849
  22881279.109 8 120241945.701 8        46.900    22881286.633 8  93695049.14349
        36.300    22881285.53149  22881283.258 5  89791073.621 5        35.000
  21157109.656 9 111181370.364 9        49.700                    86634843.59449
        43.000    21157110.98849
  20121175.000 9 105737440.907 9        49.300                    82392884.45149
        45.000    20121178.55949
  23649459.063 7 124278799.993 7        43.900    23649466.098 8  96840671.88548
        31.600    23649466.06348  23649462.398 3  92805632.983 3        33.100
  23789169.820 6 125012977.828 6        40.600    23789175.977 7  97412751.11147
        26.200    23789176.06647  23789172.023 2  93353871.448 2        31.600
 17  4  9  0  6 30.0000000  0 10G01G32G08G28G14G03G22G11G27G10
  20829660.219 9 109460603.129 9        53.800    20829667.336 9  85294017.38649
        46.200    20829667.00449  20829662.871 7  81740094.671 7        41.600
  22186829.398 9 116592602.185 9        48.700    22186835.625 9  90851407.61749
        39.600    22186834.59049  22186831.168 5  87065921.874 5        37.800
  21196670.594 9 111389289.975 9        51.900    21196677.965 9  86796897.75449
        45.900    21196676.77049  21196673.734 6  83180352.412 6        40.700
  23475245.070 7 123363248.345 7        42.700                    96127222.42147
        29.400    23475248.01647
  22128238.906 8 116284690.271 8        47.600                    90611467.14349
        36.300    22128242.46149
  22863515.188 8 120148596.903 8        46.700    22863522.563 8  93622309.83749
        36.200    22863522.03549  22863519.707 4  89721365.120 4        34.700
  21146631.656 9 111126308.641 9        49.600                    86591938.35849
        42.900    21146632.75849
  20116419.273 9 105712448.876 9        49.400                    82373410.14549
        45.400    20116422.57049
  23670361.609 7 124388645.599 7        42.600    23670368.621 7  96926265.85848
        31.300    23670368.45348  23670365.316 3  92887660.547 3        33.000
  23807873.211 6 125111266.469 6        40.200    23807879.063 7  97489339.64447
        26.200    23807879.39547  23807875.531 2  93427268.786 2        31.900
 17  4  9  0  7  0.0000000  0 10G01G32G08G28G14G03G22G11G27G10
  20820438.945 9 109412145.021 9        53.700    20820445.656 9  85256257.82549
        46.100    20820445.48449  20820441.586 7  81703908.427 7        41.700
  22189122.445 9 116604652.599 9        48.500    22189128.820 8  90860797.58049
        39.700    22189127.95749  22189124.535 5  87074920.596 5        37.400
  21209553.766 9 111456991.013 9        52.000    21209560.945 9  86849651.80449
        46.400    21209560.07449  21209556.449 6  83230908.371 6        40.200
  23474504.477 7 123359355.575 7        43.600                    96124189.07447
        29.300    23474506.91447
  22121402.148 8 116248762.293 8        47.000                    90583471.33649
        36.400    22121405.73449
  22845798.211 8 120055493.614 8        46.300    22845805.660 8  93549761.83249
        36.300    22845804.87149  22845803.008 4  89651839.958 4        34.000
  21136224.227 9 111071615.403 9        49.900                    86549320.25549
        43.100    21136225.31649
  20111756.969 9 105687948.310 9        49.600                    82354318.80349
        45.300    20111760.19149
  23691294.492 7 124498647.472 7        43.600    23691301.809 7  97011981.60848
        31.200    23691300.84448  23691298.645 3  92969804.795 3        33.700
  23826596.422 6 125209659.269 6        40.200    23826602.699 7  97566009.34447
        26.400    23826602.92247  23826599.172 1  93500743.928 1        30.500
 17  4  9  0  7 30.0000000  0 10G01G32G08G28G14G03G22G11G27G10
  20811274.406 9 109363984.613 9        52.300    20811281.508 9  85218730.24049
        46.200    20811281.12949  20811277.402 7  81667944.489 7        41.600
  22191529.984 9 116617304.830 9        48.700    22191536.867 8  90870656.47049
        39.400    22191535.93049  22191532.621 5  87084368.705 5        37.100
  21222523.016 9 111525144.709 9        51.800    21222530.559 9  86902758.56049
        45.700    21222529.60249  21222526.332 6  83281802.350 6        40.900
  23473863.492 7 123355988.289 7        42.000                    96121565.21047
        28.200    23473866.49247
  22114664.430 8 116213357.698 8        46.500                    90555883.34549
        35.900    22114668.48049
  22828128.703 8 119962637.017 8        47.000    22828135.266 8  93477406.05349
        36.600    22828134.50449  22828132.699 5  89582499.003 5        35.900
  21125886.586 9 111017290.787 9        50.300                    86506989.39649
        43.300    21125887.75049
  20107188.328 9 105663940.205 9        49.500                    82335611.18349
        45.500    20107191.28949
  23712256.477 7 124608803.464 7        44.300    23712264.008 8  97097817.43448
        31.700    23712263.35248  23712260.332 4  93052064.126 4        34.000
  23845339.445 6 125308154.217 6        40.800    23845345.789 7  97642758.64547
        27.400    23845345.78947  23845341.574 1  93574295.360 1        30.500
 17  4  9  0  8  0.0000000  0 10G01G32G08G28G14G03G22G11G27G10
  20802166.414 9 109316122.781 9        52.600    20802173.535 9  85181435.30049
        46.400    20802173.28149  20802169.203 7  81632203.516 7        41.600
  22194051.750 8 116630558.439 8        47.700    22194058.770 9  90880983.96849
        39.900    22194057.74649  22194054.559 5  87094265.881 5        37.600
  21235577.938 9 111593749.248 9        51.800    21235585.156 9  86956216.63249
        45.900    21235584.34449  21235581.363 6  83333032.997 6        40.200
  23473322.727 7 123353146.161 7        43.400                    96119350.58547
        28.800    23473324.93047
  22108027.398 8 116178478.273 8        46.100                    90528704.59149
        36.000    22108030.58649
  22810505.250 8 119870028.432 8        46.000    22810512.465 8  93405243.52949
        35.600    22810511.91049  22810509.520 4  89513343.249 4        34.400
  21115619.016 9 110963335.372 9        50.600                    86464946.22849
        43.200    21115620.20349
  20102713.656 9 105640425.684 9        49.300                    82317288.18449
        45.400    20102716.85949
  23733247.648 7 124719111.382 7        44.100    23733254.375 7  97183771.64948
        30.600    23733254.00048  23733250.453 3  93134436.925 3        32.900
  23864102.352 6 125406749.565 6        40.300    23864108.152 6  97719586.18547
        25.200    23864107.87547  23864104.363 2  93647921.737 2        31.500
 17  4  9  0  8 30.0000000  0 10G01G32G08G28G14G03G22G11G27G10
  20793115.711 9 109268560.693 9        52.600    20793122.609 9  85144373.93649
        46.600    20793122.48049  20793118.289 7  81596686.368 7        41.600
  22196688.734 9 116644413.205 9        48.100    22196695.355 9  90891779.90549
        39.500    22196694.53549  22196690.879 5  87104611.992 5        37.100
  21248718.578 9 111662803.690 9        51.600    21248725.816 9  87010025.27749
        45.400    21248724.82449  21248722.137 6  83384599.615 6        40.700
  23472881.320 7 123350828.924 7        43.100                    96117544.93647
        27.400    23472884.31347
  22101489.898 8 116144125.124 8        47.500                    90501935.92749
        36.500    22101493.38349
  22792930.008 8 119777669.231 8        47.400    22792937.285 8  93333275.33649
        35.800    22792936.52749  22792934.313 4  89444373.733 4        34.900
  21105422.156 9 110909750.207 9        50.000                    86423191.56149
        43.000    21105423.40649
  20098333.258 9 105617406.226 9        50.000                    82299350.94649
        45.100    20098336.18449
  23754266.203 7 124829569.384 7        43.900    23754273.891 7  97269842.82348
        30.600    23754273.02748  23754270.301 3  93216921.790 3        32.700
  23882882.539 6 125505443.749 6        40.800    23882888.246 6  97796490.72946
        24.000    23882888.75446  23882884.832 1  93721621.915 1        30.900
 17  4  9  0  9  0.0000000  0 10G01G32G08G28G14G03G22G11G27G10
  20784122.414 9 109221299.134 9        52.400    20784128.910 9  85107546.75149
        46.400    20784128.60549  20784124.703 7  81561393.655 7        42.100
  22199439.031 8 116658868.658 8        47.700    22199445.770 9  90903043.90349
        39.200    22199445.40249  22199441.688 5  87115406.660 5        37.700
  21261944.516 9 111732305.807 9        51.400    21261951.629 9  87064182.76449
        45.100    21261950.66049  21261947.738 6  83436500.533 6        40.600
  23472540.734 7 123349036.588 7        42.400                    96116148.28347
        27.300    23472543.62547
  22095053.578 8 116110299.983 8        47.400                    90475578.70849
        36.200    22095057.03549
  22775402.813 8 119685560.621 8        47.200    22775409.559 8  93261502.40449
        36.900    22775408.96949  22775406.813 5  89375591.350 5        35.300
  21095295.617 9 110856535.575 9        49.700                    86381725.61949
        43.300    21095297.27049
  20094047.258 9 105594882.972 9        49.600                    82281800.35849
        44.900    20094050.23849
  23775314.313 7 124940175.176 7        44.300    23775321.238 7  97356029.16148
        31.800    23775320.04348  23775317.379 3  93299517.024 3        33.000
  23901681.984 6 125604234.891 6        40.800    23901687.313 6  97873470.87247
        25.400    23901687.50847  23901683.293 1  93795394.536 1        29.400
 17  4  9  0  9 30.0000000  0 10G01G32G08G28G14G03G22G11G27G10
  20775186.016 9 109174338.857 9        52.800    20775192.949 9  85070954.32549
        46.700    20775192.50849  20775188.785 7  81526325.907 7        41.300
  22202304.008 9 116673924.060 9        48.100    22202311.301 9  90914775.39149
        39.600    22202310.52349  22202306.809 5  87126649.342 5        37.400
  21275255.117 9 111802254.187 9        51.300    21275262.223 9  87118687.98349
        45.200    21275261.09849  21275257.883 6  83488734.709 6        40.100
  23472299.320 7 123347768.896 7        42.400                    96115160.48147
        28.600    23472302.71147
  22088717.133 9 116077003.970 9        48.400                    90449633.77249
        36.500    22088721.00849
  22757922.492 8 119593703.646 8        46.500    22757929.816 8  93189925.55549
        36.800    22757928.94149  22757926.902 5  89306996.873 5        35.500
  21085239.617 9 110803691.271 9        49.800                    86340548.24449
        43.000    21085241.03149
  20089855.578 9 105572856.300 9        49.100                    82264636.71249
        44.700    20089858.40249
  23796389.531 7 125050926.519 7        44.100    23796396.570 7  97442328.89148
        30.900    23796396.07848  23796392.766 3  93382220.941 3        33.200
  23920499.703 6 125703121.040 6        38.500    23920505.727 6  97950525.02946
        22.600    23920505.30946  23920500.859 1  93869238.107 1        30.200
 17  4  9  0 10  0.0000000  0 10G01G32G08G28G14G03G22G11G27G10
  20766307.133 9 109127681.080 9        52.400    20766313.926 9  85034597.61149
        46.400    20766313.59849  20766309.641 7  81491484.065 7        41.800
  22205283.148 8 116689579.275 8        47.500    22205289.703 9  90926974.27649
        39.300    22205289.25449  22205285.832 5  87138339.935 5        37.500
  21288650.617 9 111872647.334 9        51.700    21288658.090 9  87173539.77049
        45.300    21288656.85549  21288653.523 6  83541301.008 6        40.600
  23472157.438 7 123347025.565 7        41.900                    96114581.26447
        27.600    23472160.94547
  22082482.477 8 116044238.675 8        47.900                    90424102.39949
        36.600    22082485.95349
  22740491.039 8 119502099.894 8        47.900    22740498.340 8  93118546.01849
        36.500    22740497.62549  22740495.414 5  89238591.493 5        35.200
  21075254.570 9 110751218.606 9        50.000                    86299660.46449
        43.400    21075255.41049
  20085758.906 9 105551328.325 9        49.100                    82247861.65849
        44.600    20085761.40649
  23817492.422 7 125161821.561 7        44.500    23817499.398 7  97528740.61448
        30.800    23817498.90248  23817495.414 3  93465032.181 3        32.900
  23939334.625 6 125802100.871 6        38.800    23939341.074 6  98027652.11946
        24.300    23939341.13746  23939336.629 1  93943151.577 1        30.200
 17  4  9  0 10 30.0000000  0 10G01G32G08G28G14G03G22G11G27G10
  20757485.961 9 109081326.601 9        52.500    20757493.059 9  84998477.24849
        46.400    20757493.01249  20757488.879 7  81456868.714 7        41.200
  22208376.563 9 116705833.685 9        49.100    22208383.520 9  90939640.05849
        39.800    22208382.79749  22208379.371 5  87150477.983 5        37.400
  21302130.172 9 111943483.596 9        51.600    21302137.371 9  87228736.85049
        45.200    21302136.34849  21302133.133 6  83594198.207 6        40.300
  23472115.695 7 123346806.354 7        41.900                    96114410.43847
        26.900    23472118.89147
  22076348.438 8 116012005.252 8        47.900                    90398985.46649
        37.100    22076352.04349
  22723107.898 8 119410750.438 8        47.800    22723114.820 8  93047364.63749
        37.000    22723113.94149  22723112.195 5  89170376.008 5        35.000
  21065340.133 9 110699117.556 9        50.000                    86259062.25349
        43.800    21065341.39549
  20081757.469 9 105530299.853 9        48.900                    82231475.83349
        45.300    20081760.26249
  23838621.820 7 125272858.068 7        43.800    23838628.543 7  97615262.57347
        29.700    23838627.88347  23838625.453 2  93547949.060 2        31.900
  23958187.797 6 125901172.441 6        38.900    23958193.121 6  98104850.71846
        22.900    23958193.30146  23958189.438 1  94017133.569 1        29.700
 17  4  9  0 11  0.0000000  0 10G01G32G08G28G14G03G22G11G27G10
  20748723.109 9 109035276.353 9        52.500    20748730.246 9  84962593.94449
        46.600    20748730.20349  20748726.129 7  81422480.542 7        41.700
  22211583.391 8 116722686.792 8        47.900    22211589.863 9  90952772.36149
        40.000    22211589.13749  22211585.711 5  87163063.104 5        37.400
  21315693.945 9 112014760.910 9        51.400    21315700.934 9  87284277.60549
        45.300    21315699.81349  21315696.891 6  83647424.755 6        39.900
  23472174.148 7 123347110.949 7        43.600                    96114647.80347
        27.200    23472177.04747
  22070316.109 9 115980305.251 9        49.100                    90374284.18649
        36.800    22070319.89149
  22705772.906 8 119319656.536 8        47.200    22705780.102 8  92976382.38549
        36.800    22705779.20749  22705777.109 5  89102351.349 5        35.000
  21055496.477 9 110647389.006 9        50.000                    86218754.30049
        43.700    21055497.23449
  20077850.828 9 105509772.104 9        49.500                    82215480.18349
        45.300    20077853.93849
  23859777.828 7 125384033.924 7        43.500    23859785.465 7  97701893.09448
        30.400    23859785.01248  23859782.637 3  93630969.973 3        33.400
  23977057.680 6 126000334.012 6        38.700    23977062.934 6  98182119.50646
        22.300    23977062.69946  23977057.602 1  94091182.808 1        28.300
 17  4  9  0 11 30.0000000  0 10G01G32G08G28G14G03G22G11G27G10
  20740018.273 9 108989531.321 9        52.500    20740025.055 9  84926948.46649
        46.700    20740024.71149  20740020.633 7  81388320.302 7        41.600
  22214904.273 8 116740138.032 8        47.900    22214910.855 9  90966370.73449
        39.400    22214909.85249  22214906.547 5  87176094.880 5        37.500
  21329341.023 9 112086478.081 9        51.500    21329348.316 9  87340161.09849
        45.100    21329347.27749  21329344.242 6  83700979.766 6        40.300
  23472332.195 7 123347938.973 7        43.700                    96115292.99147
        28.600    23472335.11347
  22064385.422 8 115949139.728 8        47.300                    90349999.38149
        36.700    22064389.25049
  22688487.773 8 119228819.510 8        47.800    22688494.922 8  92905600.30249
        36.900    22688494.02049  22688492.039 5  89034518.520 5        35.600
  21045723.797 9 110596033.248 9        50.400                    86178736.84049
        43.300    21045724.93849
  20074040.141 9 105489746.090 9        49.300                    82199875.50149
        44.900    20074043.40249
  23880959.852 7 125495347.109 7        43.200    23880967.160 7  97788630.62448
        30.400    23880967.06648  23880964.520 3  93714093.425 3        33.500
  23995943.406 6 126099583.901 6        38.800    23995950.871 6  98259457.06646
        22.500    23995950.04346  23995945.121 1  94165297.998 1        30.100
 17  4  9  0 12  0.0000000  0 10G01G32G08G28G14G03G22G11G27G10
  20731371.219 9 108944092.304 9        52.500    20731378.535 9  84891541.43149
        46.700    20731378.41849  20731374.637 7  81354388.556 7        41.800
  22218338.852 8 116758186.774 8        47.800    22218345.094 8  90980434.69649
        39.500    22218344.39849  22218340.621 5  87189572.848 5        37.300
  21343071.773 9 112158633.110 9        51.400    21343078.945 9  87396385.78549
        44.800    21343077.96149  21343074.805 6  83754861.758 6        40.300
  23472588.164 7 123349289.987 7        43.000                    96116345.72447
        28.500    23472591.41847
  22058557.102 8 115918509.924 8        47.900                    90326132.00349
        37.200    22058560.74649
  22671251.102 9 119138240.462 9        48.700    22671257.918 8  92835019.24149
        37.600    22671257.08649  22671254.758 5  88966878.348 5        35.400
  21036021.828 9 110545050.702 9        50.600                    86139010.19349
        43.400    21036023.07049
  20070325.305 9 105470222.516 9        49.000                    82184662.32549
        44.600    20070327.79349
  23902168.359 7 125606795.375 7        43.200    23902175.102 7  97875473.42448
        30.000    23902174.56348  23902171.543 3  93797317.771 3        32.700
  24014847.188 6 126198920.465 6        38.800    24014853.008 6  98336862.16246
        22.300    24014852.87546  24014848.250 1  94239477.874 1        30.200
 17  4  9  0 12 30.0000000  0 10G01G32G08G28G14G03G22G11G27G10
  20722783.156 9 108898960.247 9        52.400    20722790.254 9  84856373.59649
        46.800    20722789.91049  20722786.012 7  81320686.054 7        41.700
  22221887.133 9 116776832.365 9        48.800    22221893.445 8  90994963.73849
        39.200    22221892.74249  22221889.145 5  87203496.523 5        37.300
  21356885.836 9 112231224.239 9        51.500    21356893.012 9  87452950.29149
        44.900    21356892.00049  21356888.727 6  83809069.405 6        40.500
  23472944.805 7 123351163.704 7        41.700                    96117805.76947
        27.000    23472948.48047
  22052830.336 8 115888417.255 8        47.800                    90302683.19349
        36.700    22052833.95749
  22654063.477 9 119047920.589 9        48.200    22654070.672 8  92764640.13249
        37.700    22654069.98849  22654067.836 5  88899431.704 5        35.400
  21026391.430 9 110494441.555 9        50.200                    86099574.49349
        43.700    21026392.81349
  20066705.914 9 105451202.851 9        48.900                    82169841.80949
        45.300    20066708.77049
  23923402.086 7 125718376.511 7        43.400    23923408.676 7  97962419.77547
        29.800    23923408.02747  23923404.832 2  93880641.376 2        31.700
  24033766.102 5 126298341.749 5        37.300    24033772.027 6  98414333.28446
        21.800    24033772.05546  24033767.367 1  94313721.036 1        30.500
 17  4  9  0 13  0.0000000  0 10G01G32G08G28G14G03G22G11G27G10
  20714253.359 9 108854136.202 9        53.200    20714260.449 9  84821445.77049
        47.200    20714260.19149  20714256.293 7  81287213.554 7        41.800
  22225548.367 9 116796074.284 9        49.500    22225554.930 9  91009957.45449
        38.700    22225554.18849  22225550.824 5  87217865.493 5        37.000
  21370781.852 9 112304249.840 9        51.500    21370789.344 9  87509853.34749
        44.900    21370788.21149  21370785.055 6  83863601.506 6        40.000
  23473401.375 7 123353559.800 7        42.600                    96119672.84047
        28.100    23473404.37147
  22047206.555 8 115858862.892 8        47.500                    90279653.83349
        36.900    22047209.99249
  22636925.828 8 118957861.176 8        47.900    22636932.797 8  92694463.97949
        36.900    22636932.01249  22636929.801 5  88832179.558 5        35.700
  21016832.094 9 110444206.534 9        50.200                    86060430.32849
        43.800    21016833.41449
  20063182.391 9 105432688.170 9        49.000                    82155414.78349
        44.700    20063185.16449
  23944659.750 7 125830088.606 7        43.400    23944666.539 7  98049468.15548
        30.200    23944666.10948  23944662.918 3  93964062.729 3        33.100
  24052701.016 5 126397846.390 5        37.000    24052707.129 6  98491869.36846
        22.000    24052706.34446  24052702.598 1  94388026.395 1        30.200
 17  4  9  0 13 30.0000000  0 10G01G32G08G28G14G03G22G11G27G10
  20705782.211 9 108809620.787 9        52.800    20705789.566 9  84786758.43749
        47.000    20705789.19949  20705785.180 7  81253971.523 7        41.800
  22229323.586 9 116815911.652 9        49.900    22229329.746 8  91025415.16049
        39.200    22229328.99249  22229325.570 5  87232679.123 5        37.800
  21384760.648 9 112377708.138 9        51.100    21384767.898 9  87567093.56649
        44.800    21384766.89149  21384763.969 6  83918456.709 6        40.100
  23473956.328 7 123356477.570 7        42.600                    96121946.39947
        28.300    23473959.56647
  22041684.969 8 115829847.838 8        47.900                    90257044.72249
        36.900    22041688.53549
  22619837.711 9 118868063.255 9        48.100    22619844.738 8  92624491.58549
        37.100    22619843.86749  22619842.008 5  88765122.677 5        36.200
  21007343.984 9 110394345.867 9        50.700                    86021577.87349
        44.000    21007344.88349
  20059755.711 9 105414679.087 9        49.100                    82141381.72349
        44.900    20059758.27049
  23965941.594 7 125941929.169 7        41.500    23965948.863 7  98136616.64447
        29.700    23965948.43847  23965945.305 3  94047580.031 3        32.100
  24071652.242 6 126497432.305 6        38.900    24071658.422 6  98569468.76446
        24.700    24071658.02046  24071652.863 1  94462392.484 1        30.400
 17  4  9  0 14  0.0000000  0 10G01G32G08G28G14G03G22G11G27G10
  20697370.328 9 108765415.658 9        52.800    20697377.469 9  84752312.87949
        47.100    20697377.19149  20697373.059 7  81220961.196 7        42.000
  22233211.453 9 116836344.461 9        49.800    22233218.445 9  91041336.83949
        39.900    22233217.33249  22233213.793 5  87247937.402 5        36.900
  21398821.234 9 112451597.772 9        51.300    21398828.527 9  87624669.89849
        44.600    21398827.51649  21398824.594 6  83973634.024 6        39.900
  23474610.789 7 123359917.267 7        42.800                    96124626.66947
        28.400    23474614.37147
  22036266.625 8 115801373.950 8        47.600                    90234857.30049
        36.700    22036269.84849
  22602799.773 9 118778528.661 9        48.200    22602807.223 8  92554724.38349
        38.200    22602806.27049  22602804.582 5  88698262.444 5        36.200
  20997927.070 9 110344860.558 9        50.500                    85983017.89949
        43.600    20997928.33249
  20056425.258 9 105397177.452 9        48.900                    82127744.08149
        45.000    20056428.20749
  23987248.484 7 126053896.814 7        42.300    23987255.430 7  98223864.15947
        29.800    23987254.47347  23987252.039 3  94131192.237 3        32.100
  24090617.211 6 126597098.449 6        38.200    24090624.238 7  98647130.68346
        24.700    24090624.04746  24090618.660 1  94536818.515 1        28.800
 17  4  9  0 14 30.0000000  0 10G01G32G08G28G14G03G22G11G27G10
  20689017.289 9 108721521.025 9        54.100    20689024.258 9  84718109.27949
        47.300    20689023.93849  20689019.980 7  81188182.748 7        42.100
  22237212.836 9 116857371.339 9        48.700    22237219.348 8  91057721.42249
        38.900    22237218.73049  22237214.898 5  87263639.301 5        37.200
  21412963.719 9 112525916.488 9        51.300    21412970.996 9  87682580.58349
        44.500    21412969.77749  21412966.621 6  84029131.769 6        40.400
  23475364.242 7 123363877.652 7        42.400                    96127712.67847
        28.500    23475367.45347
  22030951.148 8 115773441.697 8        47.200                    90213091.92049
        36.800    22030955.00849
  22585811.750 8 118689257.916 8        47.600    22585819.012 8  92485162.77349
        38.100    22585818.41049  22585816.781 5  88631599.241 5        36.000
  20988581.789 9 110295750.206 9        50.100                    85944750.09549
        43.900    20988583.15649
  20053191.492 9 105380183.781 9        49.000                    82114502.26449
        44.700    20053194.39149
  24008579.273 7 126165988.740 7        43.600    24008586.133 7  98311208.50848
        30.000    24008585.25048  24008582.172 2  94214897.245 2        31.800
  24109598.219 5 126696842.606 5        37.900    24109604.168 6  98724853.36246
        23.300    24109603.97346  24109599.699 1  94611302.763 1        30.000
 17  4  9  0 15  0.0000000  0 11G01G32G08G28G14G17G03G22G11G27G10
  20680723.891 9 108677938.017 9        53.000    20680730.719 9  84684148.49949
        47.200    20680730.56349  20680726.723 7  81155636.996 7        41.800
  22241327.148 9 116878991.703 9        49.600    22241333.859 8  91074568.47749
        39.300    22241332.92649  22241329.094 5  87279784.396 5        37.100
  21427187.422 9 112600662.215 9        51.400    21427194.727 9  87740824.00049
        44.300    21427193.71149  21427190.438 6  84084948.369 6        40.200
  23476216.953 7 123368358.597 7        42.600                    96131204.33847
        27.500    23476219.83647
  22025739.555 8 115746052.488 8        46.900                    90191749.69449
        37.200    22025743.15249
  25582963.625 5 134439373.84215        37.100    25582967.117 5 104757974.24855
        19.000    25582966.82045
  22568874.836 9 118600252.361 9        48.000    22568882.230 8  92415807.81949
        37.900    22568881.31349  22568879.918 5  88565134.080 5        36.400
  20979307.773 9 110247015.385 9        50.200                    85906774.91849
        44.000    20979309.24249
  20050054.516 9 105363699.012 9        48.900                    82101656.98149
        44.900    20050057.33249
  24029932.313 7 126278202.969 7        42.600    24029940.234 7  98398648.16748
        30.300    24029939.27048  24029937.188 3  94298693.570 3        33.700
  24128593.844 6 126796663.210 6        38.600    24128599.688 6  98802635.63946
        22.600    24128599.61346  24128594.809 1  94685844.110 1        28.600
 17  4  9  0 15 30.0000000  0 11G01G32G08G28G14G17G03G22G11G27G10
  20672489.789 9 108634667.663 9        52.700    20672496.711 9  84650431.34249
        47.000    20672496.44949  20672492.664 7  81123324.723 7        42.000
  22245554.313 9 116901204.925 9        48.800    22245560.801 8  91091877.49249
        39.400    22245559.86349  22245556.617 5  87296372.206 5        37.700
  21441492.008 9 112675833.801 9        51.900    21441499.469 9  87799399.24149
        44.400    21441498.25849  21441495.219 6  84141082.973 6        40.000
  23477169.344 7 123373359.614 7        43.300                    96135101.19147
        27.700    23477172.14147
  22020631.000 8 115719207.478 8        47.900                    90170831.52249
        37.400    22020634.25049
  25563102.758 6 134335002.479 6        39.900    25563106.801 5 104676645.94546
        22.200    25563106.49246
  22551988.336 8 118511513.325 8        47.800    22551995.332 8  92346660.52549
        37.100    22551994.36349  22551992.973 5  88498867.938 5        36.400
  20970105.242 9 110198656.578 9        50.800                    85869092.73849
        43.900    20970106.41049
  20047014.375 9 105347724.269 9        48.800                    82089209.11449
        45.000    20047017.31649
  24051309.359 7 126390537.476 7        42.900    24051316.875 7  98486181.54147
        29.800    24051316.04747  24051312.969 3  94382579.708 3        32.700
  24147603.320 6 126896558.711 6        39.400    24147609.148 6  98880476.30446
        23.300    24147608.78546  24147604.570 1  94760441.420 1        28.900
 17  4  9  0 16  0.0000000  0 11G01G32G08G28G14G17G03G22G11G27G10
  20664315.563 9 108591710.891 9        53.200    20664322.473 9  84616958.53049
        47.100    20664322.27749  20664318.438 7  81091246.612 7        42.700
  22249893.984 9 116924010.265 9        49.300    22249900.289 8  91109647.88949
        39.000    22249899.46949  22249896.160 5  87313402.175 5        37.000
  21455877.352 9 112751429.258 9        51.300    21455885.000 9  87858304.78249
        44.600    21455883.98449  21455880.770 6  84197534.120 6        40.200
  23478219.984 7 123378880.192 7        43.600                    96139402.95647
        27.600    23478222.58247
  22015626.195 8 115692907.755 8        46.900                    90150338.24749
        36.800    22015629.79349
  25543253.469 6 134230691.970 6        39.500    25543257.355 5 104595365.00546
        22.600    25543256.90246
  22535153.117 8 118423041.975 8        47.900    22535160.395 8  92277721.82649
        38.100    22535159.64149  22535157.840 5  88432801.686 5        36.500
  20960974.555 9 110150674.340 9        51.400                    85831703.98749
        43.900    20960975.93849
  20044071.953 9 105332260.580 9        49.100                    82077159.48449
        44.600    20044074.98049
  24072707.750 7 126502990.141 7        42.700    24072715.012 7  98573806.99447
        28.800    24072714.32047  24072711.535 2  94466554.105 2        31.800
  24166626.430 6 126996527.491 6        38.600    24166633.129 6  98958374.05746
        23.400    24166633.13346  24166628.973 1  94835093.412 1        29.900
 17  4  9  0 16 30.0000000  0 11G01G32G08G28G14G17G03G22G11G27G10
  20656201.008 9 108549068.559 9        53.000    20656207.906 9  84583730.74549
        47.300    20656207.68049  20656204.129 7  81059403.319 7        42.300
  22254346.117 9 116947406.785 9        49.700    22254352.734 9  91127878.95949
        39.400    22254351.72749  22254348.480 5  87330873.604 5        37.900
  21470342.852 9 112827446.584 9        50.900    21470350.480 9  87917539.05049
        44.300    21470349.55549  21470346.574 6  84254300.297 6        40.100
  23479368.617 7 123384919.572 7        42.900                    96144108.94047
        27.400    23479372.11747
  22010725.289 8 115667154.652 8        47.300                    90130270.90749
        36.900    22010729.07049
  25523415.414 5 134126444.609 5        37.900    25523419.758 6 104514133.32246
        22.200    25523419.43046
  22518368.156 9 118334839.360 9        48.300    22518375.789 8  92208992.52649
        38.100    22518374.81649  22518373.250 5  88366936.107 5        37.300
  20951915.766 9 110103068.761 9        51.500                    85794608.74649
        44.100    20951917.00049
  20041226.484 9 105317308.865 9        48.600                    82065508.80349
        44.800    20041229.39549
  24094129.633 7 126615558.688 7        42.800    24094137.113 7  98661522.74847
        29.900    24094136.11747  24094133.395 2  94550615.033 2        31.700
  24185663.898 6 127096567.793 6        40.000    24185669.914 6  99036327.52146
        24.600    24185670.38746  24185665.879 1  94909798.800 1        30.400
 17  4  9  0 17  0.0000000  0 11G01G32G08G28G14G17G03G22G11G27G10
  20648146.461 9 108506741.534 9        52.900    20648153.625 9  84550748.63449
        47.400    20648153.01249  20648149.406 7  81027795.468 7        41.900
  22258910.672 9 116971393.723 9        49.000    22258917.289 8  91146570.08549
        38.600    22258916.48849  22258912.945 5  87348785.938 5        37.500
  21484888.352 9 112903884.018 9        50.800    21484895.875 9  87977100.67349
        44.100    21484894.98849  21484891.773 6  84311380.179 6        39.600
  23480617.117 7 123391477.451 7        44.300                    96149218.96447
        27.200    23480619.62547
  22005928.938 9 115641949.122 9        48.100                    90110630.24749
        37.300    22005932.71549
  25503591.094 7 134022262.36917        41.300    25503594.164 5 104432952.36456
        22.600    25503593.96946
  22501634.898 8 118246906.640 8        47.800    22501642.793 8  92140473.53649
        37.800    22501641.55949  22501639.992 5  88301272.083 5        36.300
  20942928.203 9 110055840.069 9        50.400                    85757807.17449
        44.100    20942929.64849
  20038478.805 9 105302870.154 9        48.600                    82054257.85849
        44.600    20038482.03949
  24115571.773 7 126728240.995 7        41.500    24115579.504 7  98749327.12248
        30.500    24115578.96948  24115575.598 3  94634760.900 3        32.700
  24204713.578 6 127196677.994 6        40.000    24204719.992 6  99114335.47346
        24.800    24204719.99246  24204715.480 1  94984556.405 1        28.500
 17  4  9  0 17 30.0000000  0 11G01G32G08G28G14G17G03G22G11G27G10
  20640151.680 9 108464730.647 9        53.400    20640159.055 9  84518012.88549
        47.400    20640158.57449  20640154.676 7  80996423.710 7        41.800
  22263587.180 9 116995970.057 9        49.100    22263593.684 9  91165720.48049
        38.900    22263593.31649  22263589.602 5  87367138.403 5        37.300
  21499513.625 9 112980739.607 9        51.300    21499521.109 9  88036988.13149
        44.500    21499519.85549  21499516.758 6  84368772.324 6        39.200
  23481963.477 7 123398553.215 7        44.100                    96154732.53947
        28.400    23481966.41447
  22001236.570 9 115617291.632 9        48.600                    90091416.60949
        37.500    22001240.53149
  25483778.625 6 133918146.993 6        40.100    25483782.184 6 104351823.62446
        23.000    25483782.28546
  22484954.141 8 118159244.878 8        47.900    22484961.207 8  92072165.68549
        37.800    22484960.16049  22484958.477 5  88235810.398 5        36.200
  20934013.023 9 110008988.669 9        50.400                    85721299.59049
        44.300    20934014.23849
  20035829.406 9 105288945.332 9        48.900                    82043407.35549
        44.900    20035831.90649
  24137036.117 7 126841034.815 7        43.200    24137042.914 7  98837218.40547
        29.100    24137042.53947  24137039.637 2  94718990.048 2        31.200
  24223776.961 6 127296856.325 6        38.900    24223783.148 6  99192396.50246
        22.300    24223782.77346  24223779.027 1  95059364.906 1        27.700
 17  4  9  0 18  0.0000000  0 11G01G32G08G28G14G17G03G22G11G27G10
  20632217.969 9 108423037.232 9        53.900    20632224.828 9  84485524.51149
        47.800    20632224.93449  20632220.625 7  80965289.015 7        41.900
  22268376.195 9 117021135.312 9        49.500    22268382.699 8  91185329.77749
        38.800    22268382.22749  22268378.449 5  87385930.649 5        37.200
  21514218.180 9 113058012.029 9        51.400    21514225.316 9  88097200.39849
        43.900    21514224.10949  21514220.719 6  84426475.749 6        40.300
  23483408.336 7 123406146.161 7        43.400                    96160649.11547
        28.800    23483411.73447
  21996649.359 8 115593183.710 8        47.600                    90072631.22749
        37.000    21996653.45349
  25463976.984 4 133814100.675 4        34.600    25463981.277 4 104270748.45545
        16.900    25463980.50045
  22468324.430 9 118071855.599 9        48.100    22468331.395 8  92004070.15149
        38.700    22468330.70749  22468328.438 5  88170552.180 5        36.400
  20925169.156 9 109962515.470 9        51.600                    85685086.72049
        44.200    20925170.48849
  20033277.367 9 105275535.587 9        49.000                    82032958.20049
        44.900    20033280.38349
  24158520.969 7 126953938.387 7        42.000    24158527.684 7  98925195.21647
        28.300    24158526.88747  24158524.043 2  94803301.169 2        31.700
  24242853.102 6 127397101.543 6        38.200    24242860.570 6  99270509.66746
        22.600    24242859.64146  24242855.129 1  95134223.348 1        28.200
 17  4  9  0 18 30.0000000  0 11G01G32G08G28G14G17G03G22G11G27G10
  20624344.445 9 108381661.872 9        53.200    20624351.406 9  84453283.96749
        47.500    20624351.26249  20624347.363 7  80934391.825 7        42.600
  22273276.906 9 117046888.305 9        49.100    22273283.133 8  91205397.05349
        39.500    22273282.39149  22273279.262 5  87405161.790 5        37.300
  21529001.250 9 113135698.978 9        51.300    21529008.668 9  88157735.67949
        44.200    21529007.84849  21529004.574 6  84484488.718 6        40.600
  23484951.078 7 123414255.499 7        42.500                    96166968.06247
        27.300    23484954.69947
  21992166.117 9 115569626.126 9        48.200                    90054274.68549
        37.500    21992169.44149
  25444193.563 6 133710125.889 6        40.300    25444196.684 5 104189729.16846
        22.300    25444195.87146
  22451746.891 9 117984739.624 9        48.600    22451754.266 8  91936187.58349
        38.300    22451753.56349  22451751.293 5  88105498.050 5        36.000
  20916397.586 9 109916420.239 9        50.600                    85649168.35849
        44.300    20916398.66449
  20030823.953 9 105262641.650 9        48.700                    82022910.97449
        44.500    20030826.41449
  24180026.414 7 127066949.272 7        42.400    24180033.969 7  99013255.62647
        29.700    24180033.25847  24180029.828 3  94887692.392 3        33.000
  24261941.172 5 127497411.758 5        37.500    24261947.496 5  99348673.41646
        20.400    24261947.57046  24261943.527 1  95209130.312 1        28.100
 17  4  9  0 19  0.0000000  0 11G01G32G08G28G14G17G03G22G11G27G10
  20616531.797 9 108340605.699 9        53.400    20616538.703 9  84421292.14349
        47.800    20616538.23449  20616534.160 7  80903732.998 7        42.100
  22278288.898 9 117073228.273 9        49.200    22278295.488 8  91225921.71149
        38.800    22278294.90649  22278291.422 5  87424831.253 5        37.100
  21543863.148 9 113213798.600 9        51.000    21543870.695 9  88218592.50749
        43.800    21543869.67249  21543866.633 6  84542809.845 6        40.100
  23486592.844 7 123422880.733 7        43.600                    96173688.99847
        27.800    23486595.76647
  21987788.656 9 115546620.227 9        48.800                    90036348.04049
        37.700    21987792.18049
  25424422.203 7 133606224.454 7        42.200    25424425.699 6 104108767.00947
        26.900    25424424.76647
  22435221.438 9 117897898.249 9        49.100    22435228.809 8  91868518.99949
        38.700    22435227.94549  22435226.082 5  88040648.994 5        36.900
  20907697.977 9 109870703.574 9        50.500                    85613544.98549
        44.300    20907699.41849
  20028468.516 9 105250264.193 9        48.700                    82013266.19849
        44.900    20028471.07849
  24201551.984 7 127180065.433 7        42.400    24201559.027 7  99101398.07847
        29.900    24201558.22747  24201555.559 3  94972162.231 3        32.800
  24281042.797 5 127597785.510 5        37.600    24281047.953 5  99426886.75446
        20.100    24281047.93046  24281043.598 1  95284084.731 1        28.100
 17  4  9  0 19 30.0000000  0 11G01G32G08G28G14G17G03G22G11G27G10
  20608780.039 9 108299869.449 9        55.200    20608786.961 9  84389549.61449
        48.000    20608786.84449  20608782.766 7  80873313.071 7        41.400
  22283412.789 8 117100154.130 8        47.900    22283419.313 8  91246902.90649
        39.100    22283418.57049  22283415.145 5  87444938.234 5        37.100
  21558803.258 9 113292308.737 9        51.500    21558810.578 9  88279769.21749
        43.500    21558809.47749  21558806.438 6  84601437.533 6        40.200
  23488331.883 7 123432021.098 7        42.700                    96180811.37847
        26.100    23488334.44547
  21983515.820 9 115524166.480 9        49.100                    90018851.62249
        37.300    21983519.54349
  25404663.414 6 133502398.389 6        39.500    25404667.207 5 104027863.65645
        19.300    25404667.37145
  22418748.336 9 117811332.442 9        49.400    22418755.199 8  91801065.14049
        38.900    22418754.55149  22418752.512 5  87976005.719 5        37.000
  20899070.305 9 109825365.260 9        50.700                    85578216.43849
        44.300    20899071.56349
  20026211.719 9 105238404.217 9        49.100                    82004024.65249
        44.900    20026214.44149
  24223095.367 7 127293284.625 7        41.000    24223103.520 7  99189620.81447
        27.600    24223102.91847  24223100.137 3  95056709.000 3        32.300
  24300154.352 5 127698221.079 5        36.500    24300160.418 5  99505148.22745
        17.800    24300159.44945  24300155.113 1  95359085.299 1        25.200
 17  4  9  0 20  0.0000000  0 11G01G32G08G28G14G17G03G22G11G27G10
  20601089.016 9 108259454.083 9        54.500    20601096.109 9  84358057.11549
        47.900    20601095.97749  20601091.961 7  80843132.766 7        42.300
  22288648.461 9 117127664.926 9        48.100    22288654.941 8  91268339.89249
        38.800    22288654.11349  22288650.574 5  87465482.017 5        36.900
  21573821.063 9 113371227.763 9        50.900    21573828.375 9  88341264.55549
        43.800    21573827.26649  21573824.348 6  84660370.555 6        40.300
  23490169.508 7 123441676.266 7        43.700                    96188334.85847
        27.900    23490171.92247
  21979348.148 9 115502266.047 9        49.000                    90001786.35249
        37.100    21979351.76649
  25384920.492 6 133398650.118 6        38.800    25384924.484 5 103947020.81946
        21.100    25384923.87146
  22402328.203 9 117725043.368 9        49.700    22402335.203 8  91733826.90949
        38.800    22402334.54749  22402332.215 5  87911569.085 5        37.200
  20890514.852 9 109780406.056 9        51.300                    85543183.30349
        44.500    20890516.11349
  20024053.352 9 105227062.863 9        48.800                    81995187.23649
        45.000    20024056.25449
  24244660.547 7 127406604.659 7        42.600    24244668.055 7  99277922.15947
        29.000    24244667.68447  24244663.492 2  95141331.131 2        31.500
  24319277.898 5 127798716.895 5        35.400    24319284.414 5  99583456.64545
        19.300    24319283.49645  24319278.633 1  95434130.875 1        25.900
 17  4  9  0 20 30.0000000  0 11G01G32G08G28G14G17G03G22G11G27G10
  20593459.367 9 108219360.580 9        54.500    20593466.484 9  84326815.43149
        47.900    20593466.23449  20593462.219 7  80813192.813 7        42.100
  22293994.461 9 117155759.725 9        49.200    22294000.641 8  91290231.96449
        39.000    22293999.93849  22293996.457 5  87486461.920 5        36.500
  21588916.367 9 113450553.722 9        51.200    21588923.547 9  88403076.98149
        43.300    21588922.47749  21588919.613 6  84719607.466 6        39.600
  23492104.352 7 123451845.332 7        43.000                    96196258.79847
        28.000    23492107.86347
  21975285.961 9 115480919.948 9        48.900                    89985153.05249
        37.400    21975289.66049
  25365193.586 6 133294981.603 6        38.900    25365196.523 4 103866240.03946
        20.400    25365195.19146
  22385960.883 9 117639032.165 9        49.300    22385968.059 8  91666805.20849
        38.800    22385967.07449  22385964.977 5  87847339.947 5        36.100
  20882031.891 9 109735825.845 9        52.100                    85508445.49249
        44.500    20882032.77349
  20021994.078 9 105216240.709 9        48.900                    81986754.38749
        44.600    20021997.07849
  24266243.211 7 127520023.491 7        41.000    24266251.016 7  99366300.47147
        29.300    24266250.50447  24266247.309 3  95226027.015 3        32.500
  24338412.672 5 127899271.381 5        35.500    24338419.426 5  99661810.80545
        19.000    24338419.47345  24338415.430 1  95509220.304 1        28.700
 17  4  9  0 21  0.0000000  0 11G01G32G08G28G14G17G03G22G11G27G10
  20585891.578 9 108179589.981 9        54.400    20585898.695 9  84295825.35249
        47.800    20585898.21149  20585894.367 7  80783493.994 7        42.600
  22299451.469 9 117184437.660 9        49.400    22299457.695 8  91312578.41649
        39.000    22299456.95349  22299453.707 5  87507877.261 5        37.200
  21604088.602 9 113530284.940 9        50.600    21604095.875 9  88465205.18749
        43.500    21604094.73049  21604091.695 6  84779146.993 6        39.600
  23494137.172 7 123462527.474 7        43.000                    96204582.53847
        28.200    23494140.27347
  21971329.508 9 115460129.015 9        48.800                    89968952.33449
        37.600    21971333.64149
  25345480.148 5 133191394.949 5        37.300    25345486.191 6 103785523.21246
        22.500    25345485.83646
  22369646.445 9 117553300.059 9        49.900    22369653.375 8  91600000.98449
        38.800    22369652.46549  22369651.070 5  87783319.231 5        36.700
  20873620.617 9 109691625.298 9        52.200                    85474003.50649
        44.600    20873621.32049
  20020033.617 9 105205938.585 9        48.800                    81978726.76449
        44.500    20020036.71149
  24287843.820 6 127633539.094 6        40.000    24287852.227 7  99454754.17247
        27.500    24287851.30547  24287848.813 2  95310795.137 2        31.800
  24357558.547 3 127999883.101 3        33.600    24357564.941 5  99740209.55545
        17.400    24357565.39145  24357560.820 1  95584352.428 1        27.500
 17  4  9  0 21 30.0000000  0 11G01G32G08G28G14G17G03G22G11G27G10
  20578384.852 9 108140143.107 9        54.700    20578392.051 9  84265087.53349
        47.800    20578391.69549  20578387.797 7  80754036.919 7        42.200
  22305019.234 9 117213697.591 9        49.100    22305026.230 8  91335378.36149
        38.800    22305025.52349  22305021.809 5  87529727.213 5        37.100
  21619338.047 9 113610418.991 9        51.400    21619345.223 9  88527647.29549
        43.400    21619344.27749  21619341.414 6  84838987.347 6        39.500
  23496267.977 7 123473721.927 7        42.700                    96213305.47847
        26.500    23496270.26247
  21967478.766 9 115439893.986 9        48.900                    89953184.78949
        37.500    21967482.43849
  25325785.023 6 133087892.298 6        38.900    25325790.340 6 103704871.82846
        24.000    25325790.16446
  22353385.148 9 117467848.067 9        50.200    22353392.426 8  91533415.02649
        38.700    22353391.39149  22353390.348 5  87719507.696 5        37.500
  20865281.750 9 109647804.698 9        51.900                    85439857.58849
        44.500    20865283.29749
  20018172.211 9 105196157.701 9        49.800                    81971105.29249
        44.700    20018175.18449
  24309464.555 7 127747149.144 7        42.600    24309470.641 7  99543281.47548
        30.100    24309470.41048  24309466.922 1  95395633.803 1        30.600
  24376713.773 4 128100550.408 4        34.000    24376721.109 5  99818651.55745
        16.300    24376721.19945  24376717.219 1  95659526.029 1        28.200
 17  4  9  0 22  0.0000000  0 11G01G32G08G28G14G17G03G22G11G27G10
  20570940.125 9 108101021.035 9        54.600    20570947.453 9  84234602.80949
        47.900    20570946.91049  20570943.012 7  80724822.388 7        42.400
  22310697.984 9 117243538.618 9        48.800    22310704.910 8  91358631.11249
        39.200    22310704.03149  22310700.723 5  87552011.099 5        37.000
  21634663.258 9 113690954.507 9        51.100    21634670.496 9  88590402.23449
        43.000    21634669.24249  21634666.262 6  84899127.496 6        40.200
  23498495.164 7 123485428.023 7        43.000                    96222427.08647
        27.200    23498497.85947
  21963734.289 9 115420215.792 9        48.500                    89937851.15349
        37.600    21963737.89149
  25306106.641 6 132984476.110 6        40.900    25306110.105 5 103624287.84146
        22.300    25306109.68846
  22337178.063 9 117382677.435 9        51.000    22337184.973 8  91467048.30949
        38.300    22337184.18049  22337182.727 5  87655906.270 5        37.600
  20857015.359 9 109604364.377 9        51.800                    85406007.99249
        44.600    20857016.30949
  20016410.297 9 105186898.718 9        49.200                    81963890.50349
        44.500    20016412.77049
  24331100.719 6 127860851.719 6        40.800    24331108.133 7  99631880.90347
        28.800    24331107.30147  24331103.988 1  95480541.611 1        30.000
  24395882.242 5 128201271.88315        35.800    24395888.113 5  99897135.86055
        17.400    24395887.71945  24395883.734 1  95734740.07511        28.100
 17  4  9  0 22 30.0000000  0 11G01G32G08G28G14G17G03G22G11G27G10
  20563557.492 9 108062224.363 9        55.500    20563564.633 9  84204371.63949
        48.000    20563564.29749  20563560.219 7  80695850.856 7        42.400
  22316486.922 9 117273959.344 9        49.200    22316492.914 8  91382335.57549
        38.600    22316492.03149  22316488.492 5  87574727.882 5        36.900
  21650064.273 9 113771888.601 9        50.500    21650071.965 9  88653467.74549
        43.600    21650070.94949  21650067.680 6  84959565.277 6        39.100
  23500819.445 7 123497644.821 7        43.900                    96231946.65647
        27.300    23500823.12147
  21960095.922 9 115401095.052 9        49.700                    89922951.88749
        37.500    21960099.21149
  25286443.422 6 132881148.281 6        39.400    25286445.629 3 103543772.57245
        18.600    25286446.52345
  22321024.281 9 117297788.955 9        50.300    22321031.559 8  91400901.45249
        39.500    22321030.48449  22321029.090 5  87592515.537 5        37.200
  20848821.430 9 109561304.106 9        51.700                    85372454.53449
        44.600    20848821.96149
  20014747.742 9 105178162.023 9        48.600                    81957082.68449
        44.300    20014750.92249
  24352755.125 7 127974644.409 7        41.200    24352762.137 7  99720550.49747
        29.200    24352761.45347  24352758.609 3  95565516.640 3        32.400
  24415058.320 3 128302045.611 3        33.700    24415064.855 6  99975660.86045
        17.400    24415064.89145  24415059.500 1  95809993.223 1        27.000
 17  4  9  0 23  0.0000000  0 11G01G32G08G28G14G17G03G22G11G27G10
  20556237.117 9 108023754.390 9        55.400    20556244.133 9  84174395.04149
        48.000    20556243.91849  20556239.902 7  80667123.283 7        42.600
  22322385.914 9 117304959.059 9        48.700    22322392.234 8  91406491.19949
        39.100    22322391.53549  22322387.938 5  87597877.020 5        36.900
  21665541.172 9 113853220.302 9        51.300    21665548.645 9  88716843.08249
        43.000    21665547.68049  21665544.762 6  85020299.976 6        40.000
  23503241.734 7 123510371.513 7        43.700                    96241863.55747
        28.000    23503244.94947
  21956563.656 9 115382532.909 9        49.500                    89908487.89349
        37.100    21956567.21949
  25266797.734 6 132777911.104 6        39.200    25266801.438 5 103463328.11646
        21.100    25266802.52046
  22304924.602 9 117213184.036 9        50.500    22304931.875 8  91334975.55749
        39.900    22304930.95349  22304929.090 5  87529336.556 5        37.600
  20840699.742 9 109518624.656 9        51.800                    85339197.81649
        44.800    20840700.78549
  20013185.320 9 105169948.946 9        49.300                    81950682.88049
        45.300    20013187.92649
  24374425.914 7 128088525.294 7        41.400    24374432.754 7  99809288.82147
        29.100    24374432.71147  24374429.340 2  95650557.538 2        31.700
  24434243.859 1 128402870.48411        30.800    24434251.711 6 100054225.63655
        17.800    24434251.57045  24434246.355 1  95885284.52811        26.100
 17  4  9  0 23 30.0000000  0 11G01G32G08G28G14G17G03G22G11G27G10
  20548978.320 9 107985611.833 9        54.400    20548985.176 9  84144673.57049
        48.000    20548984.93849  20548981.039 7  80638640.210 7        41.900
  22328395.078 9 117336536.427 9        48.100    22328401.523 8  91431096.95449
        38.400    22328400.88749  22328397.227 5  87621457.535 5        36.600
  21681093.656 9 113934947.263 9        50.700    21681100.656 9  88780526.41649
        42.800    21681099.71149  21681096.734 6  85081329.829 6        39.200
  23505760.234 7 123523607.367 7        42.700                    96252177.21747
        26.900    23505762.53947
  21953137.680 9 115364530.203 9        49.000                    89894459.82049
        37.200    21953141.12949
  25247171.383 7 132674766.818 7        42.800    25247174.676 6 103382955.95647
        26.300    25247174.25047
  22288878.703 9 117128863.543 9        50.200    22288885.707 8  91269271.28549
        39.700    22288884.97349  22288883.113 5  87466369.964 5        36.400
  20832650.414 9 109476326.064 9        51.600                    85306237.88249
        44.600    20832651.34849
  20011721.758 9 105162260.054 9        48.400                    81944691.52749
        44.600    20011724.70349
  24396113.609 7 128202492.043 7        41.200    24396120.285 7  99898094.10547
        27.600    24396119.31347  24396116.531 2  95735662.576 2        31.600
  24453440.375 4 128503744.764 4        34.000    24453446.844 5 100132828.93345
        16.300    24453446.69545  24453442.301 1  95960612.664 1        27.000
 17  4  9  0 24  0.0000000  0 11G01G32G08G28G14G17G03G22G11G27G10
  20541782.906 9 107947797.650 9        54.200    20541789.852 9  84115207.97449
        48.200    20541789.55149  20541785.535 7  80610402.345 7        42.900
  22334513.703 8 117368690.345 8        47.800    22334520.613 8  91456151.94949
        38.700    22334519.98449  22334516.563 5  87645468.567 5        36.600
  21696720.273 9 114017067.222 9        50.200    21696728.301 9  88844515.98149
        42.400    21696726.98049  21696724.234 6  85142653.157 6        39.500
  23508375.008 7 123537351.395 7        42.100                    96262886.81147
        28.200    23508378.52047
  21949818.469 9 115347087.449 9        48.600                    89880868.07749
        37.700    21949821.81649
  25227560.883 6 132571717.565 6        40.300    25227565.000 6 103302657.84247
        25.400    25227564.52747
  22272887.734 9 117044828.619 9        50.500    22272894.602 8  91203789.52749
        39.500    22272893.50849  22272891.879 5  87403616.614 5        37.000
  20824673.625 9 109434408.291 9        50.500                    85273574.68149
        44.600    20824674.72749
  20010358.523 9 105155096.449 9        48.400                    81939109.50449
        44.900    20010361.26249
  24417816.375 6 128316542.622 6        40.900    24417823.750 7  99986964.69447
        28.200    24417822.55547  24417819.477 2  95820830.233 2        31.200
  24472645.516 4 128604666.929 4        34.800    24472650.668 5 100211469.54745
        16.300    24472651.77045  24472646.852 1  96035976.587 1        27.500
 17  4  9  0 24 30.0000000  0 11G01G32G08G28G14G17G03G22G11G27G10
  20534649.438 9 107910312.783 9        53.400    20534656.758 9  84085998.98449
        48.100    20534655.98449  20534652.145 7  80582410.390 7        42.000
  22340741.938 8 117401419.667 8        47.600    22340748.047 8  91481655.31849
        38.400    22340747.46949  22340744.398 5  87669909.304 5        36.900
  21712422.141 9 114099578.463 9        50.300    21712429.273 9  88908810.43849
        42.600    21712428.00849  21712424.855 6  85204268.681 6        39.100
  23511087.094 7 123551602.905 7        42.700                    96273991.87447
        27.000    23511091.45347
  21946605.766 9 115330205.282 9        49.100                    89867713.14449
        37.600    21946609.73049
  25207968.992 6 132468765.542 6        39.900    25207974.563 6 103222435.50646
        22.500    25207973.64846
  22256950.773 9 116961080.324 9        49.700    22256957.801 8  91138531.13149
        40.000    22256956.71549  22256955.262 5  87341077.322 5        37.600
  20816769.711 9 109392871.780 9        50.300                    85241208.57949
        44.700    20816770.80949
  20009095.539 9 105148458.675 9        48.800                    81933937.20249
        44.900    20009098.45349
  24439534.680 7 128430674.807 7        41.300    24439541.949 7 100075898.83747
        28.900    24439541.84847  24439538.477 3  95906058.800 3        32.600
  24491859.352 5 128705635.426 5        35.900    24491865.527 5 100290146.38445
        17.400    24491865.78545  24491861.102 1  96111375.151 1        26.100
 17  4  9  0 25  0.0000000  0 11G01G32G08G28G14G17G03G22G11G27G10
  20527579.258 9 107873157.791 9        54.800    20527586.473 9  84057047.04249
        48.200    20527585.91049  20527581.895 7  80554664.784 7        42.600
  22347079.305 8 117434722.867 8        47.500    22347085.922 8  91507605.86549
        38.900    22347085.21949  22347081.797 5  87694778.579 5        37.000
  21728197.102 9 114182478.517 9        51.500    21728204.371 9  88973407.86649
        43.400    21728203.57849  21728200.188 6  85266174.547 6        39.500
  23513896.156 7 123566360.621 7        43.100                    96285491.39447
        28.300    23513898.98447
  21943499.797 9 115313884.061 9        48.800                    89854995.32349
        37.800    21943503.61749
  25188397.320 6 132365912.738 6        39.400    25188402.387 6 103142290.48146
        22.800    25188402.12946
  22241068.984 9 116877619.378 9        49.600    22241075.797 8  91073496.63749
        40.400    22241075.31349  22241073.277 5  87278752.601 5        37.300
  20808937.773 9 109351716.083 9        50.700                    85209139.21149
        44.700    20808938.89149
  20007932.891 9 105142346.897 9        49.500                    81929174.77449
        44.900    20007935.25849
  24461268.742 7 128544886.138 7        41.900    24461275.141 6 100164894.68947
        28.500    24461274.49647  24461272.359 2  95991346.449 2        31.600
  24511081.094 5 128806648.497 5        35.600    24511087.828 5 100368857.87745
        17.400    24511087.91445  24511082.289 1  96186807.019 1        24.100
 17  4  9  0 25 30.0000000  0 11G01G32G08G28G14G17G03G22G11G27G10
  20520572.094 9 107836334.130 9        54.700    20520579.211 9  84028353.27949
        48.200    20520578.97349  20520574.781 7  80527166.596 7        42.500
  22353525.781 8 117468599.255 8        47.600    22353532.441 8  91534003.05749
        38.400    22353531.34849  22353528.043 5  87720075.887 5        37.200
  21744046.352 9 114265765.979 9        50.800    21744053.887 9  89038307.18049
        42.900    21744052.88749  21744049.793 6  85328369.724 6        39.300
  23516800.469 7 123581624.046 7        42.000                    96297384.95547
        28.900    23516803.74647
  21940501.242 9 115298125.032 9        48.500                    89842715.58749
        37.400    21940505.03549
  25168845.180 7 132263161.637 7        41.300    25168847.594 5 103062224.62146
        22.500    25168847.21146
  22225241.789 9 116794447.305 9        50.600    22225248.734 8  91008687.24849
        39.900    22225247.92649  22225245.770 5  87216643.601 5        37.500
  20801179.109 9 109310942.314 9        51.700                    85177367.44849
        44.600    20801180.12549
  20006869.719 9 105136762.541 9        48.600                    81924823.31449
        44.700    20006872.56349
  24483016.711 7 128659174.956 7        41.300    24483024.043 7 100253950.94647
        28.100    24483023.33647  24483018.969 1  96076692.023 1        29.800
  24530311.297 3 128907705.178 3        33.900    24530318.355 6 100447603.33245
        16.900    24530318.13345  24530313.270 1  96262271.482 1        24.900
 17  4  9  0 26  0.0000000  0 11G01G32G08G28G14G17G03G22G11G27G10
  20513627.914 9 107799842.824 9        54.100    20513634.707 9  83999918.50549
        48.400    20513634.38749  20513630.250 7  80499916.606 7        42.400
  22360080.883 8 117503047.689 8        47.700    22360087.293 8  91560846.00449
        37.900    22360086.35549  22360083.227 5  87745800.371 5        36.400
  21759968.500 9 114349438.589 9        50.400    21759976.008 9  89103506.60249
        43.000    21759974.89849  21759972.035 6  85390852.502 6        39.500
  23519801.125 7 123597392.198 7        42.100                    96309671.81047
        28.400    23519804.69147
  21937609.375 9 115282928.746 9        48.200                    89830874.33449
        37.900    21937613.33649
  25149312.703 7 132160514.579 7        43.100    25149315.039 6 102982239.79947
        26.500    25149314.79347
  22209469.547 9 116711565.264 9        49.800    22209476.832 8  90944103.84449
        40.100    22209475.71949  22209474.031 5  87154751.175 5        37.400
  20793492.633 9 109270550.805 9        50.900                    85145893.54949
        44.600    20793493.71549
  20005907.930 9 105131706.352 9        48.400                    81920883.42449
        44.600    20005910.62149
  24504779.453 7 128773539.247 7        41.700    24504787.363 7 100343065.93847
        29.700    24504786.80147  24504783.137 1  96162093.962 1        30.400
  24549550.266 5 129008803.891 5        35.200    24549557.059 5 100526381.53545
        16.300    24549556.71145  24549551.789 1  96337767.244 1        27.300
 17  4  9  0 26 30.0000000  0 11G01G32G08G28G14G17G03G22G11G27G10
  20506747.070 9 107763684.409 9        53.400    20506754.270 9  83971743.11149
        48.500    20506754.10949  20506750.152 7  80472915.186 7        42.100
  22366744.727 8 117538066.594 8        47.300    22366751.402 8  91588133.46749
        38.100    22366750.71949  22366746.941 5  87771950.857 5        36.200
  21775963.867 9 114433494.043 9        50.100    21775971.164 9  89169004.33949
        42.600    21775970.04349  21775966.887 6  85453621.162 6        39.500
  23522897.594 7 123613663.792 7        43.300                    96322350.97647
        28.900    23522900.82447
  21934824.867 9 115268296.018 9        48.600                    89819472.22049
        37.300    21934828.51249
  25129798.391 6 132057973.469 6        39.900    25129802.930 6 102902337.69446
        24.700    25129802.45346
  22193753.461 9 116628973.952 9        50.300    22193760.238 8  90879746.98449
        40.300    22193759.27749  22193757.531 5  87093075.857 5        37.600
  20785878.969 9 109230541.084 9        50.700                    85114717.15149
        45.000    20785880.36749
  20005045.961 9 105127178.861 9        48.300                    81917355.50349
        44.600    20005048.87949
  24526556.367 6 128887976.402 6        40.600    24526563.383 6 100432237.73647
        28.500    24526562.44547  24526560.715 3  96247550.245 3        32.500
  24568796.500 5 129109942.878 5        35.500    24568802.199 4 100605191.12545
        16.300    24568802.40245  24568798.480 1  96413293.063 1        26.800
 17  4  9  0 27  0.0000000  0 11G01G32G08G28G14G17G03G22G11G27G10
  20499930.180 9 107727859.791 9        53.400    20499936.840 9  83943827.82349
        48.500    20499936.62949  20499932.785 7  80446163.036 7        43.000
  22373517.109 9 117573654.640 9        48.400    22373523.523 8  91615864.41749
        37.900    22373522.96949  22373518.902 5  87798526.350 5        36.100
  21792031.383 9 114517930.369 9        50.100    21792038.797 9  89234798.87949
        42.900    21792037.66849  21792034.281 6  85516674.259 6        39.600
  23526089.422 7 123630437.976 7        42.500                    96335421.74947
        27.300    23526092.99647
  21932147.758 9 115254226.826 9        48.800                    89808509.23249
        37.500    21932151.13349
  25110306.828 7 131955540.722 7        42.300    25110310.840 6 102822520.08347
        27.100    25110311.04347
  22178091.883 9 116546674.363 9        50.400    22178098.609 9  90815617.44749
        41.200    22178097.96549  22178095.926 5  87031618.380 5        37.700
  20778337.977 9 109190913.574 9        50.300                    85083838.57249
        45.000    20778339.36749
  20004285.359 9 105123180.407 9        48.500                    81914239.82749
        44.700    20004288.52049
  24548346.555 7 129002484.445 7        41.100    24548353.047 6 100521464.78647
        25.200    24548352.01647  24548349.586 1  96333059.477 1        29.900
  24588049.711 2 129211120.636 2        31.600    24588055.633 4 100684031.01445
        15.600    24588055.27045  24588050.875 1  96488847.891 1        24.700
 17  4  9  0 27 30.0000000  0 11G01G32G08G28G14G17G03G22G11G27G10
  20493176.508 9 107692369.926 9        53.600    20493183.859 9  83916173.38949
        48.500    20493183.52349  20493179.742 7  80419660.864 7        42.900
  22380397.008 8 117609810.582 8        47.600    22380403.992 8  91644037.87849
        38.400    22380403.28149  22380399.625 5  87825525.928 5        36.300
  21808171.250 9 114602745.292 9        50.000    21808178.367 9  89300888.42249
        43.000    21808177.22349  21808173.953 6  85580010.070 6        39.000
  23529376.531 7 123647713.585 7        42.600                    96348883.25447
        28.300    23529380.21547
  21929577.953 9 115240722.192 9        49.200                    89797986.14549
        37.700    21929581.56649
  25090836.453 7 131853218.710 7        44.600    25090834.625 1 102742788.48845
        19.900    25090835.73045
  22162486.414 9 116464667.524 9        50.100    22162492.957 8  90751716.02149
        40.600    22162492.57449  22162490.652 5  86970379.517 5        37.900
  20770869.883 9 109151668.003 9        51.900                    85053257.61649
        45.000    20770870.96149
  20003625.234 9 105119711.958 9        48.300                    81911537.13849
        44.800    20003628.32849
  24570150.211 7 129117061.002 7        41.300    24570156.730 7 100610745.24447
        28.100    24570155.80947  24570152.441 1  96418619.929 1        29.900
  24607310.398 1 129312335.928 1        29.100    24607317.039 5 100762900.00645
        15.600    24607316.72745  24607311.805 1  96564430.708 1        24.600
 17  4  9  0 28  0.0000000  0 11G01G32G08G28G14G17G03G22G11G27G10
  20486486.680 9 107657215.976 9        53.300    20486493.973 9  83888780.70349
        48.600    20486493.88349  20486489.867 7  80393409.541 7        42.500
  22387385.375 9 117646533.401 9        48.400    22387391.863 8  91672653.07149
        38.300    22387390.96149  22387387.656 5  87852948.820 5        36.700
  21824382.859 9 114687937.460 9        50.400    21824390.586 9  89367271.91149
        42.300    21824389.50849  21824386.297 6  85643627.594 6        38.500
  23532759.789 7 123665490.097 7        42.500                    96362735.07347
        27.600    23532762.85247
  21927115.883 9 115227783.062 9        48.800                    89787903.72149
        37.800    21927119.22349
  25071384.609 6 131751009.365 6        38.300    25071388.672 5 102663144.73645
        19.900    25071388.14145
  22146936.758 9 116382954.756 9        51.100    22146944.207 8  90688043.74449
        40.300    22146943.21549  22146941.527 6  86909360.249 6        38.100
  20763474.594 9 109112805.008 9        50.300                    85022974.75949
        45.100    20763475.91049
  20003066.203 9 105116774.502 9        48.300                    81909248.20449
        44.600    20003069.02749
  24591965.633 7 129231704.372 7        41.000    24591972.820 7 100700077.73147
        27.900    24591972.23847  24591969.453 2  96504230.260 2        31.700
  24626577.109 2 129413587.435 2        31.000    24626584.387 5 100841797.21543
        13.900    24626584.84443  24626577.930 1  96640040.598 1        24.700
 17  4  9  0 28 30.0000000  0 11G01G32G08G28G14G17G03G22G11G27G10
  20479861.359 9 107622398.904 9        53.800    20479868.477 9  83861650.52349
        48.700    20479868.21549  20479864.254 7  80367409.786 7        42.900
  22394481.258 9 117683821.739 9        48.200    22394487.738 8  91701708.92249
        38.000    22394487.16849  22394483.391 5  87880794.002 5        36.700
  21840665.508 9 114773504.368 9        50.200    21840673.402 9  89433947.41649
        42.700    21840672.57049  21840669.238 6  85707524.943 6        38.900
  23536237.258 7 123683766.250 7        42.000                    96376976.22247
        26.800    23536240.26647
  21924760.789 9 115215409.663 9        49.200                    89778262.11149
        37.500    21924764.23049
  25051958.688 7 131648914.903 7        42.900    25051962.828 7 102583590.80747
        27.900    25051962.04347
  22131443.922 9 116301537.033 9        50.700    22131450.734 8  90624601.37349
        40.500    22131449.59849  22131447.973 5  86848561.314 5        37.900
  20756151.930 9 109074324.929 9        50.700                    84992990.29049
        45.200    20756153.20349
  20002608.469 9 105114368.555 9        48.500                    81907373.43349
        44.700    20002611.43449
  24613794.133 6 129346412.275 6        40.900    24613801.180 6 100789460.49847
        26.500    24613800.20747  24613797.949 3  96589888.713 3        32.800
  24645853.016 3 129514873.53313        33.000    24645858.266 5 100920721.50255
        15.600    24645858.25445  24645852.688 1  96715676.38311        25.300
 17  4  9  0 29  0.0000000  0 11G01G32G08G28G14G17G03G22G11G27G10
  20473300.344 9 107587919.304 9        55.100    20473307.539 9  83834783.30149
        48.700    20473307.02749  20473303.070 7  80341662.035 7        42.600
  22401684.117 9 117721673.971 9        48.400    22401690.570 8  91731204.17149
        38.200    22401689.86349  22401686.266 5  87909060.285 5        36.700
  21857019.422 9 114859443.789 9        49.600    21857027.090 9  89500913.19049
        42.100    21857026.00849  21857022.852 6  85771700.474 6        38.600
  23539811.039 7 123702540.817 7        42.500                    96391605.73347
        27.700    23539814.01647
  21922514.008 9 115203602.378 9        49.600                    89769061.64549
        37.500    21922517.68849
  25032553.578 7 131546937.876 7        44.700    25032555.383 5 102504128.11347
        25.400    25032554.19947
  22116006.750 9 116220415.096 9        50.500    22116013.449 8  90561389.47549
        40.200    22116012.63749  22116011.188 5  86787983.257 5        37.800
  20748902.492 9 109036227.510 9        51.400                    84963303.99149
        45.200    20748903.40649
  20002251.891 9 105112494.346 9        48.300                    81905913.00149
        44.700    20002254.87549
  24635633.984 7 129461182.417 7        41.400    24635641.004 6 100878891.81747
        26.400    24635639.83647  24635637.641 1  96675593.705 1        30.400
  24665132.875 1 129616192.543 1        30.700    24665138.059 3 100999671.45544
        14.800    24665138.61744  24665134.164 1  96791336.713 1        26.200
 17  4  9  0 29 30.0000000  0 11G01G32G08G28G14G17G03G22G11G27G10
  20466803.344 9 107553778.247 9        54.100    20466810.504 9  83808179.87049
        48.700    20466810.24649  20466806.461 7  80316167.082 7        43.000
  22408994.406 9 117760088.886 9        49.400    22409000.828 8  91761137.87649
        38.400    22409000.14149  22408996.895 5  87937746.748 5        36.300
  21873443.484 9 114945753.624 9        49.800    21873450.766 9  89568167.59749
        41.800    21873449.62149  21873446.582 6  85836152.610 6        38.700
  23543478.094 7 123721812.814 7        42.600                    96406622.87647
        28.300    23543480.68047
  21920375.211 8 115192361.801 8        47.900                    89760302.77249
        37.600    21920378.13349
  25013167.773 6 131445080.398 6        39.900    25013171.781 5 102424758.65545
        19.300    25013170.00845
  22100626.352 9 116139590.088 9        51.500    22100633.223 8  90498408.96349
        40.800    22100632.71149  22100630.672 6  86727626.928 6        38.000
  20741725.805 9 108998512.957 9        51.200                    84933916.02449
        45.400    20741726.68049
  20001996.672 9 105111152.709 9        48.700                    81904867.56849
        45.200    20001999.48449
  24657485.922 7 129576012.690 7        41.000    24657492.629 7 100968369.93247
        27.200    24657491.75447  24657488.094 1  96761343.596 1        29.900
  24684417.906 1 129717543.41711        28.300    24684425.242 4 101078637.22314
        34.000                    24684420.660 1  96867020.82411        24.900
 17  4  9  0 30  0.0000000  0 11G01G32G08G28G14G17G03G22G11G27G10
  20460371.258 9 107519976.721 9        54.500    20460378.066 9  83781841.01549
        48.800    20460377.80149  20460373.785 7  80290925.675 7        42.300
  22416410.789 9 117799065.129 9        49.900    22416417.539 8  91791508.97549
        38.300    22416416.86749  22416413.797 5  87966852.391 5        36.600
  21889938.234 9 115032431.956 9        49.800    21889945.105 9  89635709.15149
        42.000    21889944.02749  21889940.641 6  85900879.935 6        38.800
  23547239.461 7 123741581.050 7        42.800                    96422026.70947
        28.300    23547242.78947
  21918344.008 8 115181688.261 8        47.300                    89751985.74249
        38.300    21918347.93449
  24993811.039 7 131343344.782 7        44.300    24993813.609 6 102345484.14247
        26.000    24993813.09847
  22085302.578 9 116059063.038 9        50.900    22085309.371 8  90435660.62649
        40.900    22085308.34049  22085306.891 6  86667493.105 6        38.400
  20734621.641 9 108961181.365 9        50.600                    84904826.48049
        45.400    20734622.74649
  20001842.641 9 105110344.250 9        48.400                    81904237.59449
        44.600    20001845.42249
  24679347.758 7 129690901.011 7        41.100    24679355.270 7 101057893.27447
        27.900    24679354.59047  24679351.980 2  96847136.826 2        31.300
  24703709.586 1 129818924.53311        29.100    24703718.086 5 101157635.50115
        36.100                    24703711.754 1  96942727.48811        22.200
 17  4  9  0 30 30.0000000  0 11G01G32G08G28G14G17G03G22G11G27G10
  20454003.648 9 107486515.499 9        55.100    20454010.711 9  83755767.33949
        48.800    20454010.30549  20454006.344 7  80265938.402 7        42.500
  22423934.711 9 117838601.180 9        48.800    22423941.004 8  91822316.29249
        37.700    22423939.98849  22423937.207 5  87996376.062 5        36.200
  21906501.977 9 115119476.613 9        49.800    21906509.328 9  89703536.15049
        41.700    21906508.19149  21906505.094 6  85965880.811 6        38.600
  23551095.031 7 123761844.566 7        42.400                    96437816.43447
        26.600    23551098.34447
  21916420.836 9 115171582.190 9        48.800                    89744110.89149
        38.100    21916425.06349
  24974472.898 6 131241733.182 6        39.700    24974477.449 5 102266306.26646
        23.400    24974477.16046
  22070035.852 9 115978834.828 9        51.500    22070042.352 8  90373145.13449
        40.200    22070041.53149  22070040.316 6  86607582.438 6        38.300
  20727590.766 9 108924232.748 9        52.400                    84876035.36249
        45.500    20727591.50849
  20001790.188 9 105110069.364 9        48.800                    81904023.38349
        44.800    20001793.11349
  24701221.203 6 129805845.123 6        40.500    24701227.363 6 101147460.11047
        25.600    24701226.96147  24701224.586 2  96932971.669 2        31.100
  24723008.477 3 129920334.40113        32.300    24723015.883 5 101236606.10053
        13.900    24723014.35943  24723009.496 1  97018455.71411        22.000
 17  4  9  0 31  0.0000000  0 11G01G32G08G28G14G17G03G22G11G27G10
  20447701.203 9 107453395.695 9        54.000    20447708.133 9  83729959.69849
        48.800    20447707.83249  20447703.875 7  80241206.086 7        42.500
  22431564.453 9 117878695.798 9        49.300    22431571.277 8  91853558.84649
        38.000    22431570.38349  22431567.250 5  88026316.853 5        35.700
  21923135.227 9 115206885.259 9        49.100    21923142.457 9  89771646.76649
        42.100    21923141.81349  21923138.480 6  86031153.481 6        38.800
  23555045.141 7 123782601.899 7        42.100                    96453990.97547
        27.800    23555048.39847
  21914605.695 8 115162044.156 8        47.100                    89736678.66249
        38.600    21914609.34849
  24955161.492 7 131140247.992 7        42.500    24955164.828 5 102187226.91946
        21.800    24955163.52046
  22054825.406 9 115898906.592 9        51.800    22054832.273 8  90310863.39849
        40.300    22054831.41049  22054829.840 6  86547895.777 6        38.300
  20720632.313 9 108887667.344 9        51.300                    84847542.84349
        45.600    20720633.44549
  20001839.703 9 105110329.072 9        48.800                    81904225.74449
        44.700    20001842.60549
  24723104.836 6 129920843.032 6        40.100    24723111.168 6 101237068.88847
        26.000    24723110.46547  24723107.391 1  97018846.734 1        29.500
  24742310.844 1 130021771.87411        29.900    24742319.035 3 101315648.41553
        13.900    24742318.53543  24742313.090 1  97094204.51911        22.600
 17  4  9  0 31 30.0000000  0 11G01G32G08G28G14G17G03G22G11G27G10
  20441463.891 9 107420617.984 9        54.600    20441470.684 9  83704418.63749
        48.800    20441470.41449  20441466.395 7  80216729.234 7        42.500
  22439300.453 9 117919347.302 9        49.500    22439306.047 8  91885235.35149
        38.100    22439305.45349  22439301.914 5  88056673.504 5        35.800
  21939837.328 9 115294655.980 9        49.400    21939844.805 9  89840039.52049
        42.100    21939844.05149  21939840.836 6  86096696.535 6        38.800
  23559089.258 7 123803852.122 7        41.800                    96470549.56447
        28.300    23559092.71147
  21912899.281 9 115153074.636 9        48.200                    89729689.43449
        38.100    21912903.03549
  24935874.086 7 131038891.551 7        44.100    24935879.211 6 102108247.75647
        28.800    24935878.21147
  22039673.266 9 115819279.080 9        51.600    22039680.398 8  90248815.99649
        40.900    22039679.71549  22039677.324 5  86488433.681 5        37.800
  20713747.063 9 108851485.161 9        51.200                    84819348.94249
        45.500    20713748.31349
  20001990.945 9 105111123.584 9        48.100                    81904844.83649
        44.700    20001993.57449
  24744998.188 7 130035892.377 7        41.000    24745005.313 6 101326717.73347
        26.900    24745004.73847  24745001.250 1  97104760.267 1        30.400
  24761618.727 3                        32.900

 17  4  9  0 32  0.0000000  0 11G01G32G08G28G14G17G03G22G11G27G10
  20435291.797 9 107388183.234 9        54.900    20435298.539 9  83679144.80649
        48.900    20435298.23449  20435294.453 7  80192508.478 7        42.700
  22447141.938 9 117960554.156 9        48.700    22447147.969 8  91917344.59749
        37.400    22447147.22749  22447143.922 5  88087444.865 5        36.100
  21956607.969 9 115382786.265 9        49.500    21956615.320 9  89908712.46349
        41.800    21956614.34849  21956611.313 6  86162508.110 6        38.200
  23563227.398 7 123825593.974 7        42.800                    96487491.25547
        27.300    23563230.64147
  21911300.156 8 115144673.736 8        47.200                    89723143.27949
        38.500    21911304.12149
  24916611.516 7 130937666.339 7        42.000    24916616.414 7 102029370.97147
        25.800    24916615.48047
  22024577.859 9 115739953.203 9        51.600    22024584.949 9  90187003.63249
        41.400    22024584.19149  22024582.328 6  86429196.832 6        38.000
  20706934.781 9 108815686.218 9        50.700                    84791453.66049
        45.500    20706935.68849
  20002243.805 9 105112453.341 9        48.300                    81905881.00549
        44.900    20002247.16049
  24766900.398 6 130150990.974 6        40.600    24766906.656 6 101416404.93347
        25.600    24766906.83647  24766903.641 1  97190710.510 1        30.600
  24780932.078 5 130224723.157 5        37.400    24780937.043 1 101473842.25711
        28.600                    24780933.215 1  97245758.98411        22.200
 17  4  9  0 32 30.0000000  0 11G01G32G08G28G14G17G03G22G11G27G10
  20429185.070 9 107356092.750 9        54.800    20429192.172 9  83654139.23249
        49.100    20429191.98849  20429187.855 7  80168544.807 7        42.500
  22455088.523 9 118002315.307 9        48.600    22455094.938 8  91949885.75249
        37.600    22455094.28149  22455090.563 5  88118630.144 5        36.600
  21973446.656 9 115471274.347 9        49.300    21973454.051 9  89977664.20949
        41.400    21973453.25849  21973450.160 6  86228586.861 6        38.300
  23567457.031 7 123847826.354 7        41.700                    96504815.19047
        28.000    23567460.65247
  21909810.188 8 115136842.307 8        47.600                    89717040.87149
        38.000    21909813.68849
  24897374.141 7 130836574.138 7        41.300    24897378.063 6 101950597.92246
        24.100    24897377.84046
  22009540.461 9 115660930.336 9        51.500    22009547.277 9  90125427.38449
        41.600    22009546.69549  22009544.305 6  86370186.265 6        38.100
  20700195.367 9 108780270.849 9        50.800                    84763857.28049
        45.700    20700196.43849
  20002599.188 9 105114319.149 9        49.600                    81907334.86949
        45.300    20002602.21549
  24788812.109 6 130266137.111 6        40.400    24788817.969 6 101506129.21546
        24.400    24788817.53546  24788814.867 1  97276696.211 1        29.800
  24800249.563 5 130326234.491 5        37.500    24800253.902 1 101552942.033 1
        28.900                    24800248.492 1  97321562.969 1        20.600
 17  4  9  0 33  0.0000000  0 11G01G32G08G28G14G17G03G22G11G27G10
  20423144.188 9 107324347.181 9        55.200    20423151.031 9  83629402.42249
        49.100    20423150.64149  20423146.738 7  80144838.701 7        42.800
  22463140.305 9 118044628.976 9        48.500    22463146.836 8  91982857.45249
        37.600    22463146.03149  22463142.375 5  88150228.014 5        35.800
  21990353.023 9 115560117.673 9        48.800    21990360.984 9  90046892.76649
        41.400    21990359.75449  21990356.949 6  86294930.889 6        38.900
  23571780.734 7 123870548.041 7        41.800                    96522520.37347
        27.100    23571783.78547
  21908428.023 8 115129580.198 8        47.900                    89711382.09249
        38.100    21908431.79749
  24878162.539 7 130735617.603 7        43.400    24878165.887 5 101871930.43546
        23.800    24878164.65246
  21994560.430 9 115582211.140 9        51.600    21994567.734 9  90064087.75849
        40.700    21994567.19549  21994565.043 6  86311402.455 6        38.200
  20693529.266 9 108745239.012 9        50.800                    84736559.74349
        46.200    20693530.22749
  20003056.242 9 105116721.397 9        49.100                    81909206.74549
        44.700    20003059.25049
  24810731.422 6 130381328.286 6        39.400    24810739.051 6 101595888.60447
        26.500    24810737.98047  24810734.609 1  97362715.652 1        30.200
  24819569.453 5 130427767.584 5        36.100    24819577.547 3 101632025.65153
        13.900    24819577.69943
 17  4  9  0 33 30.0000000  0 11G01G32G08G28G14G17G03G22G11G27G10
  20417168.820 9 107292947.356 9        53.800    20417175.984 9  83604935.03149
        49.300    20417175.55549  20417171.480 7  80121390.781 7        42.300
  22471297.211 8 118087493.525 8        47.500    22471304.109 8  92016258.39849
        38.000    22471303.25449  22471299.129 5  88182237.252 5        36.100
  22007326.938 9 115649314.144 9        49.100    22007334.383 9  90116396.49749
        41.200    22007333.48449  22007330.152 6  86361538.639 6        38.200
  23576197.898 7 123893757.579 7        42.700                    96540605.73547
        28.500    23576201.43847
  21907154.555 8 115122887.858 8        47.800                    89706167.30049
        38.100    21907158.06349
  24858978.188 7 130634798.871 7        44.600    24858982.113 6 101793370.33647
        26.800    24858981.39547
  21979638.758 9 115503796.479 9        50.800    21979645.758 9  90002985.43349
        41.300    21979644.95749  21979643.332 6  86252846.056 6        38.600
  20686935.578 9 108710590.410 9        50.500                    84709560.83049
        46.000    20686936.77749
  20003615.539 9 105119660.427 9        48.700                    81911496.89449
        44.900    20003618.63749
  24832659.820 6 130496562.401 6        39.100    24832667.102 6 101685681.35846
        22.800    24832666.79746  24832663.016 1  97448767.084 1        29.500
  24838894.805 4                        34.400

 17  4  9  0 34  0.0000000  0 11G01G32G08G28G14G17G03G22G11G27G10
  20411259.789 9 107261894.461 9        54.300    20411267.223 9  83580737.97749
        49.100    20411266.96149  20411262.887 7  80098201.940 7        43.000
  22479558.758 9 118130907.717 9        48.800    22479565.715 8  92050087.64349
        37.800    22479564.87949  22479561.047 5  88214656.946 5        36.000
  22024367.164 9 115738861.990 9        48.800    22024374.258 9  90186174.02849
        41.300    22024373.31349  22024370.039 6  86428408.770 6        38.200
  23580707.367 7 123917454.130 7        41.700                    96559070.58147
        27.000    23580710.03147
  21905989.531 9 115116765.837 9        48.000                    89701396.90249
        37.400    21905992.99649
  24839819.453 7 130534120.675 7        43.700    24839824.055 6 101714919.88847
        26.700    24839823.75047
  21964775.180 9 115425687.583 9        51.200    21964782.000 9  89942121.35849
        41.300    21964781.05149  21964779.133 5  86194517.990 5        37.900
  20680415.547 9 108676325.589 9        51.200                    84682860.96949
        45.900    20680416.25449
  20004277.094 9 105123136.976 9        50.200                    81914205.88749
        44.700    20004280.11749
  24854595.359 6 130611837.500 6        40.100    24854603.344 6 101775506.14746
        23.800    24854603.46146  24854600.676 3  97534849.141 3        32.100
  24858223.734 2                        31.800

 17  4  9  0 34 30.0000000  0 11G01G32G08G28G14G17G03G22G11G27G10
  20405416.711 9 107231189.251 9        53.800    20405424.191 9  83556811.85349
        49.300    20405423.73049  20405419.480 7  80075272.740 7        43.000
  22487924.539 9 118174869.834 9        48.600    22487930.605 8  92084343.84449
        37.400    22487929.82449  22487926.754 5  88247485.813 5        36.200
  22041473.992 9 115828758.733 9        49.100    22041481.332 9  90256223.42449
        41.500    22041480.18049  22041477.199 6  86495539.438 6        38.600
  23585309.047 7 123941635.867 7        41.300                    96577913.45547
        27.000    23585311.59447
  21904932.906 8 115111214.387 8        47.000                    89697071.10449
        37.600    21904936.56349
  24820688.094 7 130433585.138 7        43.800    24820691.617 6 101636580.50947
        25.900    24820691.85247
  21949970.078 9 115347885.193 9        51.300    21949976.996 8  89881496.13249
        41.100    21949975.83649  21949973.914 6  86136418.817 6        38.100
  20673968.055 9 108642444.374 9        50.700                    84656460.02949
        46.000    20673969.11349
  20005041.078 9 105127151.437 9        50.300                    81917334.01449
        45.300    20005043.80149
  24876539.555 6 130727151.263 6        40.800    24876545.922 6 101865361.06446
        24.500    24876545.48446  24876542.410 1  97620960.055 1        29.600
  24877556.547 3 130732484.35913        32.500    24877561.707 3 101869500.26413
        33.900
 17  4  9  0 35  0.0000000  0 11G01G32G08G28G14G17G03G22G11G27G10
  20399639.984 9 107200832.699 9        53.700    20399646.895 9  83533157.39149
        49.200    20399646.66049  20399642.465 7  80052603.877 7        42.600
  22496394.086 8 118219378.369 8        47.000    22496400.914 8  92119025.81849
        36.900    22496400.10249  22496396.676 5  88280722.705 5        35.700
  22058646.742 9 115919002.004 9        49.000    22058654.258 9  90326542.84349
        41.100    22058653.22749  22058650.422 6  86562928.881 6        38.600
  23590002.648 7 123966301.804 7        42.400                    96597133.66447
        27.100    23590005.40247
  21903985.617 8 115106233.427 8        47.900                    89693189.84749
        38.300    21903988.90649
  24801583.766 7 130333194.483 7        42.000    24801587.539 5 101558353.98046
        24.400    24801586.83246
  21935223.258 9 115270390.339 9        51.400    21935230.102 9  89821110.54049
        41.600    21935229.14149  21935227.809 6  86078549.286 6        38.800
  20667593.844 9 108608947.011 9        50.600                    84630358.19849
        45.800    20667594.65249
  20005907.398 9 105131704.090 9        49.700                    81920881.53549
        44.700    20005909.96549
  24898490.727 7 130842501.667 7        41.000    24898497.617 6 101955244.46746
        24.300    24898496.81646  24898492.449 1  97707098.379 1        27.600
  24896892.484 2 130834091.52712        31.600    24896897.566 3 101948674.74213
        33.600                    24896892.266 1  97700752.78911        26.000
 17  4  9  0 35 30.0000000  0 11G01G32G08G28G14G17G03G22G11G27G10
  20393929.789 9 107170825.487 9        55.100    20393936.773 9  83509775.15949
        49.400    20393936.63749  20393932.441 7  80030195.908 7        43.200
  22504967.211 8 118264431.495 8        47.500    22504973.922 8  92154132.15549
        37.600    22504973.29749  22504969.816 5  88314366.276 5        36.300
  22075884.867 9 116009589.788 9        48.700    22075892.527 9  90397130.71649
        40.200    22075891.19149  22075887.980 6  86630575.590 6        38.100
  23594788.461 7 123991450.365 7        42.100                    96616729.91847
        27.400    23594791.76247
  21903146.297 8 115101823.200 8        47.300                    89689753.32549
        37.500    21903149.85549
  24782509.070 8 130232950.927 8        45.300    24782512.031 6 101480242.11547
        26.500    24782511.66047
  21920535.180 9 115193203.731 9        52.100    21920542.063 8  89760965.13449
        41.400    21920541.06649  21920539.789 6  86020909.954 6        38.400
  20661292.242 9 108575833.127 9        51.000                    84604555.18449
        46.200    20661293.78949
  20006876.273 9 105136795.439 9        49.800                    81924848.81449
        45.100    20006879.35549
  24920447.977 7 130957886.368 7        41.400    24920454.094 6 102045154.58846
        22.500    24920453.39146  24920450.664 2  97793262.276 2        31.200
  24916228.039 2 130935713.65512        31.300    24916235.684 4 102027860.84014
        34.400                    24916230.617 1  97776639.44411        24.900
 17  4  9  0 36  0.0000000  0 11G01G32G08G28G14G17G03G22G11G27G10
  20388286.586 9 107141168.868 9        53.900    20388294.051 9  83486666.09849
        49.600    20388293.71549  20388289.520 7  80008049.722 7        42.300
  22513644.125 8 118310027.946 8        47.600    22513650.781 8  92189661.86549
        37.400    22513649.83649  22513646.590 5  88348415.579 5        35.100
  22093188.109 9 116100519.772 9        48.600    22093195.547 8  90467985.23249
        40.400    22093194.56349  22093191.523 5  86698477.829 5        37.600
  23599664.813 7 124017080.667 7        41.000                    96636701.57547
        26.500    23599668.90247
  21902415.563 8 115097984.304 8        47.500                    89686761.99349
        38.100    21902419.04749
  24763461.023 7 130132857.188 7        42.000    24763464.777 6 101402247.00646
        23.400    24763464.73046
  21905905.852 9 115116326.602 9        51.900    21905913.086 9  89701060.88249
        42.000    21905912.15649  21905910.527 6  85963501.709 6        38.600
  20655063.961 9 108543103.148 9        50.600                    84579051.31249
        46.400    20655064.97749
  20007947.672 9 105142426.171 9        50.700                    81929236.38449
        45.400    20007950.42249
  24942410.141 6 131073303.561 6        40.400    24942417.395 6 102135090.11146
        23.600    24942416.53146  24942414.043 1  97879450.426 1        30.000
  24935570.125 3 131037349.80313        32.200    24935575.488 5 102107013.78555
        16.300    24935575.80945  24935570.652 1  97852536.55111        25.500
 17  4  9  0 36 30.0000000  0 11G01G32G08G28G14G17G03G22G11G27G10
  20382709.961 9 107111863.480 9        53.700    20382717.000 9  83463830.73349
        49.600    20382716.75849  20382712.738 7  79986165.828 7        42.600
  22522423.977 9 118356165.787 9        48.000    22522430.227 8  92225613.44049
        36.800    22522429.37149  22522426.063 5  88382869.170 5        35.400
  22110556.438 9 116191789.732 9        48.600    22110564.027 9  90539104.66249
        40.400    22110563.11349  22110560.133 5  86766633.950 5        37.200
  23604633.992 7 124043190.940 7        41.900                    96657047.23447
        27.400    23604637.27347
  21901793.859 8 115094716.447 8        47.600                    89684215.62349
        37.700    21901797.44149
  24744442.563 7 130032915.230 7        42.900    24744447.570 6 101324370.22447
        25.400    24744446.95747
  21891335.430 9 115039759.549 9        51.700    21891342.125 9  89641398.24649
        41.800    21891341.37149  21891339.629 6  85906325.022 6        38.100
  20648908.461 9 108510756.787 9        50.900                    84553846.36449
        46.100    20648909.57449
  20009121.758 9 105148596.238 9        50.400                    81934044.21749
        45.200    20009124.81349
  24964378.891 6 131188750.700 6        39.500    24964386.090 6 102225048.93446
        22.900    24964384.92246  24964382.781 1  97965660.960 1        30.100
  24954911.719 2 131138998.20212        31.800    24954919.105 5 102186220.33355
        16.900    24954918.88345  24954914.082 1  97928442.84611        23.300
 17  4  9  0 37  0.0000000  0 11G01G32G08G28G14G17G03G22G11G27G10
  20377200.203 9 107082910.146 9        54.300    20377207.586 9  83441269.69349
        49.600    20377207.17649  20377203.160 7  79964544.836 7        42.700
  22531306.555 8 118402843.343 8        47.200    22531312.750 8  92261985.56449
        36.400    22531312.30949  22531308.648 5  88417725.792 5        36.100
  22127988.859 9 116283397.331 9        49.100    22127996.242 9  90610487.18949
        40.200    22127995.25449  22127991.980 5  86835042.203 5        37.300
  23609693.203 7 124069779.863 7        41.100                    96677765.87247
        26.000    23609696.09047
  21901280.422 8 115092019.960 8        47.600                    89682114.48049
        37.900    21901284.24649
  24725454.016 7 129933127.547 7        43.800    24725457.551 6 101246613.56947
        26.500    24725457.44947
  21876824.516 9 114963503.457 9        52.000    21876831.512 9  89581977.93149
        41.500    21876830.73049  21876829.160 6  85849380.546 6        38.600
  20642826.289 9 108478793.924 9        50.800                    84528940.24649
        46.000    20642827.24249
  20010398.563 9 105155306.159 9        50.700                    81939272.71849
        44.700    20010401.88349
  24986353.648 6 131304225.843 6        39.300    24986361.262 6 102315029.56047
        25.800    24986360.51247  24986356.672 1  98051892.423 1        27.000
  24974258.461 3 131240657.586 3        32.000    24974264.027 5 102265435.40445
        15.600    24974264.10945  24974259.309 1  98004357.323 1        24.300
 17  4  9  0 37 30.0000000  0 11G01G32G08G28G14G17G03G22G11G27G10
  20371757.805 9 107054309.943 9        54.100    20371764.660 9  83418983.81949
        49.500    20371764.37149  20371760.293 7  79943187.546 7        42.900
  22540291.328 8 118450059.082 8        47.800    22540297.672 8  92298777.05049
        36.800    22540296.96149  22540293.422 5  88452984.300 5        35.800
  22145485.133 9 116375340.340 9        49.500    22145492.512 8  90682131.08349
        40.400    22145491.60249  22145488.621 5  86903700.929 5        37.900
  23614843.953 7 124096846.208 7        41.400                    96698856.51747
        27.400    23614847.62547
  21900876.109 8 115089894.793 8        47.000                    89680458.51049
        38.000    21900879.51649
  24706494.828 7 129833496.465 7        42.700    24706498.785 6 101168978.93446
        23.900    24706499.03146
  21862372.484 9 114887559.357 9        51.900    21862379.551 9  89522800.70449
        42.000    21862378.78949  21862377.516 6  85792669.041 6        38.500
  20636816.984 9 108447214.915 9        50.700                    84504333.23249
        46.300    20636818.17249
  20011778.508 9 105162556.287 9        50.800                    81944922.16449
        44.900    20011781.48849
  25008332.922 6 131419726.821 6        40.600    25008339.211 6 102405030.27246
        22.900    25008338.98846  25008336.148 1  98138143.189 1        30.900
  24993604.805 3 131342326.948 3        33.000    24993610.277 4 102344658.14245
        15.600    24993610.59045  24993606.313 1  98080279.176 1        25.500
 17  4  9  0 38  0.0000000  0 11G01G32G08G28G14G17G03G22G11G27G10
  20366382.641 9 107026063.618 9        55.000    20366389.645 9  83396973.69149
        49.600    20366389.23449  20366385.219 7  79922094.504 7        43.200
  22549378.266 8 118497811.212 8        47.500    22549384.645 8  92335986.49549
        37.000    22549383.72749  22549380.594 5  88488643.349 5        35.900
  22163044.398 9 116467616.333 9        48.400    22163051.980 8  90754034.43949
        39.900    22163050.98049  22163047.766 5  86972608.311 5        36.900
  23620085.469 7 124124388.304 7        41.800                    96720317.88047
        27.000    23620089.29747
  21900580.383 8 115088341.171 8        47.600                    89679247.90649
        37.400    21900584.34849
  24687565.609 7 129734024.573 7        43.700    24687570.055 6 101091468.32647
        25.300    24687569.57047
  21847980.352 9 114811928.001 9        52.000    21847987.023 9  89463867.18549
        42.100    21847986.20749  21847985.051 6  85736191.086 6        38.700
  20630880.461 9 108416019.372 9        51.500                    84480025.02349
        46.300    20630882.00449
  20013260.992 9 105170347.020 9        50.500                    81950992.85749
        44.700    20013263.88749
  25030316.375 6 131535251.478 6        40.100    25030322.895 5 102495049.55346
        22.200    25030321.85546  25030319.773 1  98224411.518 1        30.400
  25012953.961 3 131444004.707 3        33.000    25012958.672 2 102423887.71354
        14.800    25012958.82044  25012955.773 1  98156207.381 1        26.700
 17  4  9  0 38 30.0000000  0 11G01G32G08G28G14G17G03G22G11G27G10
  20361074.859 9 106998172.250 9        55.100    20361082.703 9  83375240.15149
        49.600    20361082.19949  20361078.125 7  79901266.525 7        42.800
  22558567.078 8 118546098.155 8        47.700    22558573.234 8  92373612.70149
        36.900    22558572.30949  22558569.180 5  88524701.797 5        36.000
  22180666.945 9 116560223.165 9        48.200    22180674.422 8  90826195.59349
        39.800    22180673.53949  22180670.031 5  87041762.753 5        37.600
  23625417.203 7 124152404.923 7        41.700                    96742149.00947
        27.400    23625420.08247
  21900393.883 8 115087359.201 8        47.100                    89678482.74149
        38.000    21900397.70749
  24668668.508 7 129634714.312 7        44.700    24668672.457 6 101014083.71747
        27.900    24668672.20347
  21833647.789 9 114736610.412 9        51.900    21833654.898 9  89405178.15649
        42.100    21833654.15249  21833652.996 6  85679947.448 6        38.600
  20625017.023 9 108385207.574 9        51.600                    84456015.83849
        46.300    20625018.14849
  20014846.398 9 105178678.832 9        50.500                    81957485.17249
        45.000    20014849.57849
  25052302.789 5 131650797.747 5        37.900    25052311.242 6 102585085.58946
        23.000    25052310.51646  25052307.090 1  98310696.126 1        27.900
  25032304.016 3 131545689.796 3        33.200    25032309.730 4 102503122.80254
        14.800    25032308.75044  25032304.297 1  98232140.995 1        22.200
 17  4  9  0 39  0.0000000  0 11G01G32G08G28G14G17G03G22G11G27G10
  20355835.148 9 106970636.670 9        55.200    20355842.559 9  83353783.85649
        49.600    20355842.01649  20355838.059 7  79880704.248 7        42.600
  22567857.047 9 118594918.153 9        48.000    22567863.441 8  92411654.26949
        36.900    22567862.71549  22567859.055 5  88561158.302 5        35.400
  22198352.133 9 116653158.875 9        48.400    22198360.012 9  90898613.00649
        40.000    22198358.97349  22198355.938 5  87111162.772 5        37.500
  23630837.836 7 124180894.427 7        41.600                    96764348.60647
        26.300    23630841.50847
  21900315.953 8 115086949.022 8        47.700                    89678163.13649
        37.600    21900319.56649
  24649801.359 8 129535567.458 8        45.000    24649805.133 6 100936826.45647
        27.000    24649805.17647
  21819375.641 9 114661607.418 9        52.500    21819381.945 9  89346734.28149
        41.600    21819381.20349  21819379.637 6  85623938.730 6        38.300
  20619226.609 9 108354779.296 9        51.700                    84432305.50349
        46.200    20619228.09449
  20016534.781 9 105187551.921 9        50.400                    81964399.25849
        45.000    20016537.98449
  25074295.797 6 131766363.620 6        40.900    25074302.297 6 102675136.91046
        22.800    25074301.77346  25074298.758 1  98396995.291 1        28.900
  25051655.063 3 131647380.833 3        33.100    25051661.359 5 102582362.57945
        17.400    25051661.01645  25051655.449 1  98308079.240 1        23.300
 17  4  9  0 39 30.0000000  0 11G01G32G08G28G14G17G03G22G11G27G10
  20350663.188 9 106943457.619 9        54.800    20350670.371 9  83332605.37049
        49.700    20350669.96549  20350666.184 7  79860408.203 7        43.000
  22577248.086 8 118644269.319 8        47.600    22577254.625 8  92450109.72449
        36.800    22577254.00449  22577250.406 5  88598011.449 5        35.200
  22216099.281 9 116746420.730 9        48.800    22216106.574 8  90971284.56849
        40.400    22216105.53549  22216102.617 6  87180806.348 6        38.100
  23636348.930 7 124209855.375 7        41.300                    96786915.55047
        27.100    23636352.56647
  21900346.305 8 115087110.464 8        47.000                    89678288.94649
        37.500    21900350.02349
  24630965.883 7 129436586.577 7        44.100    24630969.840 6 100859698.46647
        26.700    24630970.09847
  21805162.742 9 114586919.739 9        52.700    21805169.461 9  89288536.08449
        41.700    21805168.84849  21805166.691 6  85568165.461 6        38.500
  20613509.625 9 108324734.086 9        52.600                    84408893.64549
        46.600    20613510.44949
  20018326.195 9 105196966.433 9        50.300                    81971735.23249
        44.700    20018329.28149
  25096289.633 6 131881946.593 6        39.100    25096297.359 6 102765201.58746
        21.800    25096296.30546  25096293.695 1  98483307.298 1        29.100
  25071007.195 4 131749076.484 4        34.700    25071012.801 5 102661605.92545
        16.300    25071012.59845  25071008.617 1  98384020.783 1        25.500
 17  4  9  0 40  0.0000000  0 11G01G32G08G28G14G17G03G22G11G27G10
  20345559.227 9 106916636.151 9        55.000    20345566.445 9  83311705.52049
        49.600    20345566.14149  20345562.184 7  79840379.171 7        43.000
  22586739.711 9 118694150.090 9        48.100    22586746.348 8  92488977.86449
        36.300    22586745.68849  22586742.145 5  88635260.071 5        35.800
  22233908.227 9 116840006.729 9        48.500    22233915.453 8  91044208.72249
        40.600    22233914.26249  22233910.988 5  87250691.993 5        36.800
  23641949.789 7 124239286.667 7        41.800                    96809849.00747
        28.100    23641953.66047
  21900485.570 8 115087843.624 8        47.000                    89678860.24949
        37.500    21900489.02349
  24612161.992 7 129337774.301 7        43.900    24612165.746 6 100782701.82347
        26.000    24612165.96947
  21791010.414 9 114512548.401 9        52.400    21791017.289 9  89230584.39449
        42.400    21791016.62949  21791014.711 6  85512628.419 6        39.200
  20607865.250 9 108295072.930 9        52.100                    84385781.06049
        46.400    20607865.98449
  20020220.961 9 105206922.802 9        50.900                    81979493.44249
        45.100    20020224.21949
  25118287.555 6 131997544.933 6        39.800    25118293.656 5 102855278.14646
        20.100    25118293.00846  25118291.164 1  98569630.680 1        30.800
  25090360.641 5 131850775.466 5        35.300    25090365.020 4 102740851.95145
        16.900    25090365.50845  25090360.586 1  98459964.892 1        25.800
 17  4  9  0 40 30.0000000  0 11G01G32G08G28G14G17G03G22G11G27G10
  20340523.563 9 106890173.132 9        54.100    20340530.664 9  83291084.98849
        49.700    20340530.19949  20340526.008 7  79820617.829 7        42.700
  22596332.680 8 118744558.584 8        47.400    22596339.066 8  92528257.21149
        36.400    22596338.28949  22596334.805 5  88672902.784 5        35.700
  22251778.102 9 116933914.457 9        48.100    22251785.617 8  91117383.57149
        39.900    22251784.91049  22251781.285 5  87320817.893 5        36.900
  23647639.992 7 124269186.238 7        42.300                    96833147.37347
        27.400    23647641.92647
  21900733.648 8 115089148.733 8        47.000                    89679877.23549
        37.600    21900737.66449
  24593391.586 8 129239132.953 8        45.300    24593395.973 7 100705838.45647
        28.900    24593395.84447
  21776918.266 9 114438494.216 9        52.200    21776925.629 9  89172879.84449
        42.600    21776924.87949  21776923.309 6  85457328.221 6        38.600
  20602294.047 9 108265795.139 9        51.900                    84362967.19649
        46.700    20602294.74249
  20022218.852 9 105217421.300 9        50.500                    81987674.08449
        45.300    20022221.82449
  25140287.508 6 132113156.284 6        40.400    25140294.633 6 102945365.01846
        21.300    25140293.46546  25140292.086 1  98655963.775 1        30.800
  25109712.602 3 131952476.729 3        32.400    25109718.293 4 102820099.77545
        15.600    25109718.52745  25109714.957 1  98535910.519 1        25.200
 17  4  9  0 41  0.0000000  0 11G01G32G08G28G14G17G03G22G11G27G10
  20335556.219 9 106864069.556 9        55.100    20335563.207 9  83270744.52549
        49.800    20335563.00049  20335559.156 7  79801124.884 7        42.600
  22606025.227 9 118795493.192 9        48.200    22606031.238 8  92567946.52849
        36.400    22606030.75449  22606027.098 4  88710938.373 4        34.700
  22269708.766 9 117028141.681 9        48.100    22269716.832 8  91190807.35149
        40.100    22269716.12949  22269712.621 5  87391182.355 5        36.800
  23653418.219 7 124299552.896 7        41.600                    96856809.67847
        26.100    23653421.26647
  21901091.289 8 115091025.800 8        46.800                    89681339.88949
        37.700    21901094.87949
  24574654.102 8 129140665.156 8        45.100    24574657.070 6 100629110.27147
        28.000    24574657.35247
  21762886.867 9 114364758.093 9        53.200    21762893.691 9  89115423.13249
        42.800    21762892.81649  21762891.367 6  85402265.546 6        39.100
  20596795.523 9 108236900.909 9        51.500                    84340452.22149
        46.600    20596796.42249
  20024319.813 9 105228462.303 9        51.000                    81996277.46449
        44.900    20024322.93049
  25162289.969 6 132228778.717 6        40.500    25162297.113 6 103035460.33747
        25.000    25162296.09447  25162292.254 1  98742305.306 1        25.500
  25129067.094 5 132054179.06315        35.100    25129071.977 4 102899348.22254
        14.800    25129071.77044  25129068.492 1  98611856.96211        26.700
 17  4  9  0 41 30.0000000  0 11G01G32G08G28G14G17G03G22G11G27G10
  20330657.219 9 106838326.112 9        53.800    20330664.578 9  83250684.70049
        49.900    20330664.18449  20330660.340 7  79781900.884 7        43.300
  22615817.383 9 118846951.889 9        48.800    22615823.656 8  92608044.22049
        36.800    22615823.36349  22615819.766 5  88749365.342 5        35.400
  22287700.148 9 117122685.873 9        48.900    22287707.957 8  91264478.14249
        40.000    22287706.96149  22287703.922 5  87461783.526 5        36.800
  23659285.648 7 124330384.965 7        41.600                    96880834.67047
        26.400    23659288.23047
  21901557.586 8 115093474.498 8        47.300                    89683247.98449
        37.800    21901560.78149
  24555948.984 7 129042372.837 7        43.500    24555951.883 6 100552518.84946
        24.300    24555952.14146
  21748915.852 9 114291340.756 9        52.300    21748923.281 9  89058214.81749
        42.300    21748922.27049  21748920.348 6  85347440.910 6        38.400
  20591370.242 9 108208389.808 9        50.800                    84318235.79649
        46.500    20591371.39549
  20026524.008 9 105240045.554 9        50.600                    82005303.36349
        44.900    20026527.16449
  25184294.836 6 132344409.960 6        40.500    25184300.074 5 103125562.64345
        19.900    25184299.55945  25184297.363 1  98828653.364 1        29.700
  25148419.758 4 132155881.094 4        34.500    25148425.980 3 102978596.48245
        16.300    25148425.62945  25148421.293 1  98687803.272 1        27.200
 17  4  9  0 42  0.0000000  0 11G01G32G08G28G14G17G03G22G11G27G10
  20325827.227 9 106812943.602 9        55.300    20325834.621 9  83230906.12349
        49.800    20325833.87949  20325829.977 7  79762946.418 7        42.800
  22625709.180 9 118898932.777 9        48.200    22625715.523 8  92648548.80849
        36.300    22625714.89849  22625711.418 5  88788182.235 5        35.500
  22305751.453 9 117217544.800 9        48.200    22305758.727 8  91338394.17949
        39.200    22305757.62949  22305754.707 5  87532619.720 5        36.300
  23665241.297 7 124361680.749 7        42.200                    96905220.96247
        27.100    23665243.75447
  21902131.930 8 115096494.624 8        47.200                    89685601.33349
        37.000    21902135.53949
  24537279.477 8 128944258.593 8        45.700    24537282.703 6 100476066.21547
        28.400    24537283.14847
  21735005.813 9 114218242.868 9        52.600    21735012.922 9  89001255.42749
        42.200    21735012.29749  21735009.969 6  85292854.823 6        39.200
  20586017.461 9 108180261.698 9        51.300                    84296317.78549
        46.600    20586018.58649
  20028831.727 9 105252171.546 9        50.200                    82014752.17649
        44.800    20028834.05949
  25206298.953 7 132460047.853 7        41.000    25206306.051 6 103215670.14646
        23.000    25206304.73446  25206302.184 1  98915006.241 1        29.400
  25167771.625 2 132257581.31612        31.000    25167779.176 5 103057843.39854
        14.800    25167779.23044  25167774.605 1  98763748.24211        24.800
 17  4  9  0 42 30.0000000  0 10G01G32G08G28G14G17G03G22G11G27
  20321065.961 9 106787923.305 9        54.100    20321073.055 9  83211409.78049
        50.000    20321072.74649  20321068.730 7  79744262.421 7        42.800
  22635699.617 9 118951434.387 9        48.400    22635705.535 8  92689459.15849
        36.500    22635704.70749  22635701.520 5  88827387.982 5        35.600
  22323861.625 9 117312716.553 9        48.400    22323868.742 8  91412553.98849
        39.400    22323868.09449  22323864.879 5  87603689.533 5        36.800
  23671285.000 7 124393438.868 7        42.300                    96929967.55847
        27.800    23671287.96547
  21902815.109 8 115100086.290 8        47.000                    89688400.05049
        37.600    21902819.01249
  24518642.461 7 128846325.160 7        44.700    24518646.895 6 100399754.40947
        26.800    24518646.81647
  21721156.734 9 114145465.707 9        51.900    21721164.043 9  88944545.95949
        42.600    21721163.35549  21721161.316 6  85238508.245 6        39.100
  20580737.836 9 108152517.041 9        50.700                    84274698.57649
        46.600    20580739.10249
  20031242.172 9 105264840.827 9        50.900                    82024624.33749
        45.000    20031245.55549
  25228304.977 6 132575690.453 6        38.900    25228311.117 5 103305781.25846
        21.700    25228311.34046  25228308.559 1  99001362.783 1        28.600
 17  4  9  0 43  0.0000000  0 11G01G32G08G28G14G17G03G22G11G27G10
  20316373.703 9 106763265.801 9        54.100    20316380.867 9  83192196.14149
        50.000    20316380.60249  20316376.996 7  79725849.350 7        42.900
  22645789.234 8 119004454.629 8        47.800    22645795.672 8  92730773.64149
        35.800    22645794.98049  22645791.852 5  88866981.031 5        35.400
  22342031.563 8 117408198.327 8        47.900    22342039.000 8  91486955.35249
        39.500    22342037.95749  22342034.684 5  87674990.842 5        36.500
  23677414.867 6 124425657.705 6        40.900                    96955073.13047
        26.400    23677418.62547
  21903607.820 8 115104249.425 8        46.800                    89691644.06649
        37.900    21903611.04749
  24500041.367 7 128748574.540 7        43.900    24500045.918 6 100323585.11647
        28.600    24500045.40247
  21707368.766 9 114073009.748 9        53.300    21707375.766 9  88888086.77449
        43.100    21707374.98049  21707373.527 6  85184401.534 6        39.600
  20575531.164 9 108125155.353 9        50.700                    84253377.77949
        46.800    20575532.31349
  20033756.453 9 105278053.361 9        51.100                    82034919.80849
        44.900    20033759.77049
  25250311.688 5 132691335.719 5        37.700    25250318.875 6 103395894.35046
        20.900    25250317.78946  25250314.184 1  99087721.233 1        27.700
  25206478.320 3 132460976.24413        32.500    25206482.820 4 103216332.55914
        34.700                    25206478.535 1  98915638.83211        25.300
 17  4  9  0 43 30.0000000  0 11G01G32G08G28G14G17G03G22G11G27G10
  20311750.695 9 106738971.862 9        54.200    20311758.023 9  83173265.79449
        49.900    20311757.68449  20311753.902 7  79707707.770 7        43.200
  22655976.625 8 119057991.475 8        47.600    22655983.035 8  92772490.67649
        36.200    22655982.60949  22655978.836 5  88906959.845 5        35.500
  22360259.938 8 117503987.698 8        47.900    22360267.621 8  91561596.41049
        39.200    22360266.83649  22360263.625 5  87746521.851 5        36.700
  23683633.555 7 124458335.583 7        41.800                    96980536.41247
        25.600    23683637.08247
  21904508.742 8 115108983.402 8        47.200                    89695332.89649
        37.900    21904512.09849
  24481475.016 7 128651008.922 7        43.400    24481478.938 6 100247559.96547
        27.800    24481478.25447
  21693642.086 9 114000875.724 9        52.100    21693649.184 9  88831878.44749
        42.100    21693648.31349  21693646.977 6  85130535.227 6        39.600
  20570397.078 9 108098176.311 9        50.900                    84232355.14349
        46.800    20570397.68849
  20036374.352 9 105291808.841 9        50.100                    82045638.36549
        44.700    20036377.29349
  25272318.344 6 132806981.085 6        40.800    25272325.191 6 103486007.71346
        22.800    25272324.37146  25272322.234 1  99174079.811 1        28.100
  25225828.273 4 132562664.629 4        34.000    25225832.535 4 103295571.37255
        16.900    25225832.63345  25225828.297 1  98991575.026 1        27.600
 17  4  9  0 44  0.0000000  0 10G01G32G08G28G14G17G03G22G11G10
  20307197.516 9 106715042.847 9        56.100    20307204.523 9  83154619.81749
        50.000    20307204.03949  20307200.434 7  79689838.704 7        43.700
  22666262.594 8 119112043.565 8        47.300    22666269.309 8  92814609.18749
        35.800    22666268.51249  22666264.563 4  88947323.429 4        34.700
  22378546.445 9 117600082.870 9        48.100    22378553.691 8  91636475.74549
        38.800    22378552.65249  22378549.496 5  87818281.219 5        36.300
  23689939.031 7 124491471.327 7        41.500                    97006356.47247
        27.300    23689942.25447
  21905518.164 8 115114288.945 8        47.100                    89699467.09749
        37.600    21905521.33649
  24462944.742 7 128553631.464 7        44.800    24462947.449 5 100171681.39247
        25.400    24462946.73047
  21679977.117 9 113929064.863 9        52.000    21679984.371 9  88775921.94549
        41.900    21679983.25449  21679981.922 6  85076910.244 6        39.400
  20565336.039 9 108071580.530 9        51.700                    84211631.17049
        46.800    20565336.82449
  20039095.578 9 105306108.460 9        49.700                    82056780.91949
        44.600    20039098.31649
  25245177.039 3 132664347.071 3        33.800    25245183.504 6 103374804.52845
        17.800    25245182.25845  25245178.219 1  99067506.783 1        27.400
 17  4  9  0 44 30.0000000  0  9G01G32G08G28G14G17G03G22G11
  20302713.313 9 106691479.413 9        54.600    20302720.715 9  83136258.69349
        50.000    20302720.44949  20302716.258 7  79672242.629 7        42.700
  22676646.289 8 119166608.747 8        47.900    22676652.504 8  92857127.51649
        36.400    22676651.65649  22676648.000 4  88988070.172 4        34.400
  22396890.180 8 117696481.381 8        47.700    22396897.227 8  91711591.46049
        39.200    22396896.17649  22396893.020 5  87890267.110 5        36.100
  23696331.539 7 124525062.823 7        41.400                    97032531.64847
        25.500    23696334.24247
  21906636.227 8 115120165.391 8        47.100                    89704046.15049
        37.800    21906639.84049
  24444449.961 7 128456444.397 7        43.500    24444453.543 6 100095951.19347
        25.800    24444453.86347
  21666373.844 9 113857577.832 9        52.800    21666380.520 9  88720217.77449
        42.100    21666379.60549  21666378.156 6  85023527.082 6        39.000
  20560347.984 9 108045367.420 9        51.100                    84191205.37749
        46.900    20560348.60549
  20041920.047 9 105320951.760 9        50.000                    82068347.12749
        45.000    20041923.19149
 17  4  9  0 45  0.0000000  0  9G01G32G08G28G14G17G03G22G11
  20298299.023 9 106668282.202 9        55.800    20298306.066 9  83118182.93949
        50.000    20298305.69149  20298301.617 7  79654920.033 7        43.400
  22687126.414 8 119221684.896 8        47.000    22687132.871 8  92900044.00049
        36.400    22687132.34449  22687128.922 5  89029198.463 5        35.500
  22415291.086 8 117793180.536 8        47.200    22415299.176 8  91786941.43349
        37.900    22415298.32449  22415295.055 5  87962477.505 5        36.500
  23702809.938 7 124559108.453 7        41.400                    97059060.68447
        25.600    23702813.00447
  21907863.258 8 115126612.352 8        47.100                    89709069.75949
        37.300    21907866.56649
  24425992.820 7 128359449.871 7        43.700    24425997.648 6 100020371.05547
        27.700    24425997.66047
  21652832.016 9 113786415.117 9        52.700    21652838.695 9  88664766.30649
        43.000    21652837.90249  21652836.863 6  84970386.094 6        39.900
  20555432.508 9 108019536.664 9        51.400                    84171077.53149
        47.000    20555433.57449
  20044848.219 9 105336338.627 9        49.300                    82080336.89149
        45.100    20044851.25049
 17  4  9  0 45 30.0000000  0  9G01G32G08G28G14G17G03G22G11
  20293954.641 9 106645451.984 9        56.700    20293961.707 9  83100393.15649
        50.100    20293961.36749  20293957.406 7  79637871.491 7        43.200
  22697704.211 8 119277270.019 8        47.500    22697710.906 8  92943357.08149
        35.200    22697709.91049  22697706.484 5  89070706.834 5        35.000
  22433749.078 9 117890177.740 9        48.400    22433756.996 8  91862523.66149
        38.400    22433755.83649  22433753.207 5  88034910.466 5        36.600
  23709374.734 6 124593606.265 6        40.700                    97085942.07847
        25.500    23709378.14847
  21909198.391 8 115133629.674 8        46.400                    89714537.81149
        37.300    21909201.79349
  24407573.102 7 128262650.278 7        43.900    24407577.258 6  99944942.81947
        27.800    24407577.07047
  21639351.961 9 113715577.439 9        51.600    21639358.727 9  88609568.12249
        42.500    21639357.86749  21639356.711 6  84917487.843 6        39.600
  20550589.797 9 107994087.899 9        51.100                    84151247.33249
        47.100    20550590.90649
  20047879.336 9 105352269.146 9        49.300                    82092750.27549
        45.000    20047882.97349
 17  4  9  0 46  0.0000000  0  9G01G32G08G28G14G17G03G22G11
  20289680.367 9 106622989.743 9        56.200    20289687.449 9  83082890.11849
        50.100    20289687.15249  20289682.957 7  79621097.742 7        42.600
  22708378.344 8 119333362.206 8        46.500    22708384.418 8  92987065.29649
        35.500    22708383.63749  22708380.156 4  89112593.868 4        34.400
  22452263.195 8 117987471.054 8        47.900    22452270.645 8  91938336.61749
        38.300    22452269.69949  22452266.605 5  88107564.540 5        36.300
  23716024.906 7 124628554.883 7        41.900                    97113174.75547
        26.900    23716028.68847
  21910642.258 8 115141217.010 8        47.200                    89720450.03349
        37.600    21910645.89849
  24389190.047 7 128166048.041 7        44.500    24389193.395 6  99869668.31847
        26.400    24389193.60947
  21625933.984 9 113645065.665 9        51.500    21625941.082 9  88554623.89449
        42.800    21625940.00849  21625938.793 6  84864832.968 6        40.000
  20545819.891 9 107969021.715 9        52.100                    84131715.25449
        47.100    20545820.70749
  20051014.656 9 105368743.418 9        48.600                    82105587.37049
        45.100    20051017.46149
 17  4  9  0 46 30.0000000  0  9G01G32G08G28G14G17G03G22G11
  20285475.945 9 106600896.201 9        54.000    20285483.441 9  83065674.36849
        50.000    20285483.07449  20285479.117 7  79604599.314 7        43.300
  22719148.109 8 119389959.474 8        47.000    22719154.590 8  93031167.06149
        35.400    22719153.57449  22719150.090 4  89154858.059 4        34.200
  22470833.695 8 118085057.975 8        47.600    22470841.184 8  92014378.36849
        38.300    22470839.84849  22470836.398 5  88180437.884 5        36.300
  23722761.406 7 124663952.363 7        41.800                    97140757.21547
        26.900    23722763.96147
  21912194.555 8 115149374.291 8        47.800                    89726806.37349
        37.300    21912198.43449
  24370845.219 7 128069645.524 7        44.100    24370848.918 7  99794549.43747
        27.300    24370849.29347
  21612578.328 9 113574880.465 9        51.500    21612585.223 9  88499934.13349
        43.600    21612584.09849  21612582.645 6  84812421.943 6        38.800
  20541122.461 9 107944337.536 9        50.900                    84112480.82849
        47.100    20541123.55549
  20054253.039 9 105385761.506 9        48.800                    82118848.20949
        44.800    20054256.14849
 17  4  9  0 47  0.0000000  0 10G01G32G08G28G14G17G03G22G11G23
  20281342.102 9 106579172.536 9        54.600    20281349.094 9  83048746.83349
        50.000    20281348.42649  20281344.758 7  79588377.097 7        43.200
  22730014.094 8 119447060.069 8        46.500    22730020.121 8  93075661.03849
        35.000    22730019.78149  22730015.949 4  89197498.127 4        34.700
  22489459.375 8 118182936.073 8        47.700    22489466.625 8  92090647.00649
        38.100    22489465.63349  22489462.125 5  88253528.668 5        35.800
  23729582.242 7 124699796.958 7        41.400                    97168688.07847
        27.700    23729585.67647
  21913855.203 8 115158100.910 8        46.600                    89733606.34949
        37.500    21913859.08249
  24352538.844 7 127973445.561 7        44.400    24352542.945 6  99719588.45347
        27.200    24352543.01247
  21599284.695 9 113505022.863 9        51.500    21599291.258 9  88445499.63549
        42.700    21599290.12149  21599288.551 6  84760255.552 6        39.900
  20536498.039 9 107920035.365 9        51.000                    84093544.08049
        47.100    20536498.82049
  20057594.984 9 105403323.689 9        48.800                    82132533.01949
        45.000    20057598.04349
  25369341.117 6 133316790.51016        38.300                   103883216.24255
        19.900    25369342.53545
 17  4  9  0 47 30.0000000  0 10G01G32G08G28G14G17G03G22G11G23
  20277278.500 9 106557819.792 9        55.200    20277286.008 9  83032108.33149
        50.000    20277285.56649  20277281.609 7  79572431.869 7        43.000
  22740975.344 8 119504662.247 8        46.600    22740981.621 8  93120545.86249
        35.000    22740981.18849  22740977.414 4  89240512.745 4        34.700
  22508139.984 8 118281103.502 8        47.600    22508147.465 8  92167141.08349
        38.400    22508146.84449  22508143.570 5  88326835.489 5        36.300
  23736488.203 7 124736087.272 7        41.100                    97196966.22347
        26.800    23736491.19947
  21915624.383 8 115167396.975 8        47.000                    89740850.04449
        37.300    21915627.48049
  24334271.352 7 127877450.708 7        43.000    24334275.977 6  99644787.27547
        27.400    24334275.52347
  21586053.883 9 113435493.823 9        51.800    21586060.590 9  88391321.17049
        43.500    21586059.82849  21586057.848 6  84708334.518 6        39.400
  20531946.414 9 107896115.430 9        51.700                    84074905.18649
        47.300    20531947.39149
  20061040.164 9 105421430.279 9        48.900                    82146642.04649
        44.900    20061043.35249
  25348873.227 6 133209235.113 6        38.800                   103799406.84745
        19.000    25348875.89545
 17  4  9  0 48  0.0000000  0 10G01G32G08G28G14G17G03G22G11G23
  20273286.125 9 106536838.501 9        55.400    20273293.336 9  83015759.27149
        50.200    20273292.79349  20273288.949 7  79556764.017 7        43.200
  22752031.836 8 119562763.645 8        46.700    22752038.238 8  93165819.67949
        35.200    22752037.51249  22752033.734 4  89283900.156 4        34.900
  22526874.969 8 118379557.248 8        46.500    22526882.102 8  92243858.28649
        37.700    22526880.90649  22526878.043 5  88400356.138 5        35.100
  23743478.828 7 124772821.357 7        41.900                    97225590.18747
        26.400    23743481.29347
  21917501.633 8 115177262.030 8        47.100                    89748537.11749
        37.200    21917504.67649
  24316044.219 7 127781663.124 7        42.500    24316047.754 6  99570147.60647
        28.500    24316047.98447
  21572885.273 9 113366293.752 9        51.900    21572892.789 9  88337399.04649
        43.200    21572891.82849  21572890.141 6  84656659.155 6        40.000
  20527467.070 9 107872576.947 9        52.300                    84056563.52649
        47.200    20527467.79749
  20064589.484 9 105440080.898 9        48.600                    82161174.98949
        45.100    20064592.50449
  25328400.516 6 133101649.759 6        38.400                   103715574.14145
        19.300    25328402.03145
 17  4  9  0 48 30.0000000  0 10G01G32G08G28G14G17G03G22G11G23
  20269364.430 9 106516229.504 9        55.000    20269371.313 9  82999700.32149
        50.200    20269370.97749  20269367.020 7  79541374.193 7        42.800
  22763182.648 8 119621362.286 8        46.600    22763189.281 8  93211480.97149
        35.200    22763188.65249  22763184.586 4  89327658.894 4        34.800
  22545663.867 8 118478294.933 8        46.400    22545671.605 8  92320796.72649
        37.900    22545670.92249  22545667.414 5  88474088.808 5        35.500
  23750553.102 7 124809997.331 7        41.500                    97254558.48246
        24.500    23750555.43846
  21919486.789 8 115187695.566 8        47.000                    89756667.15649
        37.000    21919490.31649
  24297856.461 7 127686085.224 7        44.400    24297860.426 6  99495671.30047
        29.200    24297860.41447
  21559779.977 9 113297423.418 9        52.000    21559786.613 9  88283733.86149
        43.700    21559785.84449  21559784.160 6  84605230.021 6        39.800
  20523060.484 9 107849420.028 9        51.300                    84038519.18249
        47.300    20523061.44149
  20068242.438 9 105459275.614 9        49.400                    82176131.90649
        44.800    20068245.10549
  25307923.047 5 132994036.487 5        36.500                   103631719.61945
        15.600    25307923.87145
 17  4  9  0 49  0.0000000  0 10G01G32G08G28G14G17G03G22G11G23
  20265513.641 9 106495993.431 9        55.200    20265520.711 9  82983931.95049
        50.100    20265520.66849  20265516.535 7  79526262.836 7        43.400
  22774427.852 8 119680455.890 8        46.000    22774434.301 8  93257527.94049
        35.500    22774433.70749  22774429.875 5  89371787.236 5        35.200
  22564506.703 8 118577314.171 8        47.300    22564514.500 8  92397954.56149
        37.900    22564513.39549  22564510.242 5  88548031.735 5        35.800
  23757710.914 7 124847613.211 7        41.400                    97283869.54947
        25.600    23757714.19147
  21921580.102 8 115198697.017 8        46.800                    89765239.71549
        36.900    21921583.93449
  24279708.594 7 127590719.566 7        43.700    24279712.797 6  99421360.37147
        28.600    24279712.13347
  21546737.367 9 113228883.294 9        51.600    21546743.848 9  88230325.97349
        43.600    21546743.02049  21546741.039 6  84554047.460 6        39.800
  20518726.070 9 107826644.116 9        51.600                    84020771.72149
        47.200    20518727.03949
  20071998.367 9 105479014.246 9        48.800                    82191512.64249
        44.900    20072001.23449
  25287440.266 6 132886397.383 6        38.200                   103547844.94546
        20.600    25287442.17246
 17  4  9  0 49 30.0000000  0 10G01G32G08G28G14G17G03G22G11G23
  20261733.914 9 106476131.037 9        54.100    20261741.121 9  82968454.75149
        50.300    20261740.92649  20261736.852 7  79511430.525 7        43.600
  22785766.891 8 119740042.313 8        46.500    22785773.027 8  93303958.92149
        35.100    22785772.56649  22785768.734 5  89416283.600 5        35.000
  22583402.758 8 118676612.460 8        47.000    22583410.180 8  92475329.84349
        37.800    22583409.06649  22583406.555 5  88622183.044 5        36.900
  23764952.109 7 124885666.932 7        41.600                    97313521.77647
        25.900    23764954.77347
  21923781.703 8 115210265.927 8        46.800                    89774254.45849
        37.500    21923785.64149
  24261602.477 7 127495568.293 7        43.900    24261606.031 6  99347216.53647
        28.200    24261605.77747
  21533757.164 9 113160674.038 9        51.100    21533763.949 9  88177175.90149
        43.700    21533763.26649  21533761.055 6  84503111.979 6        39.900
  20514464.594 9 107804248.559 9        51.100                    84003320.65349
        47.300    20514465.43449
  20075858.031 9 105499296.651 9        48.700                    82207317.10949
        44.900    20075861.37949
  25266953.008 6 132778734.791 6        38.800                   103463952.05846
        22.300    25266955.18846
 17  4  9  0 50  0.0000000  0 10G01G32G08G28G14G17G03G22G11G23
  20258025.508 9 106456643.397 9        55.800    20258032.816 9  82953269.57949
        50.200    20258032.46149  20258028.383 7  79496878.056 7        43.000
  22797199.555 8 119800119.778 8        46.400    22797205.426 8  93350772.53849
        35.100    22797204.61349  22797201.305 5  89461146.643 5        35.200
  22602351.203 8 118776187.383 8        46.700    22602358.762 8  92552920.69149
        37.200    22602357.50049  22602354.520 5  88696540.924 5        36.000
  23772276.555 7 124924157.243 7        41.100                    97343514.23446
        24.700    23772279.40646
  21926091.195 8 115222401.988 8        46.900                    89783711.13549
        37.600    21926094.53549
  24243536.750 7 127400634.225 7        43.400    24243540.930 6  99273241.96047
        28.200    24243540.28947
  21520840.570 9 113092796.584 9        52.500    21520847.102 9  88124284.39549
        43.700    21520846.28549  21520844.246 6  84452424.278 6        39.600
  20510275.203 9 107782233.924 9        52.900                    83986166.39649
        47.300    20510276.17249
  20079820.953 9 105520122.946 9        50.000                    82223545.38249
        44.700    20079824.09849
  25246459.922 5 132671050.578 5        37.800                   103380042.22345
        19.900    25246462.40645
 17  4  9  0 50 30.0000000  0 10G01G32G08G28G14G17G03G22G11G23
  20254388.750 9 106437531.381 9        55.000    20254395.602 9  82938377.09749
        50.200    20254395.32849  20254391.254 7  79482606.101 7        42.700
  22808724.625 8 119860686.174 8        46.600    22808730.602 8  93397967.13949
        35.200    22808729.91449  22808726.840 4  89506374.800 4        34.000
  22621352.180 8 118876036.747 8        46.700    22621360.199 8  92630725.37349
        37.700    22621359.35249  22621355.316 5  88771103.751 5        35.300
  23779683.523 7 124963082.168 7        41.200                    97373845.33147
        25.200    23779686.47347
  21928508.297 8 115235104.780 8        47.000                    89793609.42749
        37.600    21928511.47349
  24225512.586 7 127305919.503 7        43.400    24225516.598 6  99199438.28047
        28.100    24225516.35547
  21507987.266 9 113025251.653 9        52.300    21507994.250 9  88071651.99549
        44.000    21507993.33649  21507991.828 6  84401984.893 6        40.000
  20506158.445 9 107760599.749 9        53.300                    83969308.60849
        47.400    20506159.23449
  20083887.453 9 105541493.077 9        49.800                    82240197.42349
        45.100    20083890.70749
  25225964.953 6 132563347.027 6        38.300                   103296117.43346
        21.800    25225968.09046
 17  4  9  0 51  0.0000000  0 10G01G32G08G28G14G17G03G22G11G23
  20250823.516 9 106418795.600 9        54.400    20250830.359 9  82923777.78549
        50.300    20250829.89549  20250825.996 7  79468615.092 7        43.400
  22820342.305 8 119921739.292 8        45.800    22820349.281 8  93445541.01249
        34.800    22820348.31649  22820344.602 3  89551966.429 3        33.800
  22640404.516 8 118976157.896 8        46.600    22640412.121 8  92708741.83249
        37.400    22640411.12949  22640407.621 5  88845869.532 5        35.800
  23787173.148 6 125002439.675 6        40.900                    97404513.51447
        26.000    23787176.45347
  21931033.375 8 115248373.781 8        47.100                    89803948.91349
        37.300    21931037.43849
  24207531.836 7 127211426.692 7        44.800    24207535.805 6  99125807.50348
        30.000    24207535.76248
  21495197.156 9 112958039.794 9        53.100    21495204.277 9  88019279.11449
        44.100    21495203.37949  21495201.809 6  84351794.216 6        39.900
  20502113.977 9 107739345.914 9        51.100                    83952747.18349
        47.500    20502114.68449
  20088057.539 9 105563406.758 9        49.400                    82257273.00949
        45.000    20088060.62949
  25205466.594 5 132455626.450 5        37.900                   103212179.33346
        21.100    25205468.95746
 17  4  9  0 51 30.0000000  0 10G01G32G08G28G14G17G03G22G11G23
  20247329.914 9 106400436.967 9        55.600    20247336.898 9  82909472.34449
        50.300    20247336.33249  20247332.551 7  79454905.716 7        43.200
  22832052.859 8 119983277.052 8        46.300    22832059.363 8  93493492.51049
        34.600    22832058.75049  22832054.449 4  89597919.963 4        34.200
  22659508.031 8 119076548.444 8        46.400    22659515.844 8  92786968.22049
        37.000    22659514.64549  22659511.664 5  88920836.485 5        35.600
  23794744.664 7 125042227.705 7        41.300                    97435517.15147
        25.600    23794748.43847
  21933666.242 8 115262208.345 8        47.800                    89814729.10449
        37.700    21933669.30949
  24189592.633 7 127117158.501 7        43.600    24189596.996 6  99052351.78147
        28.000    24189596.82047
  21482470.586 9 112891161.742 9        52.100    21482477.668 9  87967166.35149
        43.600    21482476.66049  21482475.328 6  84301852.825 6        40.000
  20498141.875 9 107718472.217 9        53.700                    83936481.96449
        47.600    20498142.71549
  20092331.375 9 105585863.872 9        50.000                    82274772.05049
        45.100    20092334.69149
  25184966.461 5 132347890.76315        37.900                   103128229.48855
        19.600    25184967.25845
 17  4  9  0 52  0.0000000  0 10G01G32G08G28G14G17G03G22G11G23
  20243908.258 9 106382456.410 9        55.700    20243915.570 9  82895461.51649
        50.300    20243914.90649  20243911.066 7  79441478.666 7        43.200
  22843854.828 8 120045297.447 8        47.200    22843861.152 8  93541820.08749
        34.400    22843860.43449  22843856.836 4  89644233.900 4        34.900
  22678662.500 8 119177206.148 8        46.900    22678669.602 8  92865402.79049
        37.000    22678668.17649  22678665.434 5  88996002.938 5        35.400
  23802397.617 7 125082444.623 7        41.800                    97466854.99147
        26.200    23802401.05947
  21936406.328 8 115276607.965 8        47.000                    89825949.59849
        37.100    21936409.47749
  24171697.227 7 127023117.191 7        43.800    24171701.402 6  98979072.83147
        29.100    24171701.07447
  21469807.992 9 112824618.234 9        51.900    21469814.617 9  87915314.27449
        43.600    21469813.39149  21469812.523 6  84252161.250 6        40.000
  20494241.969 9 107697978.262 9        53.500                    83920512.66049
        47.500    20494243.08249
  20096708.242 9 105608864.589 9        49.800                    82292694.67749
        45.500    20096711.04349
  25164461.906 6 132240142.600 6        40.400                   103044269.90446
        21.300    25164463.55946
 17  4  9  0 52 30.0000000  0 10G01G32G08G28G14G17G03G22G11G23
  20240558.750 9 106364854.768 9        55.400    20240565.879 9  82881745.95349
        50.300    20240565.24649  20240561.289 7  79428334.588 7        43.000
  22855748.625 8 120107798.375 8        46.300    22855754.273 7  93590522.11749
        34.400    22855753.37149  22855750.418 4  89690906.669 4        34.600
  22697867.914 8 119278128.363 8        47.300    22697874.887 8  92944043.47749
        37.500    22697874.17649  22697870.551 5  89071366.930 5        35.500
  23810131.758 7 125123088.315 7        41.100                    97498525.40147
        25.100    23810134.78947
  21939253.922 8 115291572.433 8        47.000                    89837610.23749
        37.100    21939257.12549
  24153845.156 7 126929305.246 7        42.900    24153849.449 6  98905972.59647
        26.900    24153848.02047
  21457208.883 9 112758410.027 9        52.200    21457215.371 9  87863723.46749
        43.800    21457214.64149  21457213.129 6  84202720.067 6        39.500
  20490414.328 9 107677864.013 9        53.100                    83904839.22549
        47.500    20490414.86749
  20101188.484 9 105632408.797 9        50.500                    82311040.81049
        44.900    20101191.44549
  25143955.102 5 132132383.817 5        37.500                   102960302.00646
        20.600    25143958.98046
 17  4  9  0 53  0.0000000  0 10G01G32G08G28G14G17G03G22G11G23
  20237281.430 9 106347632.878 9        54.000    20237288.938 9  82868326.29849
        50.300    20237288.52049  20237284.387 7  79415474.083 7        43.000
  22867732.922 8 120170777.733 8        45.600    22867739.301 7  93639596.95249
        34.600    22867738.25849  22867735.012 4  89737936.715 4        34.800
  22717122.117 8 119379312.795 8        46.800    22717129.848 8  93022888.47349
        37.100    22717128.91449  22717125.758 5  89146926.725 5        36.000
  23817947.258 7 125164157.148 7        41.400                    97530527.08347
        25.400    23817950.01247
  21942208.781 8 115307101.134 8        47.400                    89849710.53949
        37.300    21942212.05549
  24136037.680 7 126835725.322 7        43.700    24136041.805 6  98833053.19347
        29.400    24136041.78947
  21444673.789 9 112692537.787 9        52.300    21444680.707 9  87812394.46049
        44.300    21444679.89849  21444678.504 6  84153529.765 6        40.300
  20486658.773 9 107658129.338 9        51.100                    83889461.56449
        47.600    20486659.87949
  20105772.266 9 105656496.343 9        50.700                    82329810.31649
        44.900    20105774.63349
  25123448.141 5 132024616.619 5        37.800                   102876327.57346
        20.100    25123450.24646
 17  4  9  0 53 30.0000000  0 10G01G32G08G28G14G17G03G22G11G23
  20234076.719 9 106330791.330 9        56.200    20234084.398 9  82855203.01949
        50.400    20234083.83249  20234079.875 7  79402897.613 7        43.400
  22879807.922 8 120234233.124 8        45.300    22879814.395 7  93689042.71349
        34.600    22879813.68049  22879809.789 4  89785322.244 4        34.000
  22736426.227 8 119480756.844 8        46.500    22736433.777 8  93101935.77349
        36.100    22736432.66049  22736429.801 5  89222680.379 5        35.700
  23825842.273 6 125205649.060 6        40.000                    97562858.45347
        25.300    23825846.13347
  21945271.375 8 115323193.185 8        47.600                    89862249.81349
        37.200    21945274.47749
  24118274.695 7 126742379.655 7        43.000    24118278.918 6  98760316.32447
        29.200    24118278.80547
  21432203.016 9 112627001.975 9        52.400    21432210.016 9  87761327.60149
        44.100    21432208.79349  21432207.988 6  84104590.692 6        40.400
  20482975.719 9 107638773.640 9        54.300                    83874379.19949
        47.700    20482976.38349
  20110459.398 9 105681126.755 9        50.000                    82349002.83449
        45.300    20110462.30949
  25102940.469 6 131916843.225 6        39.700                   102792348.31046
        20.900    25102941.39846
 17  4  9  0 54  0.0000000  0 10G01G32G08G28G14G17G03G22G11G23
  20230944.422 9 106314330.909 9        54.500    20230951.590 9  82842376.71949
        50.400    20230951.41449  20230947.102 7  79390605.739 7        43.600
  22891973.352 8 120298162.382 8        45.900    22891979.551 7  93738857.72349
        34.800    22891978.89849  22891975.477 4  89833061.640 4        34.800
  22755779.109 8 119582457.951 8        45.700    22755787.148 8  93181183.38349
        36.400    22755785.78549  22755782.980 5  89298625.995 5        35.100
  23833818.109 6 125247561.783 6        40.900                    97595517.68546
        24.600    23833820.92646
  21948440.031 8 115339847.881 8        47.300                    89875227.51149
        37.300    21948443.45349
  24100557.375 7 126649271.028 7        44.700    24100560.469 6  98687764.14648
        30.800    24100560.82848
  21419795.797 9 112561803.196 9        52.400    21419802.879 9  87710523.35349
        43.800    21419801.88349  21419800.902 6  84055903.298 6        40.400
  20479364.367 9 107619796.634 9        53.000                    83859591.92849
        47.600    20479365.13349
  20115249.703 9 105706299.845 9        50.000                    82368618.22249
        45.000    20115252.35549
  25082430.969 6 131809065.727 6        39.000                   102708365.86646
        20.400    25082431.34846
 17  4  9  0 54 30.0000000  0 10G01G32G08G28G14G17G03G22G11G23
  20227884.711 9 106298252.937 9        55.200    20227891.973 9  82829848.42749
        50.500    20227891.76249  20227887.801 7  79378599.457 7        42.900
  22904228.453 8 120362563.871 8        45.600    22904234.887 7  93789040.71549
        34.000    22904234.15649  22904231.145 5  89881153.661 5        35.100
  22775180.938 8 119684414.069 8        45.800    22775188.871 8  93260629.68449
        37.500    22775187.79749  22775184.406 5  89374762.049 5        35.300
  23841873.883 6 125289893.678 6        40.800                    97628503.57547
        25.600    23841877.04747
  21951716.680 8 115357064.974 8        47.300                    89888643.43449
        37.300    21951720.07449
  24082883.773 7 126556401.720 7        43.600    24082888.227 6  98615398.43747
        28.900    24082888.11747
  21407453.375 9 112496942.639 9        52.400    21407460.102 9  87659982.66549
        44.500    21407459.37949  21407457.871 6  84007468.476 6        40.200
  20475825.211 9 107601198.706 9        52.100                    83845100.04249
        47.800    20475826.19549
  20120143.086 9 105732015.869 9        49.500                    82388656.67749
        45.000    20120146.07849
  25061921.227 6 131701286.649 6        38.800                   102624382.25745
        19.900    25061921.75045
 17  4  9  0 55  0.0000000  0 10G01G32G08G28G14G17G03G22G11G23
  20224898.148 9 106282557.651 9        54.100    20224905.383 9  82817618.33849
        50.500    20224905.19549  20224901.004 7  79366878.958 7        43.200
  22916573.211 8 120427434.821 8        46.500    22916579.445 7  93839589.52348
        33.700    22916578.43448  22916575.891 4  89929596.249 4        34.600
  22794631.039 8 119786622.317 8        46.400    22794638.574 8  93340272.46749
        36.900    22794637.55149  22794634.281 5  89451086.376 5        35.300
  23850009.219 6 125332642.559 6        40.800                    97661814.35947
        25.600    23850012.17247
  21955099.734 8 115374843.178 8        46.800                    89902496.58949
        37.000    21955103.12149
  24065258.258 7 126463774.537 7        44.000    24065262.219 7  98543221.42148
        30.800    24065262.44148
  21395175.000 9 112432420.342 9        52.600    21395182.305 9  87609705.55249
        44.500    21395181.58249  21395179.426 6  83959286.243 6        40.100
  20472358.195 9 107582978.833 9        51.200                    83830902.74549
        47.800    20472359.10249
  20125139.859 9 105758274.067 9        49.100                    82409117.59449
        45.000    20125142.75449
  25041411.555 6 131593507.47616        38.900                   102540398.47756
        20.600    25041412.39846
 17  4  9  0 55 30.0000000  0 10G01G32G08G28G14G17G03G22G11G23
  20221984.484 9 106267246.091 9        55.600    20221991.375 9  82805687.25249
        50.300    20221991.14849  20221987.129 7  79355445.001 7        43.500
  22929006.875 8 120492773.187 8        46.100    22929013.055 8  93890502.55048
        33.300    22929012.15248  22929008.844 4  89978387.894 4        34.200
  22814128.086 8 119889080.508 8        46.000    22814135.734 7  93420110.01749
        35.800    22814133.89849  22814131.621 4  89527597.359 4        34.900
  23858222.617 6 125375806.436 6        40.900                    97695448.55747
        25.000    23858226.59447
  21958589.742 8 115393182.441 8        47.600                    89916786.92749
        37.300    21958593.44549
  24047678.078 7 126371391.489 7        43.900    24047682.355 7  98471234.64247
        29.800    24047682.16047
  21382961.648 9 112368237.208 9        52.900    21382968.371 9  87559692.72949
        44.700    21382967.77349  21382965.621 6  83911357.281 6        40.000
  20468963.148 9 107565137.112 9        53.700                    83817000.10849
        47.700    20468964.13749
  20130239.742 9 105785074.463 9        50.200                    82430001.01549
        45.000    20130242.63349
  25020901.961 6 131485731.078 6        39.700                   102456416.89646
        21.500    25020903.16846
 17  4  9  0 56  0.0000000  0 10G01G32G08G28G14G17G03G22G11G23
  20219143.875 9 106252318.861 9        55.400    20219150.895 9  82794055.64449
        50.300    20219150.47749  20219146.578 7  79344298.043 7        43.500
  22941529.172 8 120558576.721 8        46.100    22941535.379 8  93941778.02549
        34.100    22941534.58649  22941530.285 3  90027526.907 3        33.200
  22833671.352 8 119991786.082 8        45.600    22833680.234 8  93500140.33349
        35.800    22833678.90649  22833675.867 5  89604293.070 5        35.000
  23866515.336 6 125419383.261 6        40.800                    97729404.51647
        25.300    23866518.21147
  21962185.766 8 115412081.879 8        47.300                    89931513.77149
        37.200    21962189.68049
  24030145.047 7 126279255.093 7        43.300    24030149.484 6  98399440.06247
        28.300    24030148.63747
  21370812.406 9 112304393.710 9        52.800    21370819.445 9  87509944.54849
        44.600    21370818.87149  21370817.066 6  83863681.944 6        40.400
  20465639.898 9 107547673.090 9        51.600                    83803391.78549
        48.000    20465640.17249
  20135442.828 9 105812416.223 9        49.500                    82451306.26849
        44.900    20135446.12549
  25000393.633 6 131377959.374 6        40.300                   102372438.92446
        21.800    25000394.58646
 17  4  9  0 56 30.0000000  0 10G01G32G08G28G14G17G03G22G11G23
  20216376.555 9 106237776.781 9        54.100    20216383.816 9  82782724.15349
        50.400    20216383.46149  20216379.383 7  79333438.694 7        43.400
  22954138.648 8 120624843.139 8        46.000    22954145.266 8  93993414.18148
        33.200    22954144.58648  22954140.227 3  90077011.574 3        33.700
  22853262.969 8 120094736.205 8        45.500    22853270.883 8  93580361.18449
        35.800    22853269.80949  22853266.008 4  89681171.398 4        34.900
  23874886.078 6 125463371.162 6        40.700                    97763680.80347
        26.100    23874889.25447
  21965888.969 8 115431540.563 8        47.500                    89946676.39049
        37.700    21965892.52749
  24012659.781 7 126187367.988 7        44.200    24012663.398 6  98327839.70148
        30.100    24012662.49648
  21358728.305 9 112240890.404 9        52.300    21358735.055 9  87460461.45849
        44.500    21358734.03149  21358732.523 6  83816260.655 6        40.200
  20462387.883 9 107530585.798 9        51.100                    83790077.01649
        47.900    20462389.10249
  20140748.867 9 105840299.888 9        49.600                    82473033.79849
        44.700    20140752.23449
  24979886.664 6 131270194.392 6        38.800                   102288466.22946
        20.900    24979888.10946
 17  4  9  0 57  0.0000000  0 10G01G32G08G28G14G17G03G22G11G23
  20213683.094 9 106223620.794 9        55.700    20213690.035 9  82771693.50749
        50.500    20213689.86749  20213685.965 7  79322867.666 7        43.200
  22966836.188 8 120691570.411 8        46.300    22966842.574 7  94045409.46049
        34.300    22966842.03149  22966838.902 4  90126840.380 4        34.100
  22872899.805 8 120197928.963 8        45.400    22872907.398 8  93660771.11349
        35.400    22872906.42249  22872903.152 5  89758230.922 5        35.400
  23883334.242 6 125507767.892 6        40.500                    97798275.63246
        23.600    23883337.97746
  21969697.773 8 115451558.055 8        46.800                    89962274.45049
        37.500    21969701.52349
  23995222.094 7 126095733.005 7        44.400    23995226.711 7  98256435.82748
        31.100    23995226.38348
  21346708.750 9 112177728.146 9        52.300    21346715.625 9  87411244.11949
        44.500    21346714.55149  21346712.805 6  83769094.037 6        40.300
  20459208.430 9 107513876.086 9        53.400                    83777056.46849
        48.000    20459209.21549
  20146157.945 9 105868724.908 9        50.100                    82495183.15449
        44.900    20146161.08249
  24959379.945 6 131162438.388 6        38.200                   102204500.55346
        22.500    24959382.66846
 17  4  9  0 57 30.0000000  0 10G01G32G08G28G14G17G03G22G11G23
  20211062.695 9 106209851.349 9        56.600    20211069.617 9  82760964.07549
        50.500    20211069.29749  20211065.453 7  79312585.293 7        42.900
  22979621.609 8 120758755.946 8        46.300    22979627.359 7  94097761.84048
        33.200    22979626.57848  22979623.445 3  90177011.398 3        33.600
  22892582.641 8 120301361.586 8        46.100    22892590.184 8  93741367.96749
        34.900    22892588.85549  22892586.285 4  89835469.548 4        34.900
  23891860.109 7 125552571.159 7        42.100                    97833187.26147
        25.300    23891863.25047
  21973613.516 9 115472133.163 9        49.000                    89978307.01049
        37.300    21973616.81349
  23977832.609 7 126004352.099 7        44.300    23977836.332 7  98185229.92647
        29.700    23977836.50847
  21334754.258 9 112114907.228 9        51.500    21334760.883 9  87362292.75649
        44.700    21334760.05549  21334758.605 6  83722182.317 6        40.200
  20456100.375 9 107497542.988 9        54.300                    83764329.38549
        48.100    20456100.97349
  20151670.234 9 105897690.607 9        49.300                    82517753.81949
        45.500    20151673.19549
  24938877.102 6 131054693.871 6        38.300                   102120543.76846
        22.300    24938879.87546
 17  4  9  0 58  0.0000000  0 10G01G32G08G28G14G17G03G22G11G23
  20208516.195 9 106196469.563 9        56.900    20208523.246 9  82750536.70349
        50.500    20208523.07449  20208518.941 7  79302592.393 7        43.000
  22992493.336 8 120826397.793 8        46.300    22992499.496 8  94150469.77448
        33.000    22992498.82048  22992494.988 3  90227523.161 3        33.800
  22912310.570 8 120405031.596 8        46.500    22912317.504 7  93822149.79149
        35.200    22912316.38349  22912313.168 4  89912885.463 4        34.600
  23900462.148 6 125597779.377 6        40.800                    97868414.44347
        25.000    23900465.83647
  21977634.914 9 115493265.532 9        48.800                    89994773.80949
        37.200    21977638.29749
  23960492.461 7 125913228.002 7        44.300    23960496.441 7  98114224.14047
        28.500    23960496.78147
  21322864.727 9 112052428.466 9        51.900    21322872.188 9  87313608.01549
        44.500    21322871.06649  21322869.379 6  83675526.102 6        39.900
  20453063.664 9 107481586.256 9        54.300                    83751895.57049
        48.100    20453064.63749
  20157284.844 9 105927196.924 9        49.700                    82540745.74649
        44.900    20157287.87549
  24918377.008 6 130946962.469 6        38.300                   102036597.31146
        21.800    24918380.06346
 17  4  9  0 58 30.0000000  0 10G01G32G08G28G14G17G03G22G11G23
  20206043.477 9 106183475.862 9        56.500    20206050.719 9  82740411.73849
        50.600    20206050.29349  20206046.395 7  79292889.301 7        43.400
  23005451.750 8 120894493.414 8        45.700    23005457.813 7  94203531.29749
        34.200    23005457.44149  23005453.199 3  90278373.804 3        33.900
  22932082.547 8 120508936.188 8        45.300    22932089.984 8  93903114.39849
        35.400    22932088.99249  22932085.250 4  89990476.559 4        34.800
  23909142.125 6 125643390.166 6        40.600                    97903955.30246
        23.900    23909144.66046
  21981762.367 9 115514954.074 9        48.400                    90011673.98249
        37.600    21981765.54349
  23943201.313 7 125822362.904 7        44.200    23943205.320 7  98043420.17048
        30.200    23943205.11748
  21311040.797 9 111990292.195 9        51.600    21311048.027 9  87265190.15249
        44.500    21311046.96949  21311045.109 6  83629125.647 6        40.300
  20450098.852 9 107466005.219 9        53.600                    83739754.50749
        48.100    20450100.14549
  20163002.422 9 105957243.378 9        49.800                    82564158.55349
        45.000    20163005.63349
  24897878.672 6 130839246.757 6        38.800                   101952662.95246
        20.100    24897881.08246
 17  4  9  0 59  0.0000000  0 10G01G32G08G28G14G17G03G22G11G23
  20203644.758 9 106170871.265 9        56.300    20203652.215 9  82730589.97049
        50.400    20203651.77749  20203647.820 7  79283476.773 7        43.100
  23018495.648 8 120963040.719 8        46.800    23018501.605 7  94256944.79549
        34.200    23018500.87549  23018497.219 4  90329561.741 4        34.300
  22951899.016 8 120613073.355 8        45.700    22951906.578 8  93984260.22049
        34.400    22951905.41049  22951902.430 4  90068241.306 4        34.500
  23917897.961 6 125689401.358 6        40.500                    97939808.15647
        25.000    23917901.41047
  21985994.828 9 115537198.208 9        48.500                    90029007.08049
        36.500    21985998.53149
  23925960.398 7 125731760.028 7        44.900    23925964.000 7  97972820.52248
        30.400    23925964.05148
  21299282.039 9 111928499.242 9        52.100    21299289.363 9  87217039.81149
        44.600    21299288.25849  21299286.516 6  83582981.566 6        40.100
  20447205.484 9 107450800.566 9        54.100                    83727906.73149
        48.500    20447206.41849
  20168823.031 9 105987829.876 9        49.100                    82587992.18449
        45.200    20168826.18049
  24877385.977 6 130731548.955 6        40.600                   101868742.62346
        22.000    24877387.28946
 17  4  9  0 59 30.0000000  0 10G01G32G08G28G14G17G03G22G11G23
  20201320.391 9 106158656.500 9        56.800    20201327.512 9  82721071.97249
        50.500    20201327.22749  20201323.152 7  79274355.360 7        43.300
  23031625.367 8 121032037.445 8        45.800    23031631.613 7  94310708.47648
        33.200    23031630.71548  23031627.523 4  90381085.272 4        34.300
  22971759.648 8 120717440.611 8        45.500    22971767.246 7  94065585.35249
        35.200    22971765.94549  22971762.848 4  90146177.884 4        34.200
  23926729.578 6 125735810.734 6        40.800                    97975971.29246
        24.500    23926733.10946
  21990333.438 9 115559996.760 9        48.500                    90046772.19749
        37.100    21990336.89849
  23908769.391 7 125641421.229 7        44.100    23908773.008 7  97902426.65748
        31.200    23908773.74648
  21287588.703 9 111867050.146 9        52.700    21287595.703 9  87169157.40549
        44.900    21287595.05949  21287593.371 6  83537094.269 6        40.500
  20444383.266 9 107435971.344 9        53.700                    83716351.49849
        48.100    20444384.62149
  20174745.953 9 106018955.537 9        49.400                    82612245.93349
        44.900    20174748.96949
  24856895.891 6 130623871.073 6        40.100                   101784837.81846
        22.600    24856897.28946
 17  4  9  1  0  0.0000000  0 10G01G32G08G28G14G17G03G22G11G23
  20199070.797 9 106146832.426 9        55.700    20199077.590 9  82711858.40849
        50.500    20199077.34049  20199073.031 7  79265525.696 7        43.800
  23044839.664 8 121101481.365 8        45.300    23044846.422 7  94364820.61248
        31.300    23044845.62148  23044842.727 4  90432942.726 4        34.400
  22991663.813 8 120822035.163 8        45.200    22991671.055 7  94147087.59549
        34.600    22991669.99649  22991666.488 4  90224284.196 4        34.800
  23935636.539 6 125782616.490 6        40.400                    98012443.32046
        24.000    23935639.48846
  21994777.273 9 115583349.100 9        48.700                    90064968.82449
        37.300    21994780.44549
  23891628.992 7 125551349.331 7        44.500    23891633.383 7  97832240.76548
        31.100    23891632.87148
  21275960.977 9 111805945.531 9        53.000    21275967.895 9  87121543.43049
        45.000    21275967.17649  21275965.781 6  83491464.214 6        40.700
  20441632.945 9 107421517.331 9        52.900                    83705088.63549
        48.400    20441634.37949
  20180771.695 9 106050620.894 9        49.300                    82636920.23449
        45.000    20180774.71549
  24836408.398 6 130516215.568 6        39.500                   101700950.43446
        20.900    24836410.32446
 17  4  9  1  0 30.0000000  0 10G01G32G08G28G14G17G03G22G11G23
  20196895.320 9 106135399.689 9        54.200    20196902.340 9  82702949.77549
        50.500    20196902.15649  20196897.789 7  79256988.259 7        43.700
  23058139.219 8 121171370.085 8        45.600    23058145.320 7  94419279.35548
        32.800    23058144.32848  23058141.141 4  90485132.353 4        34.200
  23011609.680 8 120926854.489 8        45.000    23011617.035 7  94228764.96849
        34.300    23011616.48049  23011612.918 4  90302558.362 4        34.400
  23944617.555 6 125829816.597 6        40.400                    98049222.59746
        23.000    23944621.54346
  21999325.797 9 115607254.241 9        49.100                    90083596.22249
        37.100    21999328.92649
  23874540.352 8 125461546.831 8        45.700    23874544.336 7  97762264.78848
        31.700    23874543.79748
  21264398.406 9 111745185.896 9        52.100    21264405.734 9  87074198.25949
        44.900    21264404.88349  21264403.430 6  83446091.759 6        40.900
  20438953.891 9 107407438.397 9        51.300                    83694118.04649
        48.300    20438954.96949
  20186899.656 9 106082824.684 9        49.500                    82662014.08649
        44.900    20186902.63749
  24815926.414 5 130408584.277 5        37.500                   101617081.82045
        19.600    24815928.16845
 17  4  9  1  1  0.0000000  0 10G01G32G08G28G14G17G03G22G11G23
  20194793.844 9 106124358.940 9        54.100    20194801.484 9  82694346.59849
        50.500    20194801.32049  20194797.242 7  79248743.541 7        43.900
  23071523.148 8 121241701.194 8        45.400    23071529.234 7  94474082.82848
        32.100    23071528.41448  23071524.348 3  90537652.346 3        33.300
  23031598.719 8 121031896.107 8        45.100    23031605.652 7  94310615.57248
        33.700    23031604.55148  23031601.691 4  90380998.512 4        34.600
  23953674.328 6 125877408.360 6        40.300                    98086307.09846
        24.200    23953677.79746
  22003980.016 9 115631711.258 9        48.900                    90102653.64949
        36.900    22003983.57049
  23857503.570 7 125372016.177 7        44.600    23857507.355 7  97692500.65448
        31.400    23857507.53548
  21252902.336 9 111684771.682 9        52.500    21252908.750 9  87027122.26649
        44.900    21252908.05149  21252906.309 6  83400977.263 6        40.800
  20436345.992 9 107393733.638 9        51.300                    83683439.00849
        48.200    20436347.23049
  20193130.453 9 106115566.245 9        50.000                    82687526.98349
        45.500    20193133.23449
  24795449.984 6 130300979.681 6        38.400                   101533234.12946
        22.500    24795453.09046
 17  4  9  1  1 30.0000000  0 10G01G32G08G28G14G17G03G22G11G23
  20192767.727 9 106113710.712 9        57.300    20192774.949 9  82686049.26649
        50.500    20192774.41049  20192770.449 7  79240791.938 7        43.600
  23084990.203 8 121312472.124 8        45.600    23084996.469 7  94529229.01748
        31.800    23084995.37948  23084991.664 3  90590500.790 3        33.900
  23051629.117 7 121137157.435 7        44.500    23051636.305 7  94392637.38448
        33.300    23051635.01248  23051632.324 4  90459602.728 4        34.800
  23962805.266 6 125925389.511 6        40.100                    98123694.95646
        23.900    23962808.11746
  22008738.672 9 115656719.152 9        48.500                    90122140.32749
        36.400    22008742.46949
  23840517.750 7 125282759.720 7        43.700    23840522.367 7  97622950.16548
        30.100    23840521.80548
  21241471.828 9 111624703.225 9        53.000    21241478.570 9  86980315.67449
        45.300    21241477.81649  21241476.305 7  83356120.950 7        41.100
  20433808.984 9 107380402.355 9        53.400                    83673051.00649
        48.200    20433810.19949
  20199463.188 9 106148845.630 9        49.400                    82713458.96049
        45.000    20199466.00049
  24774979.313 6 130193403.789 6        40.700                   101449408.79946
        22.800    24774982.00446
 17  4  9  1  2  0.0000000  0 10G01G32G08G28G14G17G03G22G11G23
  20190816.289 9 106103456.140 9        56.500    20190823.332 9  82678058.69149
        50.500    20190822.89149  20190818.988 7  79233134.301 7        43.300
  23098540.766 8 121383681.000 8        45.500    23098547.270 7  94584716.45748
        31.800    23098546.43448  23098543.188 4  90643676.253 4        34.100
  23071700.883 7 121242636.183 7        43.900    23071708.852 7  94474828.59848
        33.700    23071707.82048  23071703.961 4  90538369.310 4        34.200
  23972009.234 6 125973758.204 6        39.100                    98161384.88646
        23.000    23972011.23446
  22013602.281 9 115682277.190 9        48.000                    90142055.68049
        36.700    22013605.87149
  23823586.766 8 125193780.201 8        46.200    23823590.465 7  97553615.46448
        31.900    23823589.85248
  21230106.836 9 111564981.475 9        53.200    21230113.852 9  86933779.25249
        45.100    21230113.10249  21230111.883 6  83311523.545 6        40.800
  20431343.516 9 107367445.222 9        53.500                    83662954.55249
        48.300    20431344.56649
  20205898.391 9 106182662.614 9        50.000                    82739809.84649
        44.900    20205901.67649
  24754514.141 6 130085859.201 6        40.700                   101365607.81146
        22.800    24754516.14146
 17  4  9  1  2 30.0000000  0 10G01G32G08G28G14G17G03G22G11G23
  20188939.813 9 106093595.993 9        57.100    20188947.148 9  82670375.46849
        50.400    20188946.82049  20188942.805 7  79225771.212 7        43.500
  23112174.219 8 121455325.417 8        45.900    23112180.809 7  94640543.27648
        32.500    23112180.23848  23112176.699 4  90697176.943 4        34.400
  23091813.563 7 121348329.797 7        44.900    23091821.578 7  94557187.23749
        34.200    23091820.52749  23091816.961 4  90617296.352 4        34.300
  23981287.359 6 126022512.246 6        40.700                    98199375.02746
        23.800    23981290.20746
  22018570.438 9 115708384.174 9        48.000                    90162398.80349
        37.300    22018573.73049
  23806706.813 8 125105079.968 8        45.400    23806711.102 7  97484498.41048
        30.200    23806710.60248
  21218808.320 9 111505606.960 9        53.700    21218815.148 9  86887513.40849
        45.300    21218814.37149  21218812.922 6  83267185.450 6        40.400
  20428948.781 9 107354861.474 9        53.600                    83653149.02249
        48.200    20428949.91049
  20212435.758 9 106217016.433 9        51.000                    82766579.05349
        44.900    20212438.97749
  24734057.281 7 129978347.995 7        42.800                   101281832.89246
        22.800    24734057.78946
 17  4  9  1  3  0.0000000  0 11G01G32G08G28G14G17G03G22G11G31G23
  20187138.906 9 106084130.734 9        55.000    20187146.000 9  82662999.94349
        50.700    20187145.55949  20187141.543 7  79218703.004 7        43.300
  23125890.109 8 121527402.830 8        46.200    23125896.199 7  94696707.50248
        32.800    23125895.32048  23125892.367 4  90751000.981 4        34.100
  23111967.414 8 121454235.856 8        45.200    23111974.605 7  94639711.42848
        33.900    23111973.52348  23111970.777 4  90696382.022 4        34.000
  23990637.188 6 126071649.087 6        40.200                    98237663.48546
        24.400    23990640.04746
  22023642.438 9 115735039.219 9        48.500                    90183168.98149
        37.100    22023645.76249
  23789881.234 7 125016661.412 7        44.900    23789885.180 7  97415600.83148
        31.000    23789884.28148
  21207575.984 9 111446579.948 9        53.300    21207582.652 9  86841518.33849
        45.300    21207581.93449  21207580.543 7  83223106.838 7        41.000
  20426624.969 9 107342650.367 9        51.400                    83643633.87649
        48.400    20426625.98449
  20219075.016 9 106251906.464 9        50.700                    82793766.07749
        45.400    20219078.14549
  24929705.547 6 131006479.30516        39.100    24929711.617 6 102082996.03256
        22.000    24929710.28946
  24713603.992 7 129870872.002 7        42.000                   101198085.34446
        24.000    24713606.34846
 17  4  9  1  3 30.0000000  0 11G01G32G08G28G14G17G03G22G11G31G23
  20185412.984 9 106075061.157 9        54.500    20185420.258 9  82655932.74849
        50.500    20185419.79749  20185415.605 7  79211930.275 7        43.400
  23139688.242 8 121599910.934 8        45.300    23139694.703 7  94753207.32348
        32.800    23139693.81648  23139690.043 3  90805146.652 3        33.300
  23132160.203 8 121560351.461 8        45.400    23132167.941 7  94722398.89948
        33.900    23132166.66848  23132163.512 4  90775624.168 4        34.300
  24000059.773 6 126121166.720 6        39.000                    98276248.61646
        24.100    24000063.93046
  22028819.063 8 115762241.645 8        47.400                    90204365.68949
        36.900    22028822.90649
  23773110.031 8 124928527.296 8        45.600    23773114.547 6  97346924.89048
        31.200    23773113.52748
  21196409.492 9 111387901.062 9        53.000    21196416.559 9  86795794.54149
        45.400    21196415.56649  21196414.172 6  83179288.202 6        40.900
  20424372.539 9 107330811.860 9        51.500                    83634409.07449
        48.400    20424373.00849
  20225816.258 9 106287332.142 9        50.600                    82821370.49449
        45.100    20225819.50849
  24914730.070 6 130927785.033 6        38.300    24914735.926 6 102021675.90346
        20.600    24914735.50446
  24693159.477 6 129763433.819 6        40.200                   101114367.26746
        22.500    24693161.12946
 17  4  9  1  4  0.0000000  0 11G01G32G08G28G14G17G03G22G11G31G23
  20183762.391 9 106066387.947 9        57.600    20183769.430 9  82649174.40249
        50.600    20183769.14849  20183765.070 7  79205453.523 7        43.700
  23153567.055 8 121672847.323 8        45.300    23153573.785 7  94810040.87848
        32.300    23153572.93048  23153569.273 3  90859612.157 3        33.200
  23152392.852 7 121666674.367 7        44.500    23152400.707 7  94805247.89249
        34.400    23152399.47749  23152395.793 3  90855021.132 3        33.800
  24009554.766 6 126171063.302 6        39.300                    98315129.07746
        22.500    24009558.72346
  22034099.578 8 115789990.100 8        46.700                    90225987.86449
        36.900    22034102.58649
  23756393.398 8 124840680.038 8        46.300    23756397.414 7  97278472.48448
        31.400    23756396.44548
  21185309.758 9 111329570.776 9        53.500    21185316.645 9  86750342.37349
        45.600    21185315.78549  21185314.332 6  83135729.885 6        40.800
  20422190.484 9 107319345.677 9        53.600                    83625474.38949
        48.700    20422191.44949
  20232659.609 9 106323293.155 9        51.300                    82849392.05149
        45.300    20232662.51249
  24899793.148 6 130849284.408 6        40.500    24899798.176 5 101960506.56546
        20.100    24899797.14146
  24672721.094 6 129656035.512 6        40.300                   101030680.30346
        22.200    24672724.23046
 17  4  9  1  4 30.0000000  0 11G01G32G08G28G14G17G03G22G11G31G23
  20182187.445 9 106058111.872 9        56.600    20182194.711 9  82642725.50649
        50.600    20182194.62549  20182190.313 7  79199273.335 7        43.500
  23167527.836 7 121746209.717 7        44.700    23167533.406 7  94867206.37848
        33.100    23167533.05948  23167530.047 4  90914395.756 4        34.400
  23172664.367 7 121773202.315 7        43.800    23172671.801 7  94888256.67448
        33.300    23172670.79748  23172667.582 3  90934571.217 3        33.900
  24019122.055 6 126221336.347 6        40.600                    98354302.87946
        22.600    24019124.58246
  22039483.328 8 115818283.258 8        46.700                    90248034.49149
        36.800    22039486.64549
  23739731.633 8 124753122.233 8        45.200    23739734.852 6  97210245.62448
        30.900    23739734.56348
  21174276.523 9 111271589.636 9        53.900    21174282.895 9  86705162.27149
        45.500    21174282.21149  21174280.703 6  83092432.287 6        40.300
  20420079.078 9 107308251.311 9        53.600                    83616829.42549
        48.600    20420080.39149
  20239604.711 9 106359789.435 9        50.800                    82877830.70449
        44.900    20239607.52349
  24884892.164 6 130770980.359 6        40.500    24884896.406 5 101899490.42846
        20.600    24884895.66046
  24652293.898 7 129548679.368 7        42.100                   100947026.13646
        21.700    24652295.72746
 17  4  9  1  5  0.0000000  0 11G01G32G08G28G14G17G03G22G11G31G23
  20180688.469 9 106050233.732 9        57.200    20180695.402 9  82636586.68949
        50.700    20180695.06349  20180691.043 7  79193390.303 7        43.300
  23181568.602 8 121819995.767 8        45.100    23181574.609 7  94924702.02048
        31.600    23181573.98448  23181571.086 4  90969495.734 4        34.700
  23192974.273 7 121879932.409 7        44.300    23192981.570 7  94971422.96748
        32.400    23192980.31648  23192977.922 3  91014272.232 3        33.900
  24028759.578 6 126271982.941 6        39.000                    98393767.74846
        22.200    24028762.59046
  22044970.828 8 115847120.336 8        47.200                    90270504.95249
        37.100    22044974.66449
  23723126.000 8 124665856.550 8        45.500    23723129.109 7  97142246.38648
        31.400    23723128.14548
  21163309.492 9 111213958.226 9        53.400    21163316.438 9  86660254.68949
        45.600    21163315.32449  21163313.754 6  83049395.852 6        40.600
  20418038.859 9 107297528.572 9        54.400                    83608474.05249
        48.600    20418039.87949
  20246651.313 9 106396819.720 9        51.800                    82906685.46049
        44.900    20246654.42249
  24870030.070 7 130692876.270 7        41.100    24870034.117 5 101838630.12546
        20.100    24870033.52046
  24631872.367 7 129441367.464 7        41.700                   100863406.47446
        22.300    24631873.94146
 17  4  9  1  5 30.0000000  0 12G01G32G08G19G28G14G17G03G22G11G31G23
  20179265.109 9 106042753.902 9        57.300    20179272.598 9  82630758.24449
        50.800    20179272.41449  20179268.223 7  79187804.704 7        43.100
  23195689.969 8 121894202.783 8        45.000    23195696.266 7  94982525.67048
        32.400    23195695.09448  23195691.906 4  91024910.062 4        34.000
  23213322.758 7 121986861.893 7        44.100    23213329.770 7  95054744.63348
        32.700    23213328.77048  23213325.441 3  91094122.153 3        33.400
  25095303.406 5 131876704.93215        35.800                   102761080.07355
        17.400    25095304.26645
  24038468.086 6 126323001.442 6        39.800                    98433522.42046
        22.800    24038471.48846
  22050561.938 8 115876500.230 8        47.500                    90293398.38549
        36.500    22050565.16449
  23706575.383 8 124578885.126 8        45.900    23706579.063 7  97074476.44148
        31.700    23706578.80948
  21152409.078 9 111156676.744 9        53.300    21152415.793 9  86615619.78049
        45.600    21152414.96949  21152413.574 7  83006620.738 7        41.000
  20416068.914 9 107287176.541 9        53.900                    83600407.53349
        48.500    20416069.62149
  20253799.297 9 106434383.245 9        50.900                    82935955.73549
        45.600    20253802.33649
  24855204.945 6 130614975.022 6        40.500    24855209.426 5 101777927.85446
        21.100    24855208.06346
  24611459.250 7 129334102.002 7        41.400                   100779823.01546
        23.900    24611462.38346
 17  4  9  1  6  0.0000000  0 12G01G32G08G19G28G14G17G03G22G11G31G23
  20177917.789 9 106035673.172 9        54.200    20177924.672 9  82625240.78749
        50.600    20177924.43849  20177920.480 7  79182517.139 7        43.600
  23209890.586 7 121968828.438 7        44.500    23209896.813 7  95040675.52148
        32.000    23209895.98448  23209892.328 3  91080637.010 3        32.700
  23233707.828 7 122093988.315 7        44.200    23233715.867 7  95138219.74848
        33.700    23233715.11748  23233711.555 3  91174119.147 3        33.700
  25074733.133 5 131768609.769 5        37.400                   102676850.06646
        21.300    25074734.88746
  24048246.625 6 126374389.700 6        39.000                    98473565.17446
        22.300    24048249.30546
  22056255.641 8 115906421.870 8        46.600                    90316713.96149
        36.900    22056259.34049
  23690081.773 8 124492211.065 8        45.700    23690085.918 7  97006938.22648
        31.100    23690085.36348
  21141575.563 9 111099745.700 9        52.200    21141582.516 9  86571257.93749
        45.700    21141581.57449  21141580.242 6  82964107.306 6        40.400
  20414169.453 9 107277195.034 9        51.500                    83592629.74049
        48.600    20414170.27049
  20261048.719 9 106472479.816 9        51.000                    82965641.36749
        44.700    20261052.17249
  24840419.969 6 130537279.855 6        39.400    24840425.090 5 101717386.19346
        21.700    24840424.91446
  24591057.984 7 129226885.234 7        43.300                   100696277.45946
        22.800    24591058.91446
 17  4  9  1  6 30.0000000  0 12G01G32G08G19G28G14G17G03G22G11G31G23
  20176646.078 9 106028992.444 9        57.200    20176653.563 9  82620035.02349
        50.600    20176653.07049  20176649.055 7  79177528.280 7        43.500
  23224170.695 8 122043870.513 8        45.000    23224177.340 7  95099149.87048
        32.100    23224176.22748  23224172.508 3  91136674.927 3        32.900
  23254130.617 7 122201309.692 7        43.800    23254137.777 7  95221846.78448
        33.000    23254136.69148  23254133.242 3  91254261.725 3        33.400
  25054198.836 6 131660696.331 6        38.100                   102592761.73845
        19.900    25054198.91445
  24058095.602 6 126426144.691 6        38.900                    98513893.74546
        22.600    24058099.36346
  22062052.484 8 115936884.092 8        46.400                    90340450.76949
        37.000    22062056.29749
  23673646.000 8 124405836.248 8        46.700    23673649.430 7  96939633.17048
        32.300    23673648.28948
  21130808.773 9 111043165.784 9        53.200    21130815.289 9  86527169.68949
        45.500    21130814.50449  21130813.168 6  82921856.072 6        40.600
  20412340.422 9 107267583.706 9        54.200                    83585140.40049
        48.800    20412341.68449
  20268399.484 9 106511108.740 9        51.400                    82995741.82149
        44.800    20268403.09449
  24825675.914 6 130459793.923 6        40.200    24825680.469 5 101657007.57546
        22.200    24825679.55546
  24570663.695 6 129119719.455 6        40.800                   100612771.65146
        24.000    24570666.27346
 17  4  9  1  7  0.0000000  0 12G01G32G08G19G28G14G17G03G22G11G31G23
  20175451.258 9 106022712.246 9        57.300    20175458.105 9  82615141.35649
        50.700    20175457.78949  20175453.832 7  79172838.524 7        44.100
  23238529.336 7 122119326.438 7        43.900    23238536.281 7  95157946.70748
        31.100    23238535.29748  23238532.051 3  91193021.904 3        33.300
  23274590.289 7 122308823.011 7        44.500    23274596.965 7  95305623.37848
        32.800    23274596.07448  23274593.625 4  91334547.635 4        34.400
  25033698.430 4 131552967.124 4        34.800                   102508816.96545
        19.600    25033700.08245
  24068013.406 6 126478264.357 6        38.900                    98554506.43146
        21.800    24068016.80146
  22067951.625 8 115967885.643 8        46.500                    90364607.82449
        36.200    22067955.16049
  23657266.234 8 124319763.186 8        46.900    23657270.805 7  96872563.23748
        31.600    23657269.67648
  21120108.453 9 110986937.299 9        53.100    21120115.297 9  86483355.28949
        45.600    21120114.31349  21120112.863 7  82879867.277 7        41.000
  20410581.766 9 107258341.973 9        54.600                    83577939.05749
        48.800    20410582.85249
  20275851.836 9 106550268.996 9        51.700                    83026256.29649
        44.800    20275854.44949
  24810970.055 6 130382520.313 6        39.800    24810975.539 5 101596794.37446
        21.700    24810974.25046
  24550280.516 6 129012606.793 6        40.300                   100529307.24047
        25.500    24550283.71147
 17  4  9  1  7 30.0000000  0 12G01G32G08G19G28G14G17G03G22G11G31G23
  20174332.563 9 106016833.315 9        57.000    20174339.605 9  82610560.36749
        50.800    20174339.23849  20174335.223 7  79168448.406 7        43.400
  23252966.398 7 122195193.883 7        44.500    23252972.668 7  95217064.18448
        31.200    23252972.29748  23252968.875 3  91249676.147 3        33.100
  23295084.789 7 122416525.905 7        43.900    23295092.824 7  95389547.70848
        32.800    23295091.78148  23295088.977 4  91414975.085 4        34.400
  25013232.609 3 131445425.060 3        33.100                   102425017.94745
        19.000    25013234.74245
  24078001.211 6 126530746.367 6        39.700                    98595401.48846
        23.200    24078004.28146
  22073953.375 8 115999425.166 8        46.800                    90389184.08649
        36.100    22073956.72749
  23640944.852 8 124233994.663 8        45.100    23640948.941 7  96805730.63048
        32.800    23640948.59448
  21109475.531 9 110931060.793 9        54.100    21109482.664 9  86439815.17249
        45.800    21109481.81349  21109479.949 6  82838141.329 6        40.800
  20408893.352 9 107249469.564 9        54.200                    83571025.49049
        48.600    20408894.18449
  20283404.570 9 106589960.269 9        51.500                    83057184.55249
        45.200    20283407.57449
  24796307.070 6 130305462.221 6        40.300    24796311.645 5 101536749.14946
        21.800    24796310.10946
  24529910.266 7 128905549.650 7        42.700                   100445886.09146
        22.200    24529911.01646
 17  4  9  1  8  0.0000000  0 12G01G32G08G19G28G14G17G03G22G11G31G23
  20173290.352 9 106011356.325 9        56.700    20173297.191 9  82606292.58649
        50.700    20173297.09449  20173292.727 7  79164358.448 7        43.700
  23267481.641 8 122271470.402 8        45.300    23267487.543 7  95276500.43048
        31.600    23267487.25848  23267483.367 3  91306635.882 3        33.200
  23315615.836 7 122524415.797 7        43.700    23315624.223 7  95473617.71648
        32.300    23315623.18448  23315618.445 3  91495542.205 3        33.100
  24992805.305 5 131338072.897 5        36.500                   102341366.95146
        20.600    24992806.79346
  24088056.547 6 126583588.522 6        40.100                    98636577.17246
        23.600    24088059.91846
  22080057.313 8 116031501.945 8        46.100                    90414178.98849
        36.300    22080061.06349
  23624682.813 8 124148533.045 8        47.300    23624686.207 7  96739137.14948
        33.000    23624685.51248
  21098909.859 9 110875536.738 9        54.300    21098916.598 9  86396549.68749
        46.000    21098915.75849  21098913.957 6  82796678.573 6        40.500
  20407275.297 9 107240966.295 9        54.300                    83564399.57749
        48.500    20407276.30949
  20291058.719 9 106630182.097 9        51.900                    83088526.22949
        45.300    20291061.91449
  24781684.273 6 130228622.814 6        39.500    24781690.016 5 101476874.27246
        21.100    24781689.09046
  24509547.398 6 128798550.105 6        39.300                   100362509.82446
        22.500    24509549.99646
 17  4  9  1  8 30.0000000  0 12G01G32G08G19G28G14G17G03G22G11G31G23
  20172324.914 9 106006281.962 9        56.700    20172331.715 9  82602338.52949
        50.700    20172331.41849  20172327.227 7  79160569.149 7        43.300
  23282073.305 8 122348153.552 8        45.200    23282080.172 7  95336253.53348
        31.200    23282079.55948  23282075.609 3  91363899.277 3        32.900
  23336181.758 7 122632490.060 7        44.700    23336189.289 7  95557831.41648
        31.400    23336187.93048  23336185.418 3  91576246.990 3        33.600
  24972413.242 5 131230913.188 5        36.500                   102257865.91146
        21.100    24972414.88346
  24098180.133 6 126636788.471 6        40.400                    98678031.68146
        24.400    24098183.31646
  22086263.148 8 116064114.649 8        45.900                    90439591.48049
        36.600    22086266.89849
  23608478.063 8 124063380.699 8        47.300    23608482.234 7  96672784.65748
        32.600    23608482.19148
  21088411.078 9 110820365.567 9        54.400    21088418.086 9  86353559.16749
        45.800    21088416.89149  21088415.555 6  82755479.320 6        40.900
  20405727.250 9 107232831.228 9        54.400                    83558060.56449
        48.700    20405728.30549
  20298813.430 9 106670933.634 9        51.100                    83120280.65949
        44.500    20298816.78949
  24767105.914 6 130152005.326 6        40.400    24767109.840 5 101417172.32246
        22.200    24767109.45746
  24489196.000 6 128691610.251 6        38.200                   100279180.05646
        22.600    24489199.59046
 17  4  9  1  9  0.0000000  0 12G01G32G08G19G28G14G17G03G22G11G31G23
  20171435.641 9 106001610.591 9        54.100    20171442.738 9  82598698.49849
        50.600    20171442.47349  20171438.398 7  79157080.773 7        43.900
  23296743.023 7 122425240.619 7        44.600    23296749.000 7  95396321.38248
        31.400    23296748.58648  23296744.637 3  91421464.302 3        33.400
  23356782.016 7 122740745.946 7        44.900    23356789.652 7  95642186.65048
        31.000    23356788.46548  23356785.895 3  91657087.409 3        33.600
  24952058.219 4 131123948.703 4        34.500                   102174516.97946
        22.300    24952060.82446
  24108370.633 6 126690343.480 6        38.700                    98719762.84646
        23.600    24108373.91446
  22092570.984 8 116097261.721 8        46.100                    90465420.37549
        36.300    22092574.34849
  23592333.477 8 123978540.208 8        46.300    23592337.410 7  96606675.18548
        32.300    23592337.52748
  21077979.523 9 110765547.479 9        53.500    21077986.254 9  86310843.78249
        46.000    21077985.32849  21077984.109 6  82714543.751 6        40.800
  20404249.117 9 107225063.585 9        51.700                    83552007.85549
        48.700    20404250.17649
  20306668.820 9 106712213.616 9        51.000                    83152446.87649
        44.700    20306671.67249
  24752567.266 6 130075612.409 6        40.400    24752572.383 5 101357645.37346
        21.500    24752571.89146
  24468859.516 6 128584732.469 6        40.800                   100195898.68646
        22.300    24468861.03946
 17  4  9  1  9 30.0000000  0 12G01G32G08G19G28G14G17G03G22G11G31G23
  20170623.680 9 105997343.109 9        56.200    20170630.895 9  82595373.17549
        50.500    20170630.74649  20170626.727 7  79153894.005 7        43.200
  23311488.086 7 122502729.377 7        44.800    23311494.488 7  95456702.23147
        29.900    23311494.08647  23311490.602 3  91479329.285 3        33.200
  23377416.852 8 122849181.211 8        45.700    23377424.504 7  95726681.63948
        32.300    23377423.46548  23377419.840 4  91738061.773 4        34.200
  24931741.648 5 131017182.307 5        36.500                   102091322.39646
        22.000    24931742.54346
  24118629.766 6 126744251.408 6        39.300                    98761768.98546
        22.300    24118632.46546
  22098980.031 8 116130942.384 8        46.500                    90491665.05949
        36.600    22098983.48449
  23576249.133 9 123894014.221 9        48.200    23576252.652 7  96540810.76648
        33.300    23576252.26648
  21067615.617 9 110711083.034 9        53.500    21067622.582 9  86268403.96749
        46.100    21067621.64849  21067620.082 7  82673872.262 7        41.300
  20402840.609 9 107217663.592 9        54.900                    83546241.61549
        48.800    20402842.07449
  20314624.609 9 106754021.718 9        51.400                    83185024.61349
        44.700    20314627.89849
  24738073.563 6 129999447.765 6        38.400    24738079.289 6 101298296.31446
        21.500    24738079.50846
  24448534.883 7 128477918.905 7        41.000                   100112667.35346
        22.900    24448534.47346
 17  4  9  1 10  0.0000000  0 12G01G32G08G19G28G14G17G03G22G11G31G23
  20169888.688 9 105993480.148 9        56.400    20169895.531 9  82592363.07149
        50.500    20169894.92649  20169891.258 7  79151009.327 7        43.900
  23326309.969 7 122580617.335 7        44.700    23326316.332 7  95517394.15748
        30.500    23326315.71148  23326312.465 3  91537492.382 3        33.000
  23398084.867 8 122957793.433 8        45.900    23398092.277 7  95811314.53548
        33.100    23398091.58648  23398087.902 3  91819168.312 3        33.200
  24911462.000 5 130910616.623 5        36.900                   102008284.29945
        19.000    24911464.21945
  24128954.711 6 126798510.121 6        39.400                    98804048.50846
        23.000    24128957.97346
  22105490.836 8 116165154.967 8        46.600                    90518324.22749
        36.300    22105494.72349
  23560224.516 9 123809805.112 9        48.000    23560228.699 7  96475193.26748
        33.600    23560228.57448
  21057318.633 9 110656972.744 9        54.400    21057325.395 9  86226240.10849
        46.500    21057324.73849  21057322.758 7  82633465.230 7        41.400
  20401502.391 9 107210630.822 9        53.900                    83540761.53949
        48.800    20401503.43049
  20322680.688 9 106796357.267 9        51.600                    83218013.34649
        44.700    20322684.12949
  24723623.727 6 129923514.195 6        38.400    24723629.570 5 101239127.29446
        21.500    24723628.94146
  24428221.047 7 128371171.715 7        42.000                   100029487.66846
        24.000    24428221.82446
 17  4  9  1 10 30.0000000  0 12G01G32G08G19G28G14G17G03G22G11G31G23
  20169230.430 9 105990022.409 9        53.900    20169238.156 9  82589668.72349
        50.400    20169237.78149  20169233.820 7  79148427.241 7        43.600
  23341207.352 8 122658902.192 8        45.600    23341213.301 7  95578395.33848
        30.000    23341212.27348  23341209.086 3  91595951.838 3        33.000
  23418786.070 8 123066579.709 8        45.700    23418793.539 7  95896083.06448
        31.000    23418792.32048  23418789.344 3  91900404.811 3        33.300
  24891221.844 5 130804254.741 5        36.900                   101925404.92746
        20.900    24891224.03946
  24139345.992 6 126853117.070 6        40.000                    98846599.36146
        23.800    24139349.64546
  22112101.930 8 116199898.467 8        46.400                    90545397.07749
        36.600    22112105.66849
  23544260.859 8 123725915.461 8        47.500    23544264.684 7  96409824.71448
        33.600    23544264.46948
  21047089.156 9 110603217.117 9        54.700    21047095.926 9  86184352.61349
        46.300    21047095.26249  21047093.105 6  82593323.053 6        40.500
  20400233.922 9 107203964.547 9        51.600                    83535567.04249
        48.700    20400235.09449
  20330837.164 9 106839219.952 9        52.800                    83251412.82949
        44.600    20330840.20749
  24709219.813 7 129847814.892 7        41.100    24709224.133 6 101180140.86247
        25.600    24709223.27747
  24407920.461 7 128264493.394 7        43.400                    99946361.71047
        25.800    24407922.26247
 17  4  9  1 11  0.0000000  0 12G01G32G08G19G28G14G17G03G22G11G31G23
  20168649.789 9 105986970.350 9        56.700    20168656.965 9  82587290.49249
        50.500    20168656.76249  20168652.684 7  79146148.099 7        44.400
  23356179.172 7 122737581.137 7        44.700    23356185.449 7  95639703.60748
        30.400    23356184.62948  23356181.203 3  91654705.592 3        32.800
  23439520.227 8 123175537.653 8        45.500    23439528.035 7  95980985.34148
        31.900    23439526.81348  23439523.953 3  91981769.487 3        33.200
  24871021.633 5 130698099.026 5        36.900                   101842686.16046
        21.800    24871024.57046
  24149802.961 6 126908069.544 6        38.900                    98889419.44946
        22.300    24149806.39146
  22118814.625 8 116235171.425 8        47.200                    90572882.50649
        36.300    22118817.98849
  23528358.844 8 123642347.806 8        47.900    23528362.238 7  96344707.04948
        32.800    23528361.94148
  21036927.016 9 110549816.200 9        54.600    21036933.875 9  86142741.51449
        46.200    21036932.95749  21036931.035 7  82553445.750 7        41.300
  20399035.008 9 107197664.357 9        54.400                    83530657.80149
        48.700    20399036.02749
  20339093.852 9 106882608.456 9        51.900                    83285222.04349
        44.800    20339096.72749
  24694859.773 7 129772353.524 7        41.300    24694864.551 6 101121339.81246
        22.800    24694863.51246
  24387634.180 7 128157885.830 7        42.900                    99863290.90847
        25.700    24387635.18047
 17  4  9  1 11 30.0000000  0 12G01G32G08G19G28G14G17G03G22G11G31G23
  20168146.453 9 105984324.618 9        56.700    20168153.406 9  82585228.87749
        50.700    20168153.09849  20168149.195 7  79144172.390 7        43.200
  23371225.930 8 122816651.669 8        46.300    23371231.734 7  95701317.02248
        31.100    23371230.94948  23371227.469 2  91713751.783 2        31.800
  23460286.406 8 123284664.492 8        45.700    23460294.145 7  96066019.25548
        31.500    23460293.43448  23460289.754 3  92063260.305 3        33.800
  24850860.914 6 130592152.172 6        38.200                   101760130.20846
        22.000    24850862.31646
  24160325.375 6 126963365.151 6        39.300                    98932506.92046
        24.500    24160329.15246
  22125627.359 8 116270972.755 8        47.000                    90600779.65549
        36.400    22125630.44549
  23512517.688 8 123559104.597 8        47.600    23512522.141 7  96279842.19849
        34.000    23512521.98449
  21026833.031 9 110496770.499 9        54.300    21026839.691 9  86101407.21249
        46.500    21026838.80949  21026837.238 6  82513833.709 6        40.900
  20397905.742 9 107191729.548 9        54.600                    83526033.28349
        48.700    20397906.87549
  20347450.047 9 106926521.758 9        52.000                    83319440.19649
        44.800    20347453.54349
  24680544.305 6 129697132.551 6        40.400    24680550.352 5 101062726.04246
        21.700    24680548.58646
  24367362.016 7 128051351.263 7        42.700                    99780276.97347
        25.600    24367362.21547
 17  4  9  1 12  0.0000000  0 12G01G32G08G19G28G14G17G03G22G11G31G23
  20167720.523 9 105982085.961 9        55.900    20167727.680 9  82583484.46749
        50.500    20167727.25049  20167723.176 7  79142500.661 7        43.600
  23386346.828 8 122896111.598 8        45.300    23386353.008 7  95763233.86248
        31.000    23386352.55148  23386348.895 2  91773088.755 2        31.800
  23481083.852 7 123393958.078 7        44.400    23481091.898 7  96151183.04848
        30.000    23481090.88748  23481087.379 3  92144875.621 3        32.700
  24830740.734 6 130486417.143 6        38.400                   101677739.29346
        21.800    24830740.81646
  24170913.133 6 127019001.577 6        40.100                    98975859.94946
        23.200    24170916.14146
  22132540.195 8 116307300.840 8        45.900                    90629087.25949
        36.200    22132543.81649
  23496739.531 8 123476188.201 8        47.500    23496743.180 7  96215232.01149
        34.200    23496743.00049
  21016806.313 9 110444080.524 9        54.400    21016813.148 9  86060350.09549
        46.400    21016812.37549  21016810.570 7  82474487.314 7        41.400
  20396845.938 9 107186159.679 9        54.600                    83521693.12549
        48.700    20396846.98449
  20355906.438 9 106970959.423 9        51.700                    83354066.93449
        45.100    20355909.13749
  24666277.984 6 129622155.404 6        40.800    24666282.078 5 101004302.30646
        21.700    24666280.96146
  24347102.258 7 127944892.098 7        41.100                    99697321.78846
        24.000    24347103.95346
 17  4  9  1 12 30.0000000  0 12G01G32G08G19G28G14G17G03G22G11G31G23
  20167371.867 9 105980254.987 9        53.700    20167379.188 9  82582057.73449
        50.600    20167378.90249  20167375.004 7  79141133.367 7        43.800
  23401540.953 7 122975958.284 7        44.600    23401547.449 7  95825452.06248
        30.700    23401546.90648  23401542.953 3  91832714.535 3        33.100
  23501913.055 7 123503415.434 7        44.600    23501920.320 7  96236474.49348
        30.300    23501919.17248  23501916.309 3  92226613.273 3        32.900
  24810660.000 5 130380896.841 5        37.700                   101595515.72145
        19.600    24810660.94945
  24181563.953 6 127074976.347 6        39.600                    99019476.67846
        23.000    24181567.74246
  22139553.383 8 116344154.487 8        47.100                    90657804.39049
        36.300    22139556.28549
  23481023.766 8 123393601.225 8        47.300    23481027.504 7  96150878.51948
        33.600    23481027.27048
  21006847.625 9 110391746.690 9        53.800    21006854.488 9  86019570.49149
        46.400    21006853.56649  21006851.820 6  82435406.860 6        40.800
  20395855.539 9 107180954.743 9        51.500                    83517637.32749
        48.700    20395856.91849
  20364462.156 9 107015920.610 9        51.800                    83389101.61949
        44.500    20364465.28149
  24652057.711 7 129547425.122 7        42.200    24652061.844 5 100946070.90246
        21.800    24652060.60946
  24326858.172 7 127838510.503 7        41.500                    99614427.05946
        23.600    24326860.19546
 17  4  9  1 13  0.0000000  0 12G01G32G08G19G28G14G17G03G22G11G31G23
  20167101.414 9 105978832.315 9        57.000    20167108.449 9  82580949.14849
        50.700    20167108.37149  20167104.121 7  79140070.982 7        43.500
  23416808.125 7 123056189.310 7        44.700    23416814.949 7  95887969.73347
        29.900    23416814.19947  23416810.543 3  91892627.298 3        32.600
  23522772.664 7 123613034.333 7        43.700    23522780.719 7  96321891.82748
        31.600    23522779.87548  23522777.133 4  92308471.528 4        34.000
  24790621.672 5 130275593.799 5        36.500                   101513461.45246
        20.600    24790623.36746
  24192280.070 6 127131287.169 6        39.400                    99063355.19446
        22.900    24192283.59846
  22146666.203 8 116381532.338 8        47.600                    90686930.00149
        36.700    22146668.97349
  23465370.891 9 123311346.047 9        48.000    23465375.172 7  96086783.58249
        34.400    23465375.14149
  20996956.570 9 110339769.361 9        54.100    20996963.730 9  85979068.68849
        46.400    20996962.56349  20996960.938 7  82396592.630 7        41.100
  20394934.430 9 107176114.238 9        54.500                    83513865.50649
        48.600    20394935.04349
  20373117.539 9 107061404.562 9        52.000                    83424543.65749
        44.400    20373120.39849
  24637883.727 6 129472944.754 6        39.700    24637889.113 5 100888034.26846
        22.300    24637888.34046
  24306629.586 7 127732209.046 7        41.700                    99531594.74246
        22.300    24306631.73446
 17  4  9  1 13 30.0000000  0 12G01G32G08G19G28G14G17G03G22G11G31G23
  20166908.164 9 105977818.483 9        56.100    20166915.383 9  82580159.14749
        50.700    20166915.02349  20166911.121 7  79139313.897 7        43.900
  23432148.258 7 123136802.063 7        43.900    23432154.871 7  95950784.87248
        31.400    23432154.35248  23432150.402 2  91952825.138 2        31.900
  23543662.820 7 123722812.034 7        43.900    23543671.121 7  96407432.89048
        30.500    23543670.42648  23543666.742 3  92390448.365 3        33.800
  24770624.523 5 130170510.860 5        36.500                   101431578.65746
        21.700    24770626.81646
  24203059.656 6 127187931.433 6        40.500                    99107493.58446
        24.900    24203062.64146
  22153878.500 8 116419432.499 8        46.800                    90716462.60149
        36.200    22153881.95349
  23449782.383 9 123229425.295 9        48.500    23449785.340 7  96022949.23449
        34.500    23449784.82449
  20987133.648 9 110288148.831 9        54.100    20987140.383 9  85938844.90349
        46.800    20987139.50849  20987137.824 6  82358044.839 6        40.400
  20394082.469 9 107171637.312 9        55.100                    83510377.00749
        48.600    20394083.10549
  20381872.219 9 107107410.186 9        51.300                    83460392.18849
        44.400    20381875.35249
  24623759.039 6 129398717.621 6        40.400    24623763.633 6 100830194.94846
        22.800    24623762.72746
  24286417.445 7 127625989.489 7        41.800                    99448826.27046
        23.000    24286419.34446
 17  4  9  1 14  0.0000000  0 12G01G32G08G19G28G14G17G03G22G11G31G23
  20166793.336 9 105977214.170 9        54.000    20166800.355 9  82579688.25149
        50.500    20166799.99649  20166796.039 7  79138862.621 7        43.700
  23447560.453 7 123217794.010 7        43.200    23447566.859 7  96013895.49147
        29.100    23447565.70347  23447561.984 3  92013306.151 3        32.500
  23564583.211 7 123832746.112 7        43.600    23564590.367 7  96493095.77848
        31.000    23564589.50848  23564585.711 3  92472541.987 3        33.000
  24750671.141 5 130065650.924 5        36.900                   101349869.64245
        19.600    24750671.86745
  24213900.695 6 127244906.719 6        39.300                    99151889.87646
        23.000    24213904.18446
  22161189.078 8 116457854.230 8        46.300                    90746401.61649
        35.200    22161193.10949
  23434256.758 8 123147841.728 8        47.300    23434261.039 7  95959377.59949
        34.000    23434260.69149
  20977378.484 9 110236885.426 9        54.400    20977385.344 9  85898899.40049
        46.600    20977384.62149  20977382.816 7  82319763.732 7        41.000
  20393299.406 9 107167523.495 9        51.300                    83507171.44149
        48.500    20393300.23849
  20390725.930 9 107153936.565 9        50.800                    83496646.49749
        44.200    20390728.74649
  24609682.133 7 129324746.684 7        41.400    24609687.648 6 100772555.26046
        22.300    24609686.79746
  24266221.063 7 127519853.900 7        42.500                    99366123.20546
        23.800    24266221.79746
 17  4  9  1 14 30.0000000  0 12G01G32G08G19G28G14G17G03G22G11G31G23
  20166756.086 9 105977019.574 9        54.000    20166763.273 9  82579536.61849
        50.600    20166763.19149  20166759.113 7  79138717.307 7        43.600
  23463044.273 7 123299162.531 7        43.400    23463050.891 7  96077299.53847
        29.800    23463050.06647  23463046.645 2  92074068.347 2        31.700
  23585531.750 7 123942833.802 7        42.400    23585539.215 7  96578878.41747
        29.100    23585537.85247  23585535.516 3  92554750.328 3        33.000
  24730759.250 6 129961016.570 6        38.100                   101268336.39946
        22.200    24730761.03146
  24224805.563 6 127302210.214 6        39.500                    99196541.92246
        21.700    24224808.55946
  22168599.984 8 116496795.923 8        46.800                    90776745.81249
        35.900    22168603.38349
  23418796.930 8 123066597.536 8        47.400    23418800.582 7  95896070.44248
        33.100    23418800.40648
  20967691.547 9 110185979.371 9        54.100    20967698.332 9  85859232.34749
        47.000    20967697.45349  20967695.473 6  82281749.473 6        40.600
  20392585.313 9 107163771.832 9        51.600                    83504248.07149
        48.800    20392586.70749
  20399678.422 9 107200982.945 9        52.000                    83533306.00449
        45.000    20399681.53949
  24595656.555 7 129251034.721 7        41.900    24595660.805 6 100715117.36846
        22.800    24595659.80146
  24246039.328 7 127413804.595 7        41.400                    99283487.37347
        25.600    24246041.64547
 17  4  9  1 15  0.0000000  0 12G01G32G08G19G28G14G17G03G22G11G31G23
  20166797.648 9 105977235.694 9        55.400    20166804.391 9  82579705.02249
        50.600    20166804.19149  20166800.352 7  79138878.694 7        43.400
  23478599.977 7 123380905.369 7        43.300    23478606.492 7  96140995.23148
        31.200    23478605.71548  23478601.707 3  92135110.088 3        32.100
  23606509.711 7 124053072.792 7        41.400    23606517.465 7  96664778.91848
        30.800    23606516.73048  23606513.578 3  92637071.646 3        33.200
  24710892.094 5 129856610.432 5        37.400                   101186980.95246
        21.700    24710892.57446
  24235772.055 6 127359840.116 6        39.000                    99241448.35446
        22.300    24235774.85546
  22176109.063 8 116536256.205 8        46.900                    90807494.08749
        36.100    22176112.56649
  23403401.664 9 122985694.969 9        48.300    23403405.551 7  95833029.48748
        33.900    23403404.94148
  20958072.430 9 110135431.339 9        54.900    20958079.117 9  85819844.27249
        46.900    20958078.44149  20958076.406 7  82244002.569 7        41.300
  20391940.648 9 107160382.581 9        51.900                    83501607.09849
        48.700    20391941.66049
  20408729.805 9 107248548.304 9        51.200                    83570369.91149
        44.400    20408732.95349
  24581679.172 6 129177585.318 6        40.900    24581683.891 5 100657884.06446
        22.000    24581682.06346
  24225876.141 6 127307844.153 6        40.900                    99200920.80746
        24.000    24225877.32446
 17  4  9  1 15 30.0000000  0 12G01G32G08G19G28G14G17G03G22G11G31G23
  20166916.820 9 105977863.002 9        55.900    20166924.051 9  82580193.82749
        50.600    20166923.86349  20166919.965 7  79139347.128 7        43.000
  23494225.828 7 123463019.860 7        44.100    23494232.063 7  96204980.55348
        30.900    23494231.20748  23494227.844 3  92196429.357 3        32.300
  23627515.688 7 124163460.193 7        42.900    23627523.473 7  96750795.04347
        29.800    23627522.48047  23627518.742 3  92719503.776 3        33.100
  24691068.453 5 129752435.702 5        37.200                   101105805.83545
        18.600    24691068.31345
  24246799.797 6 127417793.213 6        38.800                    99286606.61346
        22.300    24246803.86746
  22183716.430 8 116576233.499 8        46.500                    90838645.22749
        35.300    22183720.15649
  23388071.008 8 122905136.630 8        46.600    23388075.715 7  95770256.74448
        33.600    23388075.48448
  20948521.500 9 110085241.539 9        54.400    20948528.730 9  85780735.34349
        46.600    20948527.62549  20948526.230 6  82206523.180 6        40.800
  20391364.469 9 107157354.980 9        53.000                    83499247.93149
        48.600    20391365.38749
  20417879.805 9 107296631.849 9        51.000                    83607837.59649
        44.500    20417882.89849
  24567752.211 6 129104401.519 6        40.100    24567757.379 5 100600857.75146
        22.200    24567756.26246
  24205728.625 6 127201974.519 6        40.700                    99118425.01346
        24.800    24205731.55546
 17  4  9  1 16  0.0000000  0 12G01G32G08G19G28G14G17G03G22G11G31G23
  20167114.609 9 105978902.034 9        55.600    20167121.629 9  82581003.45549
        50.600    20167121.13349  20167117.234 7  79140123.025 7        43.700
  23509921.813 7 123545503.517 7        43.100    23509927.777 7  96269253.53447
        29.900    23509926.98047  23509923.320 2  92258024.300 2        31.900
  23648549.656 7 124273993.831 7        43.200    23648557.063 7  96836925.15648
        30.600    23648555.89848  23648552.215 2  92802045.151 2        31.900
  24671289.070 6 129648495.182 6        38.400                   101024813.20246
        21.700    24671289.49646
  24257888.258 6 127476067.172 6        38.700                    99332014.83846
        22.600    24257893.34846
  22191422.313 8 116616726.464 8        46.700                    90870198.19149
        36.100    22191425.61349
  23372808.398 8 122824925.026 8        47.500    23372811.402 7  95707754.20548
        33.000    23372810.93448
  20939039.055 9 110035410.294 9        54.500    20939046.395 9  85741905.80549
        46.900    20939045.42249  20939043.793 7  82169311.541 7        41.300
  20390857.086 9 107154688.460 9        52.400                    83497170.11549
        48.800    20390857.90249
  20427128.414 9 107345232.525 9        50.400                    83645708.24749
        44.200    20427131.51249
  24553877.781 6 129031486.376 6        39.800    24553881.691 6 100544040.75846
        21.500    24553881.16046
  24185600.750 7 127096197.826 7        41.100                    99036001.65247
        26.400    24185603.13747
 17  4  9  1 16 30.0000000  0 12G01G32G08G19G28G14G17G03G22G11G31G23
  20167390.672 9 105980353.220 9        53.900    20167397.918 9  82582134.24549
        50.500    20167397.72749  20167393.711 7  79141206.693 7        43.900
  23525687.617 7 123628353.595 7        43.700    23525694.215 7  96333812.05648
        31.200    23525692.98448  23525689.563 3  92319892.861 3        32.400
  23669610.703 7 124384670.802 7        42.900    23669617.512 7  96923166.96947
        29.100    23669616.39547  23669614.059 3  92884693.557 3        32.800
  24651553.859 6 129544791.289 6        38.400                   100944004.99146
        22.800    24651555.93846
  24269038.680 6 127534659.509 6        39.000                    99377671.21046
        22.300    24269042.35946
  22199225.102 8 116657733.246 8        46.700                    90902151.54049
        35.600    22199228.57049
  23357611.141 9 122745063.049 9        48.300    23357614.340 7  95645524.08449
        34.100    23357613.98449
  20929624.805 9 109985937.755 9        54.100    20929631.723 9  85703355.78849
        46.900    20929631.00449  20929629.668 7  82132367.778 7        41.500
  20390418.359 9 107152382.367 9        51.600                    83495373.16049
        48.700    20390419.07449
  20436475.094 9 107394349.413 9        51.000                    83683981.13649
        44.400    20436478.04349
  24540053.336 6 128958842.827 6        40.500    24540058.043 6 100487435.37046
        21.800    24540057.11746
  24165491.617 7 126990516.425 7        41.600                    98953652.52046
        24.700    24165491.98846
 17  4  9  1 17  0.0000000  0 12G01G32G08G19G28G14G17G03G22G11G31G23
  20167745.430 9 105982217.340 9        54.000    20167752.711 9  82583586.80349
        50.700    20167752.43849  20167748.480 7  79142598.722 7        43.700
  23541522.602 7 123711567.819 7        42.300    23541529.250 7  96398654.31047
        29.900    23541528.10547  23541525.094 3  92382033.352 3        33.000
  23690698.406 7 124495488.744 7        43.800    23690706.590 7  97009518.61747
        29.900    23690705.42647  23690702.445 3  92967447.185 3        33.700
  24631866.648 6 129441327.139 6        39.800                   100863383.62147
        25.000    24631867.73047
  24280248.867 6 127593567.768 6        38.500                    99423573.70546
        21.100    24280252.41046
  22207126.227 8 116699252.688 8        46.600                    90934504.36549
        36.100    22207129.57849
  23342480.461 9 122665552.446 9        48.500    23342484.555 7  95583567.76749
        34.500    23342484.01649
  20920278.734 9 109936824.497 9        53.800    20920285.754 9  85665085.73349
        47.000    20920284.94949  20920283.379 7  82095692.312 7        41.600
  20390048.047 9 107150436.464 9        51.400                    83493856.88349
        49.000    20390048.94149
  20445919.406 9 107443981.590 9        50.900                    83722655.55349
        44.200    20445922.93449
  24526282.016 6 128886474.004 6        40.200    24526286.984 6 100431044.09146
        23.000    24526286.25846
  24145398.469 7 126884932.731 7        42.400                    98871379.50247
        26.900    24145400.20347
 17  4  9  1 17 30.0000000  0 12G01G32G08G19G28G14G17G03G22G11G31G23
  20168178.625 9 105984494.923 9        54.000    20168185.805 9  82585361.53749
        50.500    20168185.73449  20168181.539 7  79144299.515 7        43.500
  23557426.789 7 123795143.604 7        42.900    23557432.957 7  96463778.31347
        29.000    23557432.18447  23557428.645 2  92444443.860 2        31.600
  23711812.805 7 124606444.987 7        43.000    23711820.742 7  97095978.00547
        28.800    23711820.06647  23711816.676 3  93050304.114 3        32.800
  24612224.250 6 129338105.456 6        38.700                   100782951.15046
        23.200    24612225.43446
  24291518.883 6 127652789.284 6        39.600                    99469720.37946
        20.400    24291521.37546
  22215124.531 8 116741283.312 8        45.800                    90967255.50849
        35.200    22215127.64149
  23327417.664 8 122586395.870 8        47.600    23327421.707 7  95521887.31949
        34.700    23327421.30949
  20911001.375 9 109888070.880 9        54.200    20911008.461 9  85627095.90249
        46.800    20911007.36349  20911005.504 7  82059285.393 7        41.100
  20389746.398 9 107148850.036 9        51.600                    83492620.69349
        48.900    20389747.28949
  20455462.055 9 107494128.190 9        50.900                    83761730.81449
        44.200    20455465.12549
  24512563.953 6 128814383.109 6        40.500    24512569.090 6 100374869.38946
        24.100    24512568.02046
  24125325.570 7 126779448.729 7        41.600                    98789184.18247
        25.800    24125327.46147
 17  4  9  1 18  0.0000000  0 12G01G32G08G19G28G14G17G03G22G11G31G23
  20168690.859 9 105987186.388 9        55.200    20168698.215 9  82587458.78149
        50.500    20168697.97749  20168693.902 7  79146309.370 7        43.100
  23573398.875 7 123879078.290 7        41.700    23573405.285 7  96529181.96047
        29.400    23573404.30947  23573400.887 2  92507122.363 2        31.500
  23732952.539 7 124717537.117 7        43.200    23732960.473 7  97182543.30247
        29.000    23732959.16447  23732956.422 3  93133262.532 3        32.400
  24592628.328 6 129235128.919 6        40.400                   100702709.71946
        21.800    24592628.84846
  24302846.922 6 127712321.605 6        38.900                    99516109.17746
        21.300    24302850.87146
  22223219.250 8 116783823.464 8        46.100                    91000403.68149
        35.500    22223222.72349
  23312422.492 9 122507595.968 9        48.600    23312426.496 7  95460484.80949
        34.100    23312426.19949
  20901791.992 9 109839676.912 9        53.300    20901798.934 9  85589386.32249
        47.000    20901798.04349  20901796.004 6  82023147.043 6        40.800
  20389512.250 9 107147622.521 9        53.200                    83491664.19649
        48.800    20389513.34449
  20465102.227 9 107544787.945 9        50.900                    83801205.94649
        44.200    20465105.96149
  24498898.531 6 128742572.965 6        38.900    24498903.844 6 100318913.44646
        23.000    24498903.50046
  24105270.898 6 126674066.514 6        40.900                    98707068.16547
        25.100    24105273.52747
 17  4  9  1 18 30.0000000  0 12G01G32G08G19G28G14G17G03G22G11G31G23
  20169282.203 9 105990292.345 9        56.700    20169289.086 9  82589878.99949
        50.600    20169288.82849  20169284.754 7  79148628.746 7        43.700
  23589438.781 7 123963369.419 7        41.800    23589445.109 7  96594863.37347
        29.100    23589444.23047  23589440.633 1  92570067.053 1        30.200
  23754118.852 7 124828762.434 7        43.700    23754126.730 7  97269212.39547
        29.600    23754124.94947  23754122.613 4  93216320.378 4        34.000
  24573078.453 5 129132400.543 5        37.600                   100622661.63946
        22.200    24573081.09046
  24314234.961 6 127772162.163 6        39.700                    99562738.14046
        22.900    24314239.00046
  22231411.172 8 116826871.439 8        45.900                    91033947.56349
        36.100    22231414.49249
  23297495.844 9 122429154.946 9        48.100    23297499.301 7  95399361.94749
        34.900    23297499.02349
  20892651.555 9 109791643.101 9        53.900    20892658.531 9  85551957.38149
        47.000    20892657.68849  20892655.770 7  81987277.646 7        41.200
  20389347.063 9 107146753.627 9        53.300                    83490987.14049
        48.900    20389348.06349
  20474840.180 9 107595959.928 9        51.100                    83841080.21149
        44.500    20474843.26649
  24485287.688 6 128671047.116 6        38.700    24485292.293 6 100263179.00146
        22.500    24485291.82846
  24085236.055 6 126568788.478 6        38.400                    98625033.33946
        24.000    24085239.73846
 17  4  9  1 19  0.0000000  0 12G01G32G08G19G28G14G17G03G22G11G31G23
  20169952.195 9 105993813.282 9        55.200    20169959.234 9  82592622.58049
        50.700    20169959.05949  20169955.219 7  79151258.009 7        43.900
  23605546.656 7 124048014.339 7        42.700    23605552.422 7  96660820.45347
        29.600    23605551.93847  23605548.398 2  92633275.923 2        31.300
  23775309.297 7 124940118.461 7        43.100    23775316.809 7  97355983.30548
        30.400    23775315.68048  23775312.172 3  93299475.824 3        33.100
  24553578.758 6 129029922.809 6        38.700                   100542808.79446
        21.300    24553578.28146
  24325680.031 6 127832308.055 6        39.400                    99609605.06046
        20.900    24325683.44546
  22239699.258 8 116870425.938 8        45.600                    91067886.14149
        35.500    22239702.60549
  23282637.375 8 122351075.556 8        47.900    23282641.672 7  95338520.85249
        34.700    23282641.03949
  20883579.805 9 109743969.693 9        54.500    20883586.543 9  85514809.29049
        47.200    20883585.80149  20883583.996 7  81951677.388 7        41.800
  20389249.727 9 107146242.252 9        53.200                    83490588.65949
        48.800    20389250.68849
  20484675.188 9 107647643.240 9        51.700                    83881352.91049
        44.600    20484678.44149
  24471731.695 6 128599808.249 6        39.800    24471735.988 5 100207668.18946
        22.900    24471734.77346
  24065223.813 7 126463616.801 7        41.000                    98543081.38847
        25.100    24065227.00447
 17  4  9  1 19 30.0000000  0 12G01G32G08G19G28G14G17G03G22G11G31G23
  20170701.000 9 105997749.678 9        54.600    20170708.129 9  82595689.88749
        50.800    20170708.00449  20170703.988 7  79154197.510 7        43.800
  23621720.969 7 124133010.490 7        43.200    23621727.027 7  96727051.23647
        27.900    23621726.39847  23621722.566 2  92696747.090 2        31.200
  23796523.773 7 125051602.552 7        42.200    23796531.359 7  97442853.98547
        29.800    23796530.65647  23796526.684 1  93382726.918 1        30.800
  24534124.906 5 128927699.124 5        35.700                   100463153.98946
        20.400    24534126.23446
  24337182.242 5 127892757.139 5        37.400                    99656708.20345
        16.300    24337186.06345
  22248083.734 8 116914485.119 8        45.700                    91102217.97249
        36.000    22248086.86349
  23267848.609 8 122273360.051 8        47.300    23267852.844 7  95277963.32949
        34.700    23267852.39849
  20874576.414 9 109696656.939 9        53.500    20874583.098 9  85477942.20349
        47.200    20874582.18049  20874580.613 7  81916346.434 7        41.100
  20389220.703 9 107146088.454 9        51.500                    83490468.82249
        48.800    20389221.55549
  20494607.406 9 107699836.559 9        51.500                    83922023.02049
        44.100    20494610.33249
  24458230.461 6 128528859.460 6        39.400    24458235.504 5 100152383.40246
        22.500    24458234.35546
  24045231.859 7 126358553.580 7        41.900                    98461213.98247
        26.200    24045233.64847
 17  4  9  1 20  0.0000000  0 12G01G32G08G19G28G14G17G03G22G11G31G23
  20171529.305 9 106002102.063 9        55.700    20171536.488 9  82599081.34649
        50.500    20171535.97349  20171532.250 7  79157447.657 7        43.600
  23637961.094 7 124218355.383 7        42.700    23637967.836 7  96793553.73947
        29.100    23637966.82047  23637963.457 2  92760478.668 2        31.300
  23817762.625 7 125163212.214 7        42.700    23817769.770 7  97529822.57648
        30.100    23817768.28148  23817765.598 2  93466071.829 2        31.200
  24514722.859 6 128825731.707 6        40.800                   100383698.91447
        26.100    24514724.16847
  24348743.680 6 127953506.676 6        39.400                    99704045.51246
        20.400    24348746.24246
  22256563.484 8 116959047.620 8        45.900                    91136942.01449
        35.200    22256566.76649
  23253130.102 8 122196011.122 8        46.800    23253133.938 7  95217691.44349
        34.600    23253133.29349
  20865641.789 9 109649705.158 9        53.500    20865648.305 9  85441356.41349
        47.000    20865647.43449  20865645.633 7  81881285.052 7        41.500
  20389259.297 9 107146291.553 9        53.700                    83490627.07649
        48.900    20389260.07049
  20504636.383 9 107752539.035 9        51.900                    83963089.87449
        44.700    20504639.92249
  24444784.656 6 128458203.941 6        39.800    24444789.781 5 100097327.13746
        23.200    24444789.28146
  24025260.133 7 126253601.310 7        42.800                    98379432.99347
        27.000    24025262.16847
 17  4  9  1 20 30.0000000  0 12G01G32G08G19G28G14G17G03G22G11G31G23
  20172436.898 9 106006871.113 9        56.100    20172443.926 9  82602797.48249
        50.500    20172443.37149  20172439.469 7  79161008.951 7        43.500
  23654267.969 7 124304046.539 7        43.800    23654274.113 6  96860326.08547
        28.100    23654273.00047  23654269.227 1  92824468.842 1        30.400
  23839023.820 7 125274944.693 7        42.000    23839031.980 7  97616886.84447
        29.900    23839031.02747  23839027.578 3  93549508.416 3        32.600
  24495367.156 6 128724023.518 6        38.900                   100304445.72646
        22.000    24495368.78146
  24360361.281 6 128014553.853 6        40.000                    99751614.74946
        21.700    24360363.44546
  22265138.977 8 117004111.974 8        45.700                    91172057.10149
        35.400    22265142.52049
  23238480.656 8 122119030.724 8        47.000    23238485.059 7  95157706.69849
        34.200    23238484.12949
  20856775.758 9 109603114.716 9        53.900    20856782.871 9  85405052.17749
        47.000    20856781.87949  20856780.074 7  81846493.496 7        41.400
  20389365.586 9 107146850.752 9        54.100                    83491062.81049
        48.900    20389366.92249
  20514761.805 9 107805749.366 9        51.800                    84004552.45349
        43.900    20514765.07449
  24431395.203 6 128387844.733 6        39.900    24431401.238 6 100042501.79246
        22.800    24431400.44946
  24005311.648 7 126148762.117 7        43.700                    98297740.15547
        28.100    24005311.65647
 17  4  9  1 21  0.0000000  0 12G01G32G08G19G28G14G17G03G22G11G31G23
  20173423.742 9 106012057.274 9        55.600    20173430.895 9  82606838.64449
        50.600    20173430.46949  20173426.629 7  79164881.725 7        43.800
  23670639.563 7 124390081.314 7        43.800    23670645.738 6  96927366.18547
        29.200    23670644.89547  23670641.469 1  92888715.609 1        30.400
  23860308.828 7 125386797.870 7        43.300    23860316.211 7  97704045.15547
        29.100    23860315.52347  23860312.133 3  93633035.119 3        32.500
  24476063.672 6 128622577.468 6        38.000                   100225396.83146
        22.600    24476064.39546
  24372033.180 6 128075896.370 6        38.300                    99799414.06446
        20.600    24372036.57046
  22273809.695 8 117049676.059 8        46.000                    91207561.58449
        34.900    22273812.79349
  23223902.406 8 122042421.676 8        47.700    23223906.906 7  95098011.34149
        34.700    23223906.27749
  20847978.852 9 109556885.862 9        54.100    20847985.582 9  85369029.71649
        47.600    20847984.90649  20847983.102 7  81811971.974 7        41.400
  20389539.602 9 107147765.714 9        53.200                    83491775.76649
        48.800    20389540.82449
  20524983.922 9 107859466.652 9        52.200                    84046410.07849
        44.100    20524987.20349
  24418064.664 6 128317784.717 6        40.100    24418069.539 6  99987909.58846
        23.900    24418068.45746
  23985381.516 7 126044038.126 7        42.200                    98216137.04747
        26.400    23985383.17647
 17  4  9  1 21 30.0000000  0 12G01G32G08G19G28G14G17G03G22G11G31G23
  20174490.172 9 106017660.706 9        56.700    20174497.344 9  82611204.95649
        50.700    20174497.13349  20174493.176 7  79169066.111 7        44.100
  23687076.211 7 124476456.922 7        42.100    23687082.523 7  96994671.87547
        27.400    23687081.72747  23687078.598 1  92953216.871 1        30.800
  23881616.078 7 125498768.695 7        41.300    23881623.758 7  97791295.13547
        29.000    23881622.77347  23881619.617 2  93716649.690 2        31.900
  24456810.086 6 128521396.374 6        39.600                   100146554.47146
        22.900    24456811.14546
  24383761.609 6 128137531.414 6        38.300                    99847441.29945
        18.300    24383765.62945
  22282575.109 8 117095738.287 8        46.200                    91243454.24549
        35.700    22282578.20749
  23209395.734 9 121966187.238 9        48.000    23209399.652 7  95038607.87749
        34.600    23209399.12549
  20839250.555 9 109511018.566 9        54.300    20839257.148 9  85333288.96949
        47.600    20839256.49649  20839254.750 7  81777720.429 7        41.700
  20389781.578 9 107149035.772 9        55.000                    83492765.42749
        48.800    20389782.18049
  20535302.195 9 107913689.692 9        51.100                    84088661.79249
        44.100    20535305.25849
  24404788.906 6 128248026.794 6        39.800    24404794.480 6  99933552.79546
        22.000    24404793.57046
  23965474.555 7 125939431.406 7        41.200                    98134625.31746
        24.900    23965477.47746
 17  4  9  1 22  0.0000000  0 12G01G32G08G19G28G14G17G03G22G11G31G23
  20175635.914 9 106023682.199 9        55.000    20175643.063 9  82615897.03149
        50.500    20175642.66449  20175638.703 7  79173562.688 7        43.700
  23703577.109 7 124563170.972 7        42.300    23703583.641 7  97062241.24647
        28.700    23703583.52747  23703579.691 2  93017970.870 2        31.700
  23902945.852 7 125610854.794 7        41.700    23902953.750 7  97878634.96147
        29.400    23902952.59847  23902950.207 3  93800350.341 3        33.200
  24437606.867 6 128420483.247 6        39.200                   100067920.80546
        24.600    24437607.03546
  24395546.813 6 128199456.572 6        39.700                    99895694.70245
        19.900    24395547.59045
  22291435.008 8 117142297.480 8        45.800                    91279734.13949
        35.100    22291438.09049
  23194960.008 8 121890328.137 8        47.500    23194963.957 7  94979496.88049
        34.400    23194963.25849
  20830591.227 9 109465513.301 9        53.400    20830597.957 9  85297830.33149
        47.600    20830597.00849  20830595.500 7  81743739.234 7        41.400
  20390090.430 9 107150660.628 9        51.700                    83494031.55949
        48.800    20390091.50849
  20545716.711 9 107968417.710 9        51.300                    84131306.99449
        44.500    20545719.81349
  24391573.266 6 128178574.634 6        40.700    24391578.012 6  99879434.20046
        22.600    24391577.56646
  23945591.102 7 125834944.235 7        41.400                    98053206.74347
        26.800    23945593.63347
 17  4  9  1 22 30.0000000  0 12G01G32G08G19G28G14G17G03G22G11G31G23
  20176861.516 9 106030122.246 9        54.500    20176868.473 9  82620915.25249
        50.500    20176868.21949  20176864.320 7  79178371.817 7        43.200
  23720142.305 7 124650220.969 7        42.100    23720148.754 7  97130072.43247
        28.500    23720147.83647  23720144.234 1  93082975.758 1        30.700
  23924296.594 7 125723053.737 7        41.600    23924303.668 7  97966062.68547
        29.300    23924302.80947  23924300.238 3  93884135.231 3        32.700
  24418454.375 6 128319840.806 6        39.000                    99989498.13146
        24.000    24418455.28946
  24407385.109 6 128261669.282 6        39.500                    99944172.13745
        19.600    24407387.18045
  22300388.734 8 117189351.701 8        45.500                    91316399.77749
        35.000    22300392.28949
  23180597.063 9 121814847.556 9        48.500    23180600.879 7  94920680.84749
        35.600    23180600.50449
  20822000.883 9 109420370.421 9        54.300    20822007.660 9  85262654.06949
        47.600    20822006.62949  20822005.059 7  81710028.652 7        42.100
  20390467.227 9 107152639.569 9        51.600                    83495573.59149
        48.800    20390468.11349
  20556226.867 9 108023649.369 9        52.100                    84174344.65449
        44.100    20556229.81649
  24378417.109 7 128109430.850 7        42.800    24378420.379 5  99825555.95746
        22.900    24378419.06346
  23925732.750 7 125730578.831 7        42.300                    97971883.08547
        26.000    23925734.37147
 17  4  9  1 23  0.0000000  0 12G01G32G08G19G28G14G17G03G22G11G31G23
  20178166.672 9 106036981.161 9        56.300    20178174.129 9  82626259.85549
        50.700    20178173.78549  20178169.652 7  79183493.730 7        43.200
  23736770.820 7 124737604.227 7        41.800    23736776.781 7  97198163.30347
        28.100    23736775.69547  23736772.801 1  93148229.506 1        30.800
  23945667.938 7 125835362.797 7        41.400    23945675.488 7  98053576.22847
        29.400    23945674.39847  23945671.828 2  93968002.371 2        31.900
  24399355.164 6 128219471.644 6        39.500                    99911288.41146
        23.900    24399356.12946
  24419277.680 6 128324166.628 6        38.200                    99992871.42845
        18.300    24419281.08245
  22309436.602 8 117236899.087 8        45.800                    91353449.69049
        34.900    22309440.08649
  23166305.555 8 121739747.746 8        47.800    23166309.238 7  94862161.51949
        34.700    23166309.15649
  20813479.156 9 109375589.979 9        54.500    20813486.215 9  85227760.22149
        47.600    20813485.24649  20813483.621 7  81676588.720 7        41.400
  20390911.008 9 107154971.699 9        53.500                    83497390.84049
        49.000    20390911.96149
  20566832.398 9 108079383.086 9        51.400                    84217773.51349
        44.200    20566835.69549
  24365318.242 7 128040598.304 7        42.400    24365321.605 6  99771920.19346
        22.300    24365320.64846
  23905896.289 7 125626337.798 7        43.100                    97890656.31547
        27.300    23905897.31347
 17  4  9  1 23 30.0000000  0 12G01G32G08G19G28G14G17G03G22G11G31G23
  20179551.617 9 106044259.280 9        56.500    20179558.797 9  82631931.11449
        50.700    20179558.47749  20179554.520 7  79188928.684 7        43.600
  23753462.242 7 124825317.920 7        41.600    23753468.938 7  97266511.66147
        27.200    23753467.69147  23753464.504 2  93213730.014 2        31.400
  23967060.953 7 125947779.487 7        44.400    23967068.082 7  98141173.64647
        29.700    23967066.73847  23967063.703 2  94051949.887 2        31.100
  24380308.211 6 128119378.509 6        40.100                    99833293.72047
        26.600    24380310.01647
  24431223.680 6 128386945.812 6        38.600                   100041790.19845
        19.600    24431228.02745
  22318578.547 8 117284938.134 8        45.500                    91390882.71849
        34.700    22318581.80149
  23152087.445 8 121665031.062 8        47.700    23152091.570 7  94803940.71749
        34.600    23152091.19549
  20805026.914 9 109331172.096 9        53.900    20805033.926 9  85193148.89649
        47.800    20805033.13349  20805031.152 7  81643419.533 7        41.800
  20391421.734 9 107157656.396 9        53.900                    83499482.81049
        48.900    20391422.87149
  20577533.617 9 108135617.629 9        51.600                    84261592.62849
        44.000    20577536.95749
  24352278.852 6 127972080.126 6        40.900    24352283.605 5  99718529.40246
        22.500    24352282.71146
  23886083.742 7 125522222.712 7        43.800                    97809527.69547
        28.100    23886084.68447
 17  4  9  1 24  0.0000000  0 12G01G32G08G19G28G14G17G03G22G11G31G23
  20181016.289 9 106051957.431 9        56.000    20181023.797 9  82637929.67249
        50.600    20181023.30949  20181019.406 7  79194677.294 7        43.200
  23770216.203 7 124913359.935 7        42.100    23770222.746 7  97335115.83847
        28.200    23770221.70347  23770218.457 2  93279475.678 2        31.000
  23988472.922 7 126060301.483 7        43.400    23988480.367 7  98228853.13447
        29.400    23988479.29747  23988476.203 1  94135976.079 1        30.500
  24361314.359 5 128019564.673 5        37.500                    99755516.77946
        23.500    24361314.47346
  24443223.250 5 128450004.441 5        37.200                   100090926.71545
        18.600    24443227.21545
  22327813.523 8 117333467.156 8        45.800                    91428697.54949
        35.800    22327816.82049
  23137942.758 9 121590700.316 9        48.800    23137946.750 7  94746020.65749
        35.400    23137946.32449
  20796643.234 9 109287117.356 9        54.300    20796650.133 9  85158820.54249
        47.400    20796649.18049  20796647.844 7  81610521.519 7        41.600
  20391999.602 9 107160693.704 9        51.500                    83501849.54949
        48.800    20392000.87549
  20588329.648 9 108192352.422 9        52.400                    84305801.54249
        44.300    20588333.12949
  24339301.313 7 127903879.517 7        41.900    24339305.648 6  99665386.09546
        24.900    24339304.65246
  23866294.422 7 125418236.121 7        44.900                    97728499.18347
        28.200    23866296.55547
 17  4  9  1 24 30.0000000  0 12G01G32G08G19G28G14G17G03G22G11G31G23
  20182561.336 9 106060075.626 9        56.600    20182568.313 9  82644255.52749
        50.700    20182568.04749  20182564.027 7  79200739.578 7        43.600
  23787031.945 7 125001727.223 7        43.300    23787038.148 7  97403973.46047
        27.300    23787037.51647  23787034.387 2  93345464.243 2        31.700
  24009903.672 7 126172925.643 7        42.900    24009912.082 7  98316612.19447
        28.600    24009911.12947  24009907.621 2  94220078.526 2        31.900
  24342372.797 6 127920032.574 6        38.400                    99677959.31546
        22.800    24342375.46946
  24455275.984 6 128513339.564 6        39.100                   100140278.73045
        19.600    24455279.50045
  22337140.797 8 117382483.942 8        46.200                    91466892.45949
        34.900    22337143.83249
  23123871.773 9 121516757.843 9        48.300    23123876.066 7  94688403.14749
        35.200    23123875.67649
  20788329.148 9 109243425.556 9        54.800    20788335.945 9  85124774.98749
        47.600    20788335.12149  20788333.555 7  81577894.540 7        41.500
  20392644.680 9 107164082.371 9        53.600                    83504490.06949
        48.800    20392646.00049
  20599221.156 9 108249585.709 9        52.000                    84350398.90249
        43.700    20599224.59449
  24326382.859 6 127835999.168 6        40.400    24326388.770 6  99612492.31146
        22.800    24326387.53546
  23846531.586 7 125314380.083 7        44.700                    97647572.39747
        28.300    23846533.77747
 17  4  9  1 25  0.0000000  0 12G01G32G08G19G28G14G17G03G22G11G31G23
  20184186.352 9 106068614.633 9        56.900    20184193.652 9  82650909.29149
        50.600    20184193.28549  20184189.148 7  79207116.105 7        43.800
  23803909.281 7 125090417.532 7        43.900    23803915.535 6  97473082.81447
        27.100    23803914.57847  23803911.504 2  93411694.030 2        31.400
  24031354.930 7 126285649.803 7        43.400    24031362.402 7  98404449.19347
        28.500    24031361.39547  24031358.473 2  94304255.642 2        31.200
  24323486.719 5 127820785.280 5        37.300                    99600623.73146
        22.200    24323487.64546
  24467380.750 6 128576948.861 6        40.000                   100189844.48145
        19.000    24467382.83645
  22346560.938 8 117431987.291 8        45.800                    91505466.50149
        34.700    22346564.59849
  23109875.727 9 121443205.860 9        48.800    23109878.938 7  94631089.91249
        35.700    23109878.49649
  20780084.141 9 109200097.264 9        54.800    20780091.426 9  85091012.68049
        47.700    20780090.09049  20780088.641 7  81545539.001 7        41.400
  20393356.406 9 107167822.014 9        54.100                    83507404.07949
        49.000    20393357.24249
  20610207.063 9 108307316.672 9        51.900                    84395384.04949
        44.300    20610210.39549
  24313527.469 6 127768442.285 6        40.800    24313532.617 5  99559850.61346
        22.000    24313531.50446
  23826794.469 7 125210656.923 7        44.200                    97566749.18047
        28.700    23826796.34847
 17  4  9  1 25 30.0000000  0 12G01G32G08G19G28G14G17G03G22G11G31G23
  20185891.344 9 106077574.766 9        56.600    20185898.430 9  82657891.21649
        50.700    20185898.18449  20185893.988 7  79213807.110 7        43.600
  23820847.492 7 125179428.216 7        42.600    23820853.352 6  97542441.80847
        27.200    23820852.02047  23820848.887 1  93478163.062 1        29.700
  24052824.563 7 126398471.479 7        43.000    24052832.020 6  98492362.17147
        28.400    24052830.52047  24052827.133 1  94388505.596 1        30.800
  24304654.742 6 127721825.312 6        38.400                    99523512.06746
        22.500    24304655.98846
  24479536.742 6 128640829.496 6        39.400                   100239621.63045
        19.000    24479539.09845
  22356073.273 8 117481975.457 8        45.400                    91544418.31249
        35.200    22356076.28949
  23095953.828 9 121370046.747 9        49.800    23095958.117 7  94574082.81849
        36.000    23095957.55549
  20771908.070 9 109157132.551 9        55.200    20771914.672 9  85057533.69049
        47.700    20771913.82849  20771911.965 7  81513454.964 7        41.600
  20394134.836 9 107171912.154 9        54.200                    83510591.20549
        48.800    20394135.78949
  20621287.141 9 108365544.082 9        51.300                    84440756.04649
        44.100    20621290.41849
  24300734.117 7 127701211.778 7        41.400    24300738.492 6  99507463.22346
        22.800    24300737.59446
  23807081.953 7 125107068.902 7        43.400                    97486031.24447
        27.300    23807083.84047
 17  4  9  1 26  0.0000000  0 12G01G32G08G19G28G14G17G03G22G11G31G23
  20187676.656 9 106086956.538 9        56.800    20187683.543 9  82665201.68149
        50.700    20187683.29349  20187679.277 7  79220812.974 7        43.500
  23837846.070 7 125268756.621 7        42.900    23837851.891 6  97612048.38147
        26.300    23837850.86747  23837847.563 1  93544869.364 1        30.200
  24074311.648 7 126511387.829 7        44.400    24074319.125 7  98580348.93547
        29.100    24074317.75047  24074315.180 3  94472826.228 3        32.100
  24285880.016 6 127623156.226 6        38.400                    99446627.10546
        24.200    24285881.66846
  24491743.945 5 128704978.865 5        37.300                   100289608.00546
        21.700    24491747.60946
  22365677.484 8 117532446.398 8        45.500                    91583746.32449
        34.600    22365681.16449
  23082107.133 9 121297282.770 9        49.300    23082111.555 7  94517383.62049
        35.200    23082110.73849
  20763801.836 9 109114531.726 9        54.900    20763808.469 9  85024338.25549
        47.800    20763807.76649  20763805.609 7  81481642.671 7        42.100
  20394979.445 9 107176352.128 9        54.300                    83514050.92649
        48.900    20394980.47349
  20632461.797 9 108424266.768 9        51.700                    84486513.96049
        43.900    20632465.17649
  24288003.313 7 127634310.462 7        41.700    24288007.910 5  99455332.31346
        23.200    24288006.37546
  23787395.789 7 125003618.156 7        42.900                    97405420.28647
        28.600    23787397.82447
 17  4  9  1 26 30.0000000  0 12G01G32G08G19G28G14G17G03G22G11G31G23
  20189542.008 9 106096760.184 9        57.100    20189549.328 9  82672840.87749
        50.700    20189548.92649  20189544.906 7  79228133.864 7        43.600
  23854904.430 7 125358400.097 7        43.000    23854910.711 7  97681900.44147
        28.600    23854910.04347  23854906.617 2  93611810.924 2        31.400
  24095816.250 7 126624396.490 7        43.300    24095823.766 7  98668407.63247
        29.600    24095822.64147  24095820.070 3  94557215.787 3        32.700
  24267158.414 5 127524780.288 5        37.500                    99369970.53946
        24.600    24267161.39846
  24504001.648 6 128769394.184 6        39.600                   100339801.75346
        23.000    24504006.07446
  22375373.563 8 117583398.600 8        45.800                    91623449.34949
        34.700    22375376.29349
  23068336.336 8 121224916.604 8        47.400    23068340.879 7  94460994.40449
        36.000    23068339.94149
  20755764.031 9 109072294.790 9        55.000    20755770.738 9  84991426.36249
        47.900    20755769.91049  20755768.164 7  81450102.109 7        41.100
  20395890.969 9 107181141.373 9        54.400                    83517782.80449
        48.900    20395892.05549
  20643730.195 9 108483482.981 9        52.900                    84532656.45249
        44.100    20643733.58649
  24275335.867 7 127567741.351 7        41.700    24275340.590 6  99403460.29546
        22.900    24275339.70346
  23767735.477 7 124900306.656 7        42.900                    97324917.83847
        29.400    23767738.17647
 17  4  9  1 27  0.0000000  0 12G01G32G08G19G28G14G17G03G22G11G31G23
  20191488.281 9 106106986.280 9        56.700    20191495.352 9  82680809.25149
        50.700    20191494.98849  20191491.090 7  79235770.221 7        43.800
  23872021.891 7 125448356.243 7        43.600    23872029.590 7  97751996.11947
        27.600    23872028.61347  23872024.840 1  93678985.969 1        30.400
  24117338.727 7 126737495.273 7        43.800    24117346.094 6  98756536.53347
        28.100    24117344.78547  24117341.863 2  94641672.635 2        31.900
  24248495.766 6 127426700.495 6        39.400                    99293544.72646
        24.700    24248496.93046
  24516309.781 6 128834072.698 6        40.300                   100390200.62145
        19.300    24516313.17245
  22385160.867 8 117634829.813 8        45.500                    91663525.62049
        34.800    22385163.84049
  23054641.984 9 121152950.398 9        48.600    23054646.070 7  94404916.83549
        35.600    23054645.33649
  20747796.125 9 109030422.128 9        55.200    20747802.672 9  84958798.32549
        48.200    20747801.76249  20747800.191 7  81418833.570 7        41.200
  20396868.703 9 107186279.439 9        54.400                    83521786.49049
        48.800    20396869.70749
  20655092.609 9 108543191.597 9        51.900                    84579182.64549
        44.000    20655095.70349
  24262732.086 7 127501507.721 7        41.100    24262737.250 5  99351849.69246
        22.300    24262735.42646
  23748104.023 7 124797136.722 7        43.800                    97244525.69747
        28.900    23748105.36347
 17  4  9  1 27 30.0000000  0 12G01G32G08G19G28G14G17G03G22G11G31G23
  20193514.563 9 106117635.067 9        56.500    20193521.641 9  82689107.00049
        50.600    20193521.27049  20193517.254 7  79243722.231 7        43.700
  23889199.156 7 125538622.205 7        44.100    23889205.402 6  97822333.26847
        27.200    23889204.34847  23889201.098 1  93746392.408 1        29.800
  24138876.602 7 126850680.846 7        42.700    24138884.656 7  98844733.11947
        27.700    24138883.03947  24138880.473 2  94726194.363 2        31.400
  24229888.898 6 127328919.589 6        40.200                    99217351.76146
        22.500    24229888.37146
  24528666.352 5 128899011.814 5        37.900                   100440802.52444
        14.800    24528669.21144
  22395038.469 8 117686738.473 8        45.800                    91703973.92949
        34.600    22395041.99649
  23041023.492 9 121081386.464 9        49.300    23041027.656 7  94349152.73149
        35.300    23041027.23449
  20739897.172 9 108988913.747 9        55.300    20739904.246 9  84926454.12749
        48.000    20739903.21149  20739901.527 7  81387837.051 7        42.100
  20397912.656 9 107191765.395 9        54.700                    83526061.26749
        48.700    20397913.67649
  20666548.422 9 108603391.696 9        53.100                    84626091.80049
        44.100    20666551.46149
  24250191.766 7 127435612.125 7        41.600    24250197.035 6  99300502.48346
        22.800    24250195.94546
  23728497.891 7 124694110.680 7        42.800                    97164245.65147
        28.900    23728500.04747
 17  4  9  1 28  0.0000000  0 12G01G32G08G19G28G14G17G03G22G11G31G23
  20195621.375 9 106128706.996 9        56.800    20195628.758 9  82697734.48049
        50.500    20195628.54749  20195624.531 7  79251990.225 7        43.500
  23906434.781 7 125629195.473 7        43.600    23906440.953 7  97892909.86647
        26.000    23906440.17647  23906436.578 1  93814028.326 1        29.700
  24160431.547 7 126963951.049 7        41.500    24160439.453 7  98932995.58748
        30.100    24160438.43048  24160435.098 2  94810779.235 2        31.000
  24211337.320 6 127231440.074 6        38.900                    99141393.67646
        21.700    24211339.09446
  24541073.148 5 128964209.248 5        36.800                   100491605.74545
        16.300    24541075.66845
  22405006.703 8 117739122.804 8        45.700                    91744792.89248
        33.900    22405009.62548
  23027483.344 9 121010227.186 9        49.700    23027486.969 7  94293703.93549
        36.200    23027486.81349
  20732067.469 9 108947769.848 9        55.100    20732074.363 9  84894393.95749
        47.900    20732073.38349  20732071.695 7  81357112.725 7        41.400
  20399022.555 9 107197598.651 9        55.100                    83530606.66849
        48.800    20399023.50849
  20678097.172 9 108664081.521 9        52.600                    84673382.55449
        44.200    20678100.17249
  24237717.891 7 127370057.665 7        42.700    24237723.066 6  99249421.09147
        26.000    24237722.40247
  23708921.461 7 124591230.707 7        43.200                    97084079.46147
        29.000    23708922.86747
 17  4  9  1 28 30.0000000  0 12G01G32G08G19G28G14G17G03G22G11G31G23
  20197809.258 9 106140202.642 9        56.400    20197816.406 9  82706692.12849
        50.500    20197816.09449  20197812.137 7  79260574.645 7        43.600
  23923728.570 7 125720073.682 7        43.200    23923735.527 7  97963724.06747
        26.800    23923734.84447  23923730.953 1  93881891.938 1        30.800
  24182001.625 7 127077303.411 7        41.600    24182009.715 7  99021322.07247
        29.100    24182008.64547  24182005.668 3  94895425.444 3        32.700
  24192846.969 6 127134265.402 6        38.800                    99065673.13347
        26.000    24192848.38347
  24553529.742 6 129029661.484 6        40.400                   100542607.47646
        21.100    24553532.30546
  22415065.422 8 117791981.211 8        46.300                    91785981.27749
        34.700    22415068.48849
  23014018.594 9 120939475.271 9        48.400    23014022.902 7  94238572.57749
        36.800    23014022.68449
  20724308.008 9 108906990.839 9        54.500    20724314.727 9  84862618.11249
        48.300    20724313.76249  20724312.250 7  81326660.873 7        41.600
  20400198.664 9 107203778.893 9        53.700                    83535422.44049
        48.600    20400199.59449
  20689739.031 9 108725259.957 9        52.500                    84721054.05149
        43.800    20689741.72749
  24225308.242 7 127304847.369 7        42.800    24225313.828 6  99198607.88647
        25.300    24225313.06347
  23689371.820 7 124488499.015 7        43.100                    97004028.79347
        29.200    23689373.38347
 17  4  9  1 29  0.0000000  0 12G01G32G08G19G28G14G17G03G22G11G31G23
  20200077.414 9 106152121.969 9        56.600    20200084.469 9  82715979.90349
        50.600    20200083.94949  20200080.109 7  79269475.426 7        43.500
  23941079.344 7 125811253.845 7        42.000    23941086.098 7  98034773.55947
        26.200    23941085.10247  23941081.680 2  93949981.035 2        31.000
  24203586.711 6 127190735.400 6        40.400    24203594.074 6  99109710.63347
        26.400    24203593.16447  24203590.125 1  94980131.153 1        29.600
  24174413.320 6 127037398.051 6        39.100                    98990192.08947
        26.500    24174414.64147
  24566031.859 6 129095366.112 6        39.500                   100593805.84745
        19.300    24566036.10545
  22425213.867 8 117845311.384 8        45.500                    91827537.26249
        34.400    22425217.30549
  23000633.336 9 120869132.447 9        49.900    23000636.824 7  94183759.98349
        35.900    23000636.05149
  20716617.188 9 108866576.522 9        55.200    20716624.199 9  84831126.44749
        48.200    20716623.09849  20716621.352 7  81296481.364 7        41.700
  20401440.594 9 107210305.335 9        54.500                    83540507.98149
        48.700    20401441.79749
  20701473.586 9 108786925.486 9        52.100                    84769105.10149
        43.400    20701476.59849
  24212965.375 7 127239983.983 7        43.000    24212970.535 5  99148065.00946
        21.100    24212968.33246
  23669850.945 7 124385917.382 7        43.300                    96924095.07347
        29.400    23669853.48447
 17  4  9  1 29 30.0000000  0 12G01G32G08G19G28G14G17G03G22G11G31G23
  20202426.227 9 106164465.578 9        57.400    20202433.211 9  82725598.29649
        50.700    20202432.75449  20202428.855 7  79278693.046 7        43.600
  23958487.602 7 125902733.581 7        43.400    23958493.379 6  98106056.49247
        25.700    23958492.75847  23958490.035 1  94018293.813 1        30.400
  24225187.391 7 127304244.239 7        41.100    24225195.117 7  99198159.05947
        29.100    24225193.86747  24225189.660 1  95064894.263 1        30.100
  24156039.820 6 126940840.785 6        38.600                    98914952.69146
        22.600    24156039.75446
  24578582.906 6 129161320.550 6        38.300                   100645198.91445
        17.400    24578585.60945
  22435451.617 8 117899111.655 8        46.000                    91869459.55749
        34.600    22435455.09849
  22987325.398 9 120799201.286 9        48.600    22987329.762 7  94129268.17249
        36.300    22987329.26649
  20708996.008 9 108826527.251 9        55.000    20709002.918 9  84799919.23749
        48.000    20709001.84449  20709000.215 7  81266574.461 7        41.300
  20402748.211 9 107217176.987 9        53.700                    83545862.51649
        48.700    20402749.25449
  20713300.555 9 108849076.964 9        52.300                    84817534.81149
        43.800    20713303.79349
  24200689.258 7 127175470.568 7        42.600    24200694.344 5  99097794.84946
        24.600    24200692.81346
  23650359.695 7 124283488.659 7        43.400                    96844280.48748
        30.600    23650361.87948
 17  4  9  1 30  0.0000000  0 12G01G32G08G19G28G14G17G03G22G11G31G23
  20204855.977 9 106177233.793 9        56.600    20204862.910 9  82735547.55749
        50.600    20204862.56649  20204858.488 7  79288227.762 7        43.000
  23975952.016 7 125994510.215 7        43.000    23975957.383 6  98177570.77147
        26.000    23975956.55547  23975953.246 1  94086828.354 1        29.400
  24246801.461 7 127417827.382 7        41.700    24246809.711 7  99286665.39047
        29.700    24246808.63347  24246805.246 3  95149712.846 3        32.400
  24137724.570 6 126844596.667 6        38.900                    98839957.23346
        23.600    24137724.36746
  24591180.750 5 129227521.791 5        37.200                   100696784.25645
        19.000    24591183.50045
  22445779.023 8 117953380.269 8        46.700                    91911746.78049
        34.900    22445782.68849
  22974097.188 9 120729684.520 9        49.400    22974101.008 7  94075099.25449
        36.400    22974100.00049
  20701444.313 9 108786843.121 9        54.900    20701451.285 9  84768996.56049
        48.300    20701450.14549  20701448.457 7  81236940.227 7        41.400
  20404121.250 9 107224393.539 9        53.700                    83551485.80549
        48.700    20404122.32449
  20725219.781 9 108911712.950 9        51.900                    84866342.06649
        43.400    20725222.84449
  24188479.586 7 127111309.815 7        42.700    24188484.059 6  99047799.45647
        26.100    24188483.63747
  23630898.000 7 124181214.789 7        43.300                    96764586.57248
        30.000    23630899.68048
 17  4  9  1 30 30.0000000  0 12G01G32G08G19G28G14G17G03G22G11G31G23
  20207366.328 9 106190427.070 9        56.800    20207373.723 9  82745828.03349
        50.500    20207373.25449  20207369.410 7  79298079.886 7        43.700
  23993473.016 7 126086581.296 7        42.500    23993478.348 6  98249314.52447
        27.000    23993477.55147  23993474.184 1  94155582.776 1        29.600
  24268428.570 6 127531482.620 6        40.700    24268436.152 6  99375227.89647
        26.700    24268435.32847  24268432.641 3  95234585.211 3        32.200
  24119470.500 5 126748668.558 5        37.600                    98765208.07446
        24.100    24119471.64146
  24603824.836 5 129293967.484 5        37.900                   100748560.17445
        18.300    24603827.75845
  22456194.313 8 118008115.252 8        46.400                    91954397.42749
        34.000    22456197.76249
  22960947.500 9 120660583.875 9        49.500    22960951.727 7  94021254.60549
        36.900    22960951.37949
  20693962.359 9 108747524.345 9        55.500    20693968.723 9  84738358.56049
        48.500    20693968.21149  20693966.055 7  81207578.822 7        42.500
  20405560.180 9 107231954.842 9        54.400                    83557377.72949
        48.600    20405561.30549
  20737231.063 9 108974832.187 9        51.600                    84915525.87149
        43.800    20737234.38749
  24176337.227 7 127047504.995 7        41.200    24176342.352 5  98998081.42846
        22.500    24176341.84446
  23611465.219 7 124079097.587 7        43.400                    96685014.72748
        30.200    23611467.32048
 17  4  9  1 31  0.0000000  0 12G01G32G08G19G28G14G17G03G22G11G31G23
  20209957.813 9 106204045.516 9        56.400    20209964.988 9  82756439.80749
        50.500    20209964.67249  20209960.945 7  79308249.502 7        43.800
  24011047.977 6 126178944.043 6        40.100    24011055.836 7  98321285.49847
        26.800    24011055.32447  24011051.258 1  94224554.971 1        30.700
  24290070.102 7 127645207.239 7        42.200    24290077.969 7  99463844.54647
        27.100    24290076.10547  24290072.188 1  95319509.466 1        29.600
  24101276.672 6 126653059.254 6        38.900                    98690707.29047
        26.000    24101277.53147
  24616514.938 5 129360654.561 5        37.800                   100800524.07946
        20.100    24616519.34046
  22466698.250 8 118063314.288 8        45.900                    91997409.67949
        34.400    22466701.75849
  22947877.844 9 120591901.574 9        48.700    22947881.852 8  93967735.93549
        37.200    22947881.57049
  20686549.836 9 108708570.955 9        54.900    20686556.520 9  84708005.28749
        48.600    20686555.64849  20686553.730 7  81178490.253 7        41.700
  20407064.344 9 107239859.643 9        53.700                    83563537.31049
        48.600    20407065.56349
  20749333.828 9 109038433.001 9        50.900                    84965084.94149
        43.500    20749337.17249
  24164264.977 7 126984058.728 7        42.900    24164269.188 5  98948642.82546
        22.200    24164267.88746
  23592063.313 7 123977139.281 7        43.400                    96605566.72447
        29.600    23592065.08647
 17  4  9  1 31 30.0000000  0 12G01G32G08G19G28G14G17G03G22G11G31G23
  20212630.391 9 106218089.665 9        56.700    20212637.656 9  82767383.30549
        50.500    20212637.34849  20212633.332 7  79318737.018 7        43.500
  24028680.258 7 126271595.967 7        41.100    24028685.633 6  98393481.78947
        26.700    24028685.48447  24028681.594 2  94293743.102 2        31.100
  24311724.563 7 127758998.676 7        41.700    24311733.266 7  99552513.19548
        30.300    24311732.19548  24311728.160 3  95404483.636 3        32.200
  24083143.563 5 126557771.467 5        37.800                    98616457.06346
        22.200    24083143.52046
  24629251.297 6 129427580.507 6        38.900                   100852674.18746
        20.100    24629253.71146
  22477290.219 8 118118975.924 8        46.000                    92040782.37949
        34.400    22477293.79349
  22934888.242 9 120523640.252 9        48.000    22934892.379 7  93914545.29449
        36.600    22934891.90249
  20679206.906 9 108669983.181 9        54.700    20679213.438 9  84677936.89749
        48.400    20679212.66449  20679211.039 7  81149674.724 7        42.000
  20408634.031 9 107248107.757 9        53.600                    83569964.41449
        48.700    20408635.13349
  20761528.156 9 109102514.131 9        50.800                    85015018.27949
        43.400    20761531.25449
  24152260.875 7 126920973.961 7        44.000    24152264.656 6  98899485.89447
        25.300    24152264.21147
  23572692.242 7 123875342.486 7        43.600                    96526244.55648
        30.300    23572694.38348
 17  4  9  1 32  0.0000000  0 12G01G32G08G19G28G14G17G03G22G11G31G23
  20215384.055 9 106232559.767 9        56.800    20215391.145 9  82778658.70949
        50.600    20215390.66849  20215386.707 7  79329542.616 7        43.500
  24046365.484 7 126364534.438 7        41.900    24046371.102 6  98465901.40746
        24.300    24046370.43446  24046367.598 1  94363145.219 1        30.000
  24333389.703 6 127872854.445 6        39.400    24333397.742 7  99641231.90647
        26.200    24333397.39147  24333394.410 3  95489505.737 3        32.600
  24065072.797 6 126462808.128 6        39.300                    98542459.66446
        24.700    24065073.10546
  24642031.008 5 129494742.456 5        36.400                   100905008.18545
        17.800    24642033.13345
  22487970.070 8 118175098.386 8        46.900                    92084514.17749
        34.300    22487973.59049
  22921979.391 9 120455802.211 9        49.900    22921983.129 7  93861684.47449
        37.100    22921982.68849
  20671933.461 9 108631761.134 9        55.200    20671940.094 9  84648153.49649
        48.500    20671939.21949  20671937.535 7  81121132.303 7        41.600
  20410268.906 9 107256698.377 9        53.100                    83576658.40949
        48.700    20410270.29349
  20773813.359 9 109167074.297 9        51.300                    85065324.89349
        43.200    20773816.50849
  24140324.375 7 126858253.565 7        42.300    24140329.438 6  98850612.87046
        23.600    24140328.78946
  23553351.844 7 123773709.069 7        43.600                    96447049.67147
        29.900    23553354.57447
 17  4  9  1 32 30.0000000  0 12G01G32G08G19G28G14G17G03G22G11G31G23
  20218218.688 9 106247456.041 9        56.200    20218225.609 9  82790266.18749
        50.500    20218225.50449  20218221.367 7  79340666.453 7        43.700
  24064105.352 6 126457756.808 6        40.800    24064110.449 6  98538542.23846
        24.700    24064109.82446  24064106.285 1  94432759.352 1        29.100
  24355067.992 7 127986772.005 7        41.000    24355075.082 6  99729998.89347
        25.700    24355073.62147  24355071.871 2  95574574.024 2        31.200
  24047064.258 6 126368171.862 6        38.800                    98468717.13146
        24.000    24047064.67646
  24654854.992 3 129562137.36313        32.800                   100957523.67555
        15.600    24654859.01645
  22498737.078 8 118231679.344 8        45.300                    92128603.24348
        33.900    22498740.54748
  22909150.664 9 120388389.569 9        48.100    22909154.320 7  93809155.13949
        36.500    22909154.28949
  20664729.523 9 108593904.831 9        54.100    20664736.383 9  84618655.08149
        48.500    20664735.71149  20664733.789 7  81092862.997 7        41.000
  20411968.555 9 107265630.516 9        53.500                    83583618.52549
        48.500    20411969.58649
  20786189.789 9 109232111.858 9        51.500                    85116003.50249
        42.800    20786193.05149
  24128459.648 7 126795900.251 7        42.700    24128463.039 5  98802025.91446
        23.900    24128462.31346
  23534043.734 7 123672241.275 7        43.900                    96367983.86848
        30.000    23534044.93448
 17  4  9  1 33  0.0000000  0 12G01G32G08G19G28G14G17G03G22G11G31G23
  20221134.547 9 106262778.795 9        56.600    20221141.816 9  82802205.99749
        50.600    20221141.40249  20221137.387 7  79352108.767 7        43.800
  24081897.914 6 126551260.429 6        40.400    24081903.770 6  98611402.22246
        24.700    24081902.85546  24081899.785 2  94502583.525 2        31.000
  24376756.375 6 128100748.884 6        38.600    24376765.539 7  99818812.09347
        28.100    24376764.30547  24376759.688 1  95659686.723 1        29.200
  24029118.523 6 126273865.936 6        40.000                    98395231.94747
        26.800    24029118.79347
  24667725.055 5 129629763.13615        37.100                   101010218.99655
        19.300    24667728.18045
  22509590.961 8 118288716.897 8        45.700                    92173048.08049
        34.400    22509594.12949
  22896404.375 9 120321404.785 9        48.500    22896407.520 7  93756959.19749
        36.800    22896407.64149
  20657595.281 9 108556414.426 9        55.900    20657601.969 9  84589441.78549
        48.800    20657601.16849  20657599.422 7  81064866.919 7        41.600
  20413733.352 9 107274903.871 9        53.700                    83590844.52349
        48.700    20413734.34049
  20798656.852 9 109297625.244 9        51.700                    85167052.87949
        43.600    20798660.05949
  24116664.219 7 126733917.053 7        42.800    24116668.695 5  98753727.33447
        25.300    24116666.51247
  23514766.711 7 123570941.207 7        44.600                    96289048.76548
        30.200    23514768.28148
 17  4  9  1 33 30.0000000  0 12G01G32G08G19G28G14G17G03G22G11G31G23
  20224131.594 9 106278528.337 9        56.100    20224138.930 9  82814478.36749
        50.500    20224138.62549  20224134.785 7  79363869.786 7        43.400
  24099744.289 6 126645042.661 6        40.100    24099750.727 6  98684479.31147
        25.400    24099749.69547  24099746.625 1  94572615.728 1        30.400
  24398457.969 6 128214782.355 6        40.300    24398464.844 7  99907669.22547
        29.100    24398464.10547  24398460.129 2  95744841.525 2        31.700
  24011235.609 6 126179892.575 6        38.300                    98322005.96447
        26.300    24011237.76247
  24680637.094 6 129697616.163 6        38.900                   101063091.42645
        18.600    24680639.97745
  22520531.484 8 118346209.138 8        45.600                    92217847.24349
        34.000    22520534.75849
  22883738.945 9 120254850.238 9        48.700    22883742.742 7  93705098.49849
        36.000    22883742.39549
  20650530.789 9 108519289.961 9        56.100    20650537.422 9  84560513.64049
        48.900    20650536.48049  20650534.563 7  81037144.113 7        41.900
  20415562.750 9 107284517.475 9        53.000                    83598335.64449
        48.600    20415563.89149
  20811213.688 9 109363613.273 9        50.300                    85218472.09949
        43.300    20811216.90649
  24104939.773 7 126672306.632 7        42.100    24104945.145 5  98705719.23346
        24.700    24104943.46146
  23495522.523 7 123469811.058 7        44.100                    96210246.06848
        30.800    23495524.59848
 17  4  9  1 34  0.0000000  0 12G01G32G08G19G28G14G17G03G22G11G31G23
  20227209.992 9 106294705.220 9        56.900    20227217.039 9  82827083.71949
        50.800    20227216.77749  20227212.816 7  79375949.905 7        43.700
  24117642.078 6 126739101.365 6        39.400    24117648.969 6  98757771.81547
        25.500    24117648.47747  24117645.113 1  94642854.366 1        30.500
  24420167.813 7 128328869.893 7        42.200    24420173.457 6  99996568.61747
        25.300    24420172.73847  24420170.695 3  95830036.724 3        32.400
  23993417.086 6 126086255.180 6        39.600                    98249041.77347
        26.400    23993419.24247
  24693591.891 5 129765694.294 5        37.000                   101116139.43545
        17.800    24693594.12145
  22531558.297 8 118404154.352 8        45.600                    92262999.36249
        34.000    22531561.12549
  22871156.188 9 120188727.917 9        48.900    22871160.328 7  93653574.60749
        36.200    22871159.35249
  20643535.719 9 108482531.861 9        55.000    20643542.586 9  84531870.97349
        48.900    20643541.93049  20643539.895 7  81009694.884 7        42.600
  20417456.867 9 107294471.323 9        53.200                    83606091.89549
        48.800    20417458.05949
  20823860.836 9 109430074.640 9        51.400                    85270260.16049
        43.500    20823863.96149
  24093287.750 7 126611072.043 7        42.900    24093291.656 5  98658004.00447
        25.400    24093290.87147
  23476311.156 7 123368853.159 7        44.400                    96131577.57248
        31.100    23476312.96948
 17  4  9  1 34 30.0000000  0 12G01G32G08G19G28G14G17G03G22G11G31G23
  20230369.648 9 106311309.406 9        56.100    20230376.609 9  82840022.03849
        50.600    20230376.29749  20230372.340 7  79388349.131 7        43.400
  24135593.672 6 126833433.438 6        38.800    24135600.262 6  98831277.35046
        23.500    24135599.36746  24135595.945 1  94713297.155 1        30.600
  24441886.125 6 128443008.973 6        40.200    24441894.668 6 100085508.25747
        26.200    24441893.50847  24441889.180 1  95915270.487 1        27.000
  23975663.117 6 125992956.213 6        40.500                    98176341.21546
        23.600    23975663.01646
  24706588.359 5 129833994.473 5        36.100                   101169360.36045
        17.800    24706590.97745
  22542670.344 8 118462550.460 8        46.000                    92308502.82748
        33.900    22542673.75448
  22858656.359 9 120123040.089 9        49.100    22858660.063 7  93602389.27849
        36.500    22858659.60249
  20636610.523 9 108446139.889 9        55.600    20636617.258 9  84503513.59749
        48.700    20636616.39549  20636614.824 7  80982519.067 7        42.000
  20419415.594 9 107304764.207 9        52.800                    83614112.33049
        48.500    20419416.30149
  20836597.734 9 109497007.450 9        51.000                    85322415.58649
        43.400    20836601.08249
  24081706.484 7 126550215.888 7        42.200    24081711.555 6  98610583.63546
        24.800    24081710.44146
  23457132.281 7 123268069.425 7        44.300                    96053044.80848
        31.100    23457133.51648
 17  4  9  1 35  0.0000000  0 12G01G32G08G19G28G14G17G03G22G11G31G23
  20233610.734 9 106328341.193 9        56.300    20233618.020 9  82853293.56949
        50.500    20233617.56349  20233613.840 7  79401067.683 7        43.000
  24153595.703 6 126928036.347 6        38.300    24153602.480 6  98904993.91246
        22.600    24153601.58646  24153597.402 1  94783942.222 1        28.900
  24463615.898 6 128557197.073 6        40.600    24463624.961 7 100174485.93347
        29.400    24463624.00847  24463619.621 1  96000540.874 1        30.600
  23957973.281 6 125899998.576 6        39.500                    98103906.67247
        26.600    23957975.07447
  24719627.430 5 129902513.934 5        36.900                   101222752.10546
        21.100    24719631.38746
  22553868.344 8 118521395.183 8        45.300                    92354355.85649
        34.200    22553871.75849
  22846239.695 9 120057788.813 9        48.100    22846243.598 7  93551544.12449
        36.400    22846243.06649
  20629755.211 9 108410114.163 9        55.600    20629762.055 9  84475441.60849
        48.800    20629761.19149  20629759.270 7  80955616.750 7        42.600
  20421438.492 9 107315395.516 9        53.600                    83622396.47049
        48.400    20421439.82849
  20849424.125 9 109564410.149 9        51.400                    85374937.15849
        43.200    20849427.23849
  24070198.523 7 126489741.069 7        42.400    24070203.262 6  98563460.41846
        24.600    24070202.58646
  23437987.031 7 123167462.150 7        44.100                    95974649.53448
        31.100    23437989.25448
 17  4  9  1 35 30.0000000  0 12G01G32G08G19G28G14G17G03G22G11G31G23
  20236933.156 9 106345800.898 9        56.900    20236940.277 9  82866898.52949
        50.600    20236940.08249  20236936.008 7  79414105.771 7        43.200
  24171649.391 6 127022907.601 6        40.200    24171655.418 7  98978919.57847
        25.000    24171655.03547  24171651.023 1  94854787.667 1        29.700
  24485354.445 7 128671431.935 7        42.600    24485361.922 7 100263500.10447
        27.900    24485361.30147  24485358.320 3  96085846.100 3        33.000
  23940349.922 6 125807385.097 6        38.800                    98031740.36947
        26.800    23940351.73847
  24732706.906 3 129971249.939 3        33.700                   101276312.55745
        18.300    24732711.42245
  22565151.195 8 118580686.637 8        46.800                    92400556.99249
        34.200    22565154.35949
  22833906.117 9 119992976.585 9        48.700    22833910.309 7  93501041.08049
        37.300    22833909.60949
  20622969.445 9 108374454.800 9        55.400    20622976.246 9  84447655.09849
        48.700    20622975.48849  20622973.102 7  80928988.013 7        42.200
  20423526.047 9 107326364.742 9        53.000                    83630943.92349
        48.500    20423526.97349
  20862339.297 9 109632281.453 9        50.200                    85427823.86749
        43.200    20862342.84049
  24058764.359 7 126429650.346 7        42.600    24058768.672 6  98516636.50046
        23.600    24058768.37146
  23418876.523 7 123067033.452 7        44.500                    95896393.41648
        32.000    23418877.92648
 17  4  9  1 36  0.0000000  0 12G01G32G08G19G28G14G17G03G22G11G31G23
  20240337.172 9 106363688.768 9        57.100    20240344.004 9  82880837.12649
        50.600    20240343.87149  20240339.738 7  79427463.593 7        43.300
  24189753.164 7 127118044.612 7        41.000    24189759.801 7  99053052.30047
        27.100    24189759.38347  24189755.668 1  94925831.551 1        30.000
  24507100.414 6 128785710.903 6        39.200    24507108.098 6 100352548.71347
        25.600    24507106.66847  24507104.453 1  96171184.254 1        30.900
  23922793.430 6 125715118.645 6        40.800                    97959844.40847
        26.200    23922793.39147
  24745828.813 6 130040199.948 6        38.900                   101330039.82245
        19.900    24745831.65245
  22576518.422 8 118640422.725 8        45.200                    92447104.59748
        33.600    22576522.01648
  22821657.016 9 119928605.499 9        49.600    22821661.094 7  93450881.79449
        37.500    22821660.79349
  20616253.594 9 108339161.968 9        56.300    20616260.355 9  84420154.19849
        48.800    20616259.27049  20616257.293 7  80902632.972 7        41.200
  20425677.281 9 107337671.211 9        52.300                    83639754.15749
        48.600    20425678.56349
  20875343.719 9 109700619.679 9        50.300                    85481074.41749
        43.100    20875347.22349
  24047403.078 7 126369946.535 7        43.600    24047407.414 6  98470114.08247
        26.200    24047406.67647
  23399799.930 7 122966785.442 7        44.300                    95818278.10048
        30.900    23399800.85548
