     2.11           OBSERVATION DATA    G (GPS)             RINEX VERSION / TYPE
teqc  2015Jun23                         20150824 00:11:18UTCPGM / RUN BY / DATE
ZIMM                                                        MARKER NAME
14001M004                                                   MARKER NUMBER
TRIMBLE NETR9       SWISSTOPO                               OBSERVER / AGENCY
5429R49141          TRIMBLE NETR9       5.03                REC # / TYPE / VERS
99390               TRM29659.00     NONE                    ANT # / TYPE
  4331296.9226   567556.0704  4633134.0631                  APPROX POSITION XYZ
        0.0000        0.0000        0.0000                  ANTENNA: DELTA H/E/N
     1     1                                                WAVELENGTH FACT L1/2
    10    C1    L1    S1    C2    L2    S2    P2    C5    L5# / TYPES OF OBSERV
          S5                                                # / TYPES OF OBSERV
    30.0000                                                 INTERVAL
Linux2.6.32-279.el6.x86_64|x86_64|gcc|Win64-MinGW64|=       COMMENT
     2.11           OBSERVATION DATA    M (MIXED)           COMMENT
NetR9 5.03          Receiver Operator   23-AUG-15 00:00:00  COMMENT
L2C CARRIER PHASE MEASUREMENTS: PHASE SHIFTS REMOVED        COMMENT
L2C PHASE MATCHES L2 P PHASE                                COMMENT
GLONASS C/A & P PHASE MATCH: PHASE SHIFTS REMOVED           COMMENT
GIOVE-A if present is mapped to satellite ID 51             COMMENT
GIOVE-B if present is mapped to satellite ID 52             COMMENT
Forced Modulo Decimation to 30 seconds                      COMMENT
teqc edited: all GLONASS satellites excluded                COMMENT
teqc edited: all Galileo satellites excluded                COMMENT
  2015     8    23     0     0    0.0000000     GPS         TIME OF FIRST OBS
                                                            END OF HEADER
 15  8 23  0  0  0.0000000  0  8G05G07G28G02G06G09G30G13
  21278926.867 9 111821552.468 9        50.300    21278931.371 9  87133704.29449
        43.800    21278930.72349
  20635673.391 9 108441233.523 9        51.200    20635677.492 9  84499683.90549
        46.000    20635677.04349
  24396148.250 6 128202630.996 6        40.100                    99898177.28146
        22.000    24396152.03546
  22606470.594 8 118797837.137 8        46.300                    92569760.35749
        34.200    22606472.25049
  24326991.922 6 127839204.747 6        40.900    24327000.051 6  99615012.36147
        25.800    24326998.32047  24326996.945 1  95464386.107 1        29.300
  22448726.258 9 117968937.580 9        48.600    22448732.418 8  91923895.62349
        36.900    22448732.05549  22448729.855 5  88093745.988 5        36.900
  20480647.227 9 107626554.974 9        55.000    20480654.520 9  83864884.99249
        47.600    20480653.46549  20480651.145 7  80370509.552 7        42.500
  23535866.398 7 123681831.677 7        43.600                    96375480.39547
        28.600    23535870.39147
 15  8 23  0  0 30.0000000  0  8G05G07G28G02G06G09G30G13
  21268399.313 9 111766227.457 9        50.800    21268403.359 9  87090593.89449
        43.800    21268402.76649
  20641633.047 9 108472552.230 9        52.400    20641637.172 9  84524088.09149
        45.400    20641636.77749
  24377198.305 6 128103048.832 6        39.000                    99820580.88245
        19.300    24377202.15645
  22618816.430 8 118862714.371 8        45.900                    92620314.02248
        33.100    22618818.34448
  24347223.352 6 127945524.879 6        40.900    24347232.320 7  99697859.14347
        25.800    24347231.10547  24347229.789 1  95543780.975 1        30.800
  22463466.016 9 118046394.711 9        48.000    22463472.512 8  91984251.81449
        36.900    22463472.14549  22463470.238 5  88151587.334 5        36.700
  20473956.008 9 107591392.726 9        55.700    20473963.223 9  83837485.84849
        48.100    20473962.24249  20473959.570 7  80344252.038 7        42.500
  23518830.359 7 123592310.374 7        42.800                    96305723.58347
        27.000    23518834.83247
 15  8 23  0  1  0.0000000  0  8G05G07G28G02G06G09G30G13
  21257953.664 9 111711335.407 9        51.900    21257958.082 9  87047820.87449
        44.300    21257957.47349
  20647680.609 9 108504332.011 9        51.300    20647684.301 9  84548851.56149
        45.500    20647684.02749
  24358254.563 6 128003499.502 6        40.800                    99743009.93845
        19.600    24358257.86745
  22631236.453 8 118927982.696 8        45.900                    92671172.42149
        34.600    22631238.44549
  24367463.609 6 128051885.992 6        40.800    24367471.715 6  99780737.91646
        24.500    24367470.14546  24367469.238 1  95623206.436 1        30.400
  22478238.844 9 118124025.624 9        48.300    22478244.855 8  92044743.41649
        37.300    22478244.50449  22478242.832 5  88209558.453 5        36.900
  20467363.461 9 107556747.200 9        55.300    20467370.348 9  83810489.34549
        48.000    20467369.18849  20467366.867 7  80318380.389 7        42.700
  23501817.352 7 123502901.723 7        43.000                    96236054.54347
        27.200    23501821.13347
 15  8 23  0  1 30.0000000  0  8G05G07G28G02G06G09G30G13
  21247590.633 9 111656877.864 9        51.300    21247594.996 9  87005386.42949
        43.700    21247594.13749
  20653815.328 9 108536571.210 9        51.200    20653819.488 9  84573973.01949
        45.700    20653819.02749
  24339316.469 6 127903985.196 6        38.100                    99665466.31546
        21.500    24339322.46546
  22643730.859 8 118993639.070 8        45.500                    92722333.21749
        35.000    22643734.00049
  24387710.461 6 128158284.801 6        40.200    24387719.246 6  99863646.04847
        25.500    24387717.85247  24387716.125 1  95702660.048 1        28.200
  22493044.195 8 118201829.218 8        47.000    22493050.379 8  92105369.57749
        37.100    22493050.07849  22493048.465 5  88267658.512 5        36.900
  20460868.602 9 107522618.478 9        55.200    20460875.523 9  83783895.53549
        47.900    20460874.67249  20460872.004 7  80292894.659 7        42.700
  23484824.703 7 123413606.389 7        43.900                    96166473.80347
        28.000    23484828.88747
 15  8 23  0  2  0.0000000  0  8G05G07G28G02G06G09G30G13
  21237311.094 9 111602857.493 9        51.600    21237315.133 9  86963292.63849
        44.400    21237314.55549
  20660037.547 9 108569268.580 9        51.600    20660041.762 9  84599451.48949
        45.400    20660041.27749
  24320388.039 6 127804509.277 6        40.900                    99587952.71646
        21.500    24320392.72746
  22656298.484 8 119059681.362 8        46.100                    92773794.71449
        34.800    22656299.78149
  24407964.320 6 128264718.654 6        39.700    24407972.676 7  99946581.50347
        25.600    24407971.77047  24407969.105 1  95782139.863 1        28.900
  22507882.523 8 118279805.032 8        47.600    22507888.762 8  92166129.92949
        36.400    22507888.32449  22507886.359 5  88325887.180 5        36.900
  20454472.805 9 107489007.189 9        55.200    20454479.367 9  83757704.93649
        48.000    20454478.61749  20454476.238 7  80267795.332 7        42.500
  23467853.906 7 123324424.982 7        42.600                    96096981.83047
        27.200    23467858.24247
 15  8 23  0  2 30.0000000  0  8G05G07G28G02G06G09G30G13
  21227114.477 9 111549275.397 9        49.900    21227118.879 9  86921540.35949
        44.600    21227118.14549
  20666346.633 9 108602422.565 9        49.900    20666351.063 9  84625285.76449
        45.300    20666350.77349
  24301467.414 7 127705074.636 7        42.600                    99510471.19446
        22.200    24301470.12146
  22668938.070 8 119126106.613 8        45.000                    92825554.62848
        33.800    22668940.24648
  24428223.961 7 128371184.443 7        41.100    24428232.855 6 100029541.79646
        24.700    24428231.55546  24428229.711 1  95861643.472 1        29.200
  22522753.367 8 118357952.196 8        47.200    22522760.164 8  92227023.80749
        36.700    22522759.14849  22522757.184 5  88384243.815 5        36.300
  20448175.438 9 107455913.537 9        55.800    20448182.160 9  83731917.68149
        48.400    20448181.46149  20448178.672 7  80243082.552 7        42.600
  23450904.766 7 123235358.151 7        42.300                    96027579.14447
        27.800    23450909.16047
 15  8 23  0  3  0.0000000  0  8G05G07G28G02G06G09G30G13
  21217002.172 9 111496134.143 9        51.200    21217006.566 9  86880131.59249
        44.600    21217005.85949
  20672742.203 9 108636031.606 9        52.000    20672746.383 9  84651474.62349
        45.200    20672745.70349
  24282552.172 6 127605683.563 6        40.000                    99433023.55845
        19.600    24282555.33245
  22681650.672 8 119192912.144 8        45.200                    92877610.85948
        33.800    22681652.50448
  24448488.906 6 128477679.346 6        40.500    24448496.863 6 100112524.82746
        22.800    24448495.87546  24448495.086 1  95941168.846 1        29.400
  22537656.438 8 118436270.131 8        47.100    22537662.855 8  92288050.75049
        36.200    22537662.44149  22537660.184 5  88442727.970 5        35.800
  20441976.258 9 107423338.063 9        54.700    20441983.504 9  83706534.19849
        47.900    20441982.67249  20441980.000 7  80218756.715 7        43.000
  23433978.320 7 123146406.637 7        43.200                    95958266.29747
        27.700    23433982.21547
 15  8 23  0  3 30.0000000  0  9G05G07G28G02G20G06G09G30G13
  21206974.000 9 111443435.853 9        51.000    21206978.176 9  86839067.98449
        44.400    21206977.57049
  20679224.188 9 108670094.364 9        51.300    20679228.301 9  84678017.03749
        45.200    20679227.72749
  24263648.883 7 127506339.137 7        42.000                    99355612.37446
        22.800    24263653.10546
  22694435.625 7 119260095.268 7        44.400                    92929961.31949
        34.500    22694437.83649
  24990551.188 5 131326227.23115        37.200

  24468759.266 6 128584200.478 6        39.900    24468767.859 7 100195528.25046
        23.600    24468767.34446  24468764.680 1  96020713.807 1        27.800
  22552592.453 8 118514758.154 8        46.700    22552598.645 8  92349210.22749
        36.000    22552598.47749  22552596.340 5  88501339.126 5        36.800
  20435876.125 9 107391281.096 9        55.300    20435883.219 9  83681554.75549
        48.000    20435882.57849  20435880.258 7  80194818.074 7        43.000
  23417073.664 7 123057571.168 7        42.900                    95889043.89847
        27.400    23417077.53947
 15  8 23  0  4  0.0000000  0  9G05G07G28G02G20G06G09G30G13
  21197030.344 9 111391181.545 9        51.800    21197034.438 9  86798350.34749
        43.800    21197033.91049
  20685792.211 9 108704608.948 9        51.900    20685796.461 9  84704911.51149
        45.500    20685795.81349
  24244753.063 6 127407044.118 6        40.700                    99278239.66546
        22.500    24244757.47746
  22707291.570 8 119327653.127 8        45.300                    92982603.79649
        34.000    22707293.39149
  24970024.164 6 131218354.034 6        39.500                   102248083.51355
        19.900    24970026.66445
  24489033.758 6 128690744.857 6        40.000    24489043.344 6 100278549.81347
        25.800    24489042.32047  24489039.480 1  96100276.150 1        28.700
  22567560.242 8 118593415.478 8        46.900    22567566.918 8  92410501.62449
        36.000    22567566.52749  22567564.621 5  88560076.703 5        36.500
  20429874.563 9 107359742.855 9        55.000    20429881.871 9  83656979.51249
        48.000    20429880.94149  20429878.273 7  80171266.804 7        42.400
  23400190.367 7 122968852.418 7        42.800                    95819912.43747
        28.300    23400194.55147
 15  8 23  0  4 30.0000000  0  9G05G07G28G02G20G06G09G30G13
  21187171.313 9 111339373.534 9        50.300    21187175.859 9  86757980.46849
        44.000    21187175.25449
  20692445.555 9 108739573.821 9        51.500    20692449.469 9  84732156.87049
        44.900    20692448.90249
  24225867.477 6 127307801.452 6        40.400                    99200907.70346
        20.600    24225870.43846
  22720218.016 7 119395583.312 7        44.700                    93035536.38648
        33.600    22720220.05548
  24949513.406 5 131110571.358 5        37.300                   102164096.99045
        16.300    24949516.71145
  24509312.828 6 128797309.607 6        38.700    24509321.680 6 100361587.24846
        22.600    24509320.87946  24509318.508 1  96179853.667 1        29.300
  22582560.273 8 118672241.363 8        46.800    22582566.840 8  92471924.37249
        35.900    22582566.53949  22582564.578 5  88618940.173 5        35.900
  20423971.664 9 107328723.681 9        54.900    20423979.000 9  83632808.72349
        48.100    20423978.28149  20423975.496 7  80148103.137 7        42.300
  23383330.516 7 122880250.916 7        43.800                    95750872.33247
        28.700    23383334.01647
 15  8 23  0  5  0.0000000  0  9G05G07G28G02G20G06G09G30G13
  21177397.852 9 111288014.309 9        50.900    21177402.645 9  86717960.29449
        45.000    21177401.95349
  20699184.414 9 108774987.800 9        51.700    20699188.918 9  84759752.18049
        45.300    20699188.20749
  24206993.031 7 127208613.712 7        41.400                    99123618.59346
        23.000    24206996.84446
  22733214.977 7 119463883.112 7        43.600                    93088756.98948
        33.600    22733217.24648
  24929020.906 5 131002881.407 5        37.900                   102080182.77145
        17.800    24929024.60945
  24529594.945 6 128903891.815 6        40.400    24529603.039 6 100444638.29946
        22.600    24529601.92646  24529599.555 1  96259444.221 1        27.700
  22597592.609 8 118751235.263 8        47.300    22597599.094 8  92533478.05049
        35.700    22597598.61349  22597596.180 5  88677929.105 5        35.700
  20418167.891 9 107298223.976 9        54.400    20418174.793 9  83609042.73049
        48.100    20418174.05949  20418171.449 7  80125327.396 7        42.600
  23366492.492 7 122791767.606 7        43.500                    95681924.31547
        28.200    23366496.39547
 15  8 23  0  5 30.0000000  0  9G05G07G28G02G20G06G09G30G13
  21167710.750 9 111237105.381 9        51.100    21167715.043 9  86678291.00749
        44.100    21167714.39549
  20706008.641 9 108810849.162 9        51.200    20706012.641 9  84787696.09649
        45.200    20706012.17249
  24188128.938 7 127109483.935 7        41.800                    99046374.65646
        23.800    24188133.55546
  22746282.297 7 119532549.526 7        44.400                    93142263.25349
        34.200    22746283.71949
  24908545.813 5 130895286.100 5        36.700                   101996342.28045
        16.300    24908548.98445
  24549878.898 6 129010488.563 6        38.400    24549888.164 7 100527700.67746
        23.300    24549886.87946  24549884.742 1  96339045.708 1        28.900
  22612656.359 8 118830396.290 8        47.000    22612663.184 8  92595161.93949
        35.900    22612663.06649  22612660.457 5  88737042.833 5        35.800
  20412462.633 9 107268243.821 9        54.800    20412469.836 9  83585681.58249
        48.100    20412469.14149  20412466.586 7  80102939.624 7        42.700
  23349676.773 7 122703403.137 7        42.500                    95613068.93347
        29.000    23349680.67647
 15  8 23  0  6  0.0000000  0  9G05G07G28G02G20G06G09G30G13
  21158109.000 9 111186648.634 9        51.200    21158113.422 9  86638974.05549
        44.900    21158112.93849
  20712917.859 9 108847156.304 9        51.800    20712922.090 9  84815987.38449
        45.500    20712921.52749
  24169276.539 6 127010415.013 6        40.300                    98969178.12646
        22.000    24169280.48846
  22759418.117 7 119601580.225 7        44.900                    93196053.39249
        34.400    22759419.74649
  24888089.727 5 130787787.642 5        37.800                   101912577.22945
        19.600    24888092.98045
  24570165.883 6 129117097.118 6        39.200    24570174.918 6 100610772.22146
        23.000    24570174.23846  24570172.570 1  96418655.928 1        29.700
  22627752.164 8 118909723.939 8        47.600    22627758.445 8  92656975.66649
        35.400    22627758.16049  22627756.371 5  88796280.978 5        36.800
  20406856.711 9 107238783.722 9        55.200    20406863.773 9  83562725.66549
        48.100    20406862.68049  20406860.242 7  80080940.206 7        41.900
  23332883.969 7 122615158.167 7        43.900                    95544306.64847
        28.600    23332888.21547
 15  8 23  0  6 30.0000000  0  9G05G07G28G02G20G06G09G30G13
  21148593.844 9 111136646.310 9        51.600    21148597.945 9  86600011.20649
        44.600    21148597.73849
  20719911.453 9 108883908.102 9        51.900    20719915.707 9  84844625.14549
        45.100    20719915.15649
  24150437.078 7 126911409.588 7        41.100                    98892031.02146
        21.500    24150439.43446
  22772623.359 8 119670972.548 8        45.300                    93250125.30548
        33.900    22772624.74648
  24867651.898 5 130680388.352 5        36.800                   101828889.50045
        17.400    24867655.57045
  24590455.539 6 129223714.594 6        40.400    24590463.414 6 100693850.75346
        22.600    24590462.71946  24590461.109 1  96498272.803 1        30.400
  22642879.109 8 118989217.660 8        47.500    22642885.504 8  92718918.80749
        35.500    22642885.29349  22642882.684 5  88855643.150 5        36.600
  20401349.859 9 107209844.006 9        55.300    20401356.973 9  83540175.23949
        48.300    20401356.05949  20401353.621 7  80059329.391 7        42.900
  23316115.000 8 122527033.419 8        45.900                    95475638.05147
        29.600    23316119.17247
 15  8 23  0  7  0.0000000  0  9G05G07G28G02G20G06G09G30G13
  21139165.711 9 111087100.372 9        51.200    21139169.965 9  86561403.97849
        44.600    21139169.37149
  20726989.602 9 108921102.783 9        51.600    20726993.359 9  84873608.01449
        45.500    20726992.89149
  24131609.258 7 126812470.798 7        41.700                    98814935.87946
        22.900    24131612.80146
  22785896.313 7 119740723.410 7        43.600                    93304476.61248
        33.700    22785898.06648
  24847233.859 5 130573090.182 5        36.600                   101745280.58845
        17.800    24847237.72345
  24610744.703 6 129330338.142 6        39.200    24610753.230 6 100776934.05246
        24.700    24610752.80146  24610750.020 1  96577894.283 1        27.500
  22658037.836 8 119068876.572 8        47.100    22658044.098 8  92780990.66949
        36.300    22658043.78549  22658041.527 5  88915128.675 5        36.000
  20395942.000 9 107181424.735 9        55.300    20395948.836 9  83518030.36849
        48.400    20395947.99249  20395945.438 7  80038107.217 7        42.600
  23299368.836 8 122439029.679 8        46.100                    95407063.75247
        29.600    23299372.89847
 15  8 23  0  7 30.0000000  0  9G05G07G28G02G20G06G09G30G13
  21129824.195 9 111038012.286 9        50.800    21129829.414 9  86523153.52449
        44.100    21129828.68049
  20734151.258 9 108958738.613 9        50.700    20734155.352 9  84902934.64049
        45.300    20734154.73049
  24112795.195 7 126713601.503 7        41.500                    98737894.91246
        22.600    24112799.25446
  22799236.906 7 119810830.229 7        44.100                    93359105.27848
        33.100    22799239.15648
  24826834.594 5 130465895.708 5        35.400                   101661752.41545
        18.300    24826839.16445
  24631035.602 7 129436964.752 7        41.000    24631044.160 7 100860019.64747
        25.300    24631043.35247  24631041.039 1  96657518.035 1        27.800
  22673227.680 8 119148699.926 8        46.900    22673234.598 8  92843190.65349
        35.900    22673234.10549  22673231.793 5  88974736.994 5        36.500
  20390632.430 9 107153526.030 9        54.400    20390639.863 9  83496291.12549
        48.300    20390638.92649  20390636.316 7  80017273.774 7        43.200
  23282645.195 8 122351147.436 8        46.700                    95338584.10647
        29.300    23282648.77347
 15  8 23  0  8  0.0000000  0  9G05G07G28G02G20G06G09G30G13
  21120570.195 9 110989383.931 9        50.900    21120574.848 9  86485261.29349
        45.000    21120574.33649
  20741396.820 9 108996813.927 9        51.300    20741401.156 9  84932603.71049
        45.100    20741400.40649
  24093994.508 7 126614803.967 7        41.900                    98660909.87746
        21.800    24093998.82846
  22812645.406 8 119881290.216 8        45.300                    93414009.15148
        33.600    22812647.39548
  24806457.227 5 130358806.964 5        36.600                   101578306.67145
        18.300    24806460.70745
  24651325.625 6 129543591.649 6        38.900    24651334.266 6 100943105.52746
        22.900    24651333.42246  24651332.105 1  96737141.978 1        30.100
  22688448.422 8 119228687.214 8        47.100    22688455.410 8  92905518.37849
        35.400    22688454.39849  22688452.844 5  89034467.730 5        35.700
  20385423.172 9 107126148.245 9        55.400    20385430.059 9  83474957.78949
        48.300    20385429.23449  20385426.563 7  79996829.332 7        43.100
  23265945.313 8 122263387.493 8        46.000                    95270199.75347
        28.700    23265949.10247
 15  8 23  0  8 30.0000000  0  9G05G07G28G02G20G06G09G30G13
  21111404.875 9 110941217.431 9        51.400    21111409.461 9  86447728.95849
        44.500    21111408.87949
  20748725.586 9 109035327.457 9        51.700    20748729.602 9  84962614.25649
        45.100    20748729.18049
  24075208.563 7 126516081.305 7        41.700                    98583983.08746
        21.800    24075211.72346
  22826120.359 7 119952100.642 7        44.800                    93469186.07348
        33.100    22826121.56348
  24786099.313 5 130251826.245 5        35.200                   101494945.05845
        17.800    24786102.14145
  24671615.680 6 129650216.090 6        38.200    24671624.680 7 101026189.48446
        22.000    24671623.60546  24671622.289 1  96816764.084 1        28.700
  22703701.117 8 119308837.704 8        47.400    22703707.469 8  92967973.28749
        35.600    22703707.27049  22703705.422 5  89094320.344 5        36.000
  20380312.258 9 107099291.592 9        55.300    20380319.238 9  83454030.53449
        48.400    20380318.17649  20380316.090 7  79976774.041 7        42.800
  23249268.180 7 122175750.846 7        44.400                    95201911.49847
        28.100    23249272.67247
 15  8 23  0  9  0.0000000  0  9G05G07G28G02G20G06G09G30G13
  21102327.672 9 110893514.482 9        50.200    21102331.715 9  86410557.83349
        44.500    21102331.05549
  20756137.563 9 109074277.410 9        51.600    20756141.738 9  84992964.87549
        45.100    20756141.07449
  24056437.008 7 126417436.648 7        41.300                    98507117.15446
        23.900    24056441.68046
  22839660.953 7 120023258.684 7        44.000                    93524633.87348
        33.200    22839663.18848
  24765763.047 5 130144955.509 5        35.900                   101411669.19045
        16.900    24765765.84045
  24691904.242 6 129756835.148 6        38.400    24691913.289 7 101109269.21046
        24.800    24691912.85246  24691910.309 1  96896382.164 1        28.300
  22718984.180 8 119389150.696 8        47.100    22718990.336 8  93030554.81849
        35.500    22718989.84049  22718988.285 5  89154294.301 5        36.200
  20375301.047 9 107072956.166 9        55.000    20375307.934 9  83433509.43249
        48.500    20375307.13749  20375304.699 7  79957107.988 7        43.800
  23232615.359 7 122088237.781 7        44.600                    95133719.53047
        28.900    23232618.81647
 15  8 23  0  9 30.0000000  0  9G05G07G28G02G20G06G09G30G13
  21093338.102 9 110846277.010 9        50.800    21093342.469 9  86373749.40949
        44.600    21093341.95349
  20763632.578 9 109113662.298 9        51.900    20763636.277 9  85023654.38949
        45.400    20763635.68449
  24037680.914 7 126318872.624 7        41.800                    98430314.07546
        24.200    24037684.88346
  22853267.398 8 120094761.554 8        45.400                    93580350.37148
        33.600    22853269.36348
  24745447.797 6 130038197.234 6        38.400                   101328480.93145
        19.300    24745450.41445
  24712192.133 6 129863445.873 6        38.400    24712200.285 6 101192342.48646
        22.500    24712199.64846  24712197.805 1  96975994.060 1        28.900
  22734298.031 8 119469625.512 8        46.600    22734304.289 8  93093262.44149
        35.100    22734303.84049  22734301.820 5  89214389.100 5        36.100
  20370388.688 9 107047142.133 9        54.900    20370395.871 9  83413394.60149
        48.400    20370394.99649  20370392.324 7  79937831.279 7        43.600
  23215985.305 7 122000849.220 7        44.000                    95065624.58048
        30.000    23215988.52748
 15  8 23  0 10  0.0000000  0  9G05G07G28G02G20G06G09G30G13
  21084438.516 9 110799506.959 9        51.600    21084442.848 9  86337305.21249
        44.700    21084442.21949
  20771209.188 9 109153480.372 9        51.200    20771213.551 9  85054681.46349
        45.100    20771213.22749
  24018940.250 7 126220392.168 7        41.400                    98353576.05746
        21.800    24018942.98446
  22866939.578 7 120166606.559 7        43.900                    93636333.46348
        32.400    22866940.89848
  24725153.852 5 129931553.196 5        37.700                   101245381.72545
        19.600    24725157.65645
  24732476.742 5 129970045.592 5        36.900    24732485.906 6 101275407.20446
        20.100    24732484.66446  24732483.523 1  97055597.743 1        29.700
  22749642.477 8 119550261.522 8        47.000    22749648.777 8  93156095.67049
        35.100    22749648.06349  22749646.219 5  89274604.275 5        35.800
  20365575.523 9 107021849.590 9        55.200    20365582.766 9  83393686.13749
        48.500    20365581.82449  20365579.215 7  79918944.007 7        43.100
  23199379.984 7 121913586.100 7        44.500                    94997627.35447
        29.800    23199383.65647
 15  8 23  0 10 30.0000000  0  9G05G07G28G02G20G06G09G30G13
  21075627.602 9 110753206.005 9        51.100    21075632.133 9  86301226.54049
        44.600    21075631.55549
  20778868.656 9 109193730.005 9        50.000    20778872.762 9  85086044.81849
        44.800    20778872.25449
  24000216.461 7 126121998.176 7        41.400                    98276905.42146
        23.200    24000220.71546
  22880675.539 7 120238790.552 7        43.500                    93692580.70448
        32.500    22880676.80548
  24704881.867 5 129825026.062 5        35.600                   101162373.55745
        18.600    24704885.27045
  24752759.828 5 130076631.372 5        37.100    24752768.574 6 101358461.01046
        22.500    24752767.95346  24752765.992 1  97135190.964 1        29.800
  22765017.609 8 119631057.931 8        46.600    22765024.383 8  93219053.88849
        35.400    22765023.61349  22765021.770 5  89334939.224 5        35.600
  20360861.828 9 106997078.588 9        55.100    20360868.891 9  83374384.06449
        48.800    20360868.16849  20360865.438 7  79900446.183 7        43.000
  23182798.273 7 121826448.741 7        44.300                    94929728.15948
        30.400    23182802.62148
 15  8 23  0 11  0.0000000  0  9G05G07G28G02G20G06G09G30G13
  21066906.250 9 110707376.115 9        50.900    21066910.434 9  86265514.93949
        45.200    21066909.74249
  20786609.672 9 109234409.791 9        51.200    20786613.629 9  85117743.34849
        45.300    20786613.17249
  23981510.086 7 126023693.349 7        42.400                    98200304.31247
        25.300    23981514.60547
  22894476.063 7 120311311.285 7        43.500                    93749090.35448
        31.900    22894476.83248
  24684632.797 5 129718618.160 5        35.000                   101079458.34045
        17.400    24684636.73845
  24773039.133 5 130183200.559 5        37.100    24773048.523 6 101441501.95246
        22.000    24773047.68046  24773045.836 1  97214771.839 1        28.000
  22780422.680 8 119712014.374 8        46.300    22780429.605 8  93282136.79449
        34.800    22780429.00449  22780427.160 5  89395393.685 5        35.700
  20356247.211 9 106972829.470 9        55.400    20356254.258 9  83355488.64849
        48.400    20356253.40249  20356250.734 7  79882338.083 7        43.300
  23166240.836 7 121739438.134 7        44.700                    94861927.70048
        30.000    23166244.60948
 15  8 23  0 11 30.0000000  0  9G05G07G28G02G20G06G09G30G13
  21058274.961 9 110662018.943 9        50.200    21058280.125 9  86230171.68349
        44.800    21058279.28549
  20794432.375 9 109275517.567 9        50.700    20794436.359 9  85149775.37849
        44.600    20794435.83249
  23962819.680 7 125925480.382 7        41.600                    98123774.73346
        22.900    23962824.16046
  22908338.695 7 120384165.559 7        42.900                    93805859.87548
        31.800    22908341.12948
  24664408.273 6 129612331.657 6        38.500                   100996637.69245
        19.000    24664411.67245
  24793315.570 5 130289750.235 5        37.100    24793323.922 6 101524527.63946
        20.900    24793323.12146  24793321.160 1  97294338.135 1        29.300
  22795858.797 8 119793129.871 8        46.400    22795864.906 8  93345343.65749
        34.400    22795864.65649  22795862.809 5  89455966.914 5        36.200
  20351732.195 9 106949102.028 9        54.500    20351739.227 9  83336999.74049
        48.500    20351738.42249  20351735.926 7  79864619.545 7        42.800
  23149707.438 7 121652554.697 7        43.900                    94794226.34847
        28.600    23149710.59447
 15  8 23  0 12  0.0000000  0  9G05G07G28G02G20G06G09G30G13
  21049734.570 9 110617136.600 9        51.800    21049738.793 9  86195198.43349
        45.000    21049738.08649
  20802335.922 9 109317052.496 9        51.500    20802340.367 9  85182140.26249
        45.000    20802339.64149
  23944148.258 7 125827362.311 7        41.000                    98047319.09246
        21.700    23944152.25846
  22922266.148 7 120457350.515 7        43.100                    93862887.10048
        31.300    22922267.32848
  24644205.703 5 129506168.862 5        36.100                   100913913.41345
        19.000    24644208.83245
  24813586.891 5 130396277.662 5        37.300    24813595.422 6 101607536.02446
        21.700    24813594.15646  24813592.840 1  97373887.811 1        29.900
  22811324.984 8 119874404.005 8        45.600    22811330.934 8  93408674.12849
        34.800    22811330.41449  22811328.805 5  89516658.606 5        36.400
  20347316.406 9 106925896.690 9        55.500    20347323.340 9  83318917.66349
        48.500    20347322.55149  20347319.820 7  79847290.894 7        43.300
  23133198.234 7 121565799.965 7        44.900                    94726625.27348
        30.200    23133201.40648
 15  8 23  0 12 30.0000000  0  9G05G07G28G02G20G06G09G30G13
  21041284.297 9 110572730.509 9        51.900    21041288.852 9  86160596.28049
        44.600    21041288.05149
  20810320.875 9 109359012.560 9        51.900    20810325.195 9  85214836.41449
        45.100    20810324.49649
  23925496.141 7 125729342.061 7        42.400                    97970939.71047
        26.100    23925500.99247
  22936254.641 7 120530863.539 7        43.600                    93920169.94948
        32.300    22936256.95748
  24624027.648 5 129400131.920 5        35.700                   100831287.25745
        19.600    24624031.06645
  24833854.031 6 130502780.003 6        38.100    24833862.086 6 101690524.85146
        22.500    24833860.91446  24833859.305 1  97453418.726 1        30.000
  22826820.836 8 119955836.003 8        46.000    22826827.063 8  93472127.60549
        34.900    22826826.60549  22826824.230 5  89577468.189 5        35.500
  20342999.883 9 106903213.187 9        55.900    20343007.141 9  83301242.21149
        48.400    20343006.24649  20343003.516 7  79830351.916 7        43.400
  23116713.641 8 121479174.031 8        45.100                    94659124.58647
        29.600    23116718.60947
 15  8 23  0 13  0.0000000  0  9G05G07G28G02G20G06G09G30G13
  21032924.977 9 110528802.541 9        51.900    21032929.656 9  86126366.69049
        45.000    21032929.02049
  20818386.117 9 109401395.894 9        51.100    20818390.355 9  85247862.39149
        44.900    20818389.94549
  23906862.891 7 125631422.295 7        41.900                    97894638.63847
        25.400    23906867.42647
  22950305.992 7 120604701.432 7        43.700                    93977705.95048
        32.300    22950308.46548
  24603873.078 4 129294223.031 4        34.700                   100748760.89645
        19.300    24603877.82845
  24854114.211 5 130609254.305 5        35.500    24854124.129 7 101773491.81346
        22.000    24854123.25046  24854121.000 1  97532928.772 1        29.600
  22842346.727 8 120037425.041 8        45.200    22842353.582 8  93535703.44949
        34.700    22842353.25049  22842350.645 5  89638395.026 5        35.000
  20338782.398 9 106881051.400 9        55.200    20338789.547 9  83283973.29549
        48.500    20338788.72349  20338786.055 7  79813802.535 7        43.000
  23100254.250 8 121392677.294 8        47.000                    94591724.55648
        30.900    23100258.46548
 15  8 23  0 13 30.0000000  0  9G05G07G28G02G20G06G09G30G13
  21024657.055 9 110485354.853 9        51.900    21024661.309 9  86092511.35549
        45.200    21024661.03549
  20826531.578 9 109444201.048 9        50.500    20826535.594 9  85281217.06149
        45.200    20826535.16849
  23888248.453 7 125533605.981 7        41.300                    97818418.17346
        24.400    23888253.42246
  22964418.500 7 120678861.738 7        43.200                    94035493.16548
        32.700    22964420.17248
  24583744.086 5 129188444.530 5        35.400                   100666336.18445
        18.300    24583748.19145
  24874370.633 6 130715697.945 6        38.300    24874379.141 6 101856434.84946
        22.000    24874378.15646  24874376.078 1  97612415.859 1        29.000
  22857902.203 8 120119170.647 8        46.300    22857908.852 8  93599401.30749
        34.700    22857908.51249  22857906.664 5  89699438.804 5        35.800
  20334664.688 9 106859411.659 9        55.800    20334671.414 9  83267111.17049
        48.700    20334670.85549  20334668.188 7  79797642.995 7        42.500
  23083818.992 8 121306311.118 8        46.600                    94524426.25248
        30.400    23083822.80148
 15  8 23  0 14  0.0000000  0  9G05G07G28G02G20G06G09G30G13
  21016481.031 9 110442389.040 9        51.900    21016485.590 9  86059031.49449
        45.000    21016484.93449
  20834756.914 9 109487426.156 9        50.500    20834761.121 9  85314898.96249
        44.700    20834760.56649
  23869655.445 7 125435896.102 7        42.200                    97742280.61046
        22.300    23869658.89146
  22978591.500 7 120753341.434 7        42.600                    94093529.26948
        32.100    22978593.84848
  24563641.227 6 129082798.786 6        39.400                   100584014.68545
        19.600    24563643.01645
  24894620.023 6 130822108.158 6        38.200    24894627.586 6 101939351.87946
        22.600    24894627.25046  24894625.523 2  97691877.998 2        31.000
  22873487.883 8 120201072.096 8        46.200    22873494.184 8  93663220.59249
        34.400    22873493.32049  22873491.883 5  89760598.945 5        35.900
  20330646.234 9 106838293.818 9        54.600    20330653.313 9  83250655.71349
        48.700    20330652.30949  20330649.754 7  79781873.194 7        43.200
  23067408.695 8 121220075.959 8        46.000                    94457230.04748
        30.200    23067413.09848
 15  8 23  0 14 30.0000000  0  9G05G07G28G02G20G06G09G30G13
  21008396.758 9 110399906.169 9        51.700    21008400.980 9  86025927.96349
        44.800    21008400.55949
  20843061.828 9 109531069.369 9        50.700    20843066.352 9  85348906.66449
        44.500    20843065.74649
  23851082.523 7 125338295.105 7        41.600                    97666227.88446
        23.000    23851086.29346
  22992824.336 7 120828137.525 7        42.800                    94151811.91348
        31.600    22992825.87948
  24543562.781 5 128977287.982 5        36.600                   100501798.50745
        19.600    24543565.78545
  24914861.555 5 130928482.056 5        36.000    24914871.023 7 102022240.64146
        21.800    24914870.04346  24914867.906 1  97771313.000 1        30.200
  22889102.352 8 120283128.623 8        46.300    22889109.000 8  93727160.73049
        34.200    22889108.67249  22889106.648 5  89821874.899 5        35.800
  20326726.688 9 106817697.728 9        55.200    20326734.023 9  83234606.82349
        48.600    20326733.02749  20326730.828 7  79766493.006 7        43.000
  23051024.172 8 121133972.612 8        46.800                    94390136.55448
        31.500    23051028.25448
 15  8 23  0 15  0.0000000  0  9G05G07G28G02G20G06G09G30G13
  21000405.250 9 110357908.506 9        52.300    21000409.660 9  85993202.51149
        44.500    21000409.04349
  20851446.406 9 109575129.410 9        52.300    20851450.762 9  85383239.15849
        45.000    20851450.06649
  23832531.211 7 125240806.382 7        42.300                    97590262.70147
        25.800    23832535.92647
  23007117.648 7 120903247.362 7        42.500                    94210339.02948
        31.800    23007120.09048
  24523510.328 5 128871914.457 5        35.700                   100419689.40645
        19.600    24523515.49245
  24935096.938 5 131034816.961 5        36.600    24935106.086 7 102105098.98346
        22.800    24935104.66846  24935102.824 1  97850718.945 1        28.500
  22904746.836 8 120365339.658 8        45.500    22904753.613 8  93791221.25749
        34.200    22904753.39549  22904750.727 4  89883266.233 4        34.700
  20322906.750 9 106797623.481 9        55.600    20322914.008 9  83218964.55449
        48.700    20322913.15249  20322910.602 7  79751502.500 7        42.300
  23034664.352 8 121048001.835 8        47.000                    94323146.36148
        30.600    23034668.17648
 15  8 23  0 15 30.0000000  0  9G05G07G28G02G20G06G09G30G13
  20992505.688 9 110316397.996 9        51.000    20992510.234 9  85960856.65149
        45.300    20992509.32449
  20859909.563 9 109619604.360 9        49.800    20859913.965 9  85417894.96149
        44.100    20859913.14549
  23814001.969 7 125143432.495 7        41.400                    97514386.97346
        24.200    23814005.60546
  23021468.906 7 120978667.844 7        42.500                    94269108.22448
        31.300    23021471.59048
  24503486.195 6 128766680.716 6        40.400                   100337689.12246
        20.400    24503488.77346
  24955323.594 5 131141110.014 5        36.800    24955332.832 7 102187924.73546
        23.500    24955331.96546  24955329.652 1  97930093.693 1        29.700
  22920420.531 7 120447704.569 7        44.700    22920427.012 8  93855401.66648
        33.700    22920426.48448  22920424.227 5  89944772.475 5        35.400
  20319185.836 9 106778070.980 9        54.200    20319192.996 9  83203728.84749
        48.500    20319192.16449  20319189.555 7  79736901.615 7        42.900
  23018329.875 8 120962164.382 8        46.600                    94256260.04148
        30.000    23018333.48848
 15  8 23  0 16  0.0000000  0  9G05G07G28G02G20G06G09G30G13
  20984699.578 9 110275376.267 9        51.900    20984704.117 9  85928891.67049
        44.700    20984703.58249
  20868451.836 9 109664492.536 9        51.400    20868456.082 9  85452872.76749
        45.100    20868455.64549
  23795494.305 6 125046176.429 6        40.600                    97438603.00846
        22.000    23795497.67646
  23035880.563 7 121054396.138 7        43.900                    94328117.26048
        31.800    23035882.10548
  24483488.523 6 128661588.873 6        39.800                   100255799.20145
        19.300    24483489.24645
  24975541.859 5 131247358.554 5        36.600    24975550.086 5 102270715.76845
        19.900    24975549.35945  24975548.395 2  98009435.064 2        31.200
  22936123.461 8 120530222.601 8        45.200    22936129.367 8  93919701.40448
        33.700    22936129.10248  22936127.254 5  90006393.054 5        35.400
  20315564.617 9 106759040.095 9        55.900    20315571.547 9  83188899.59049
        48.700    20315570.52749  20315568.094 7  79722690.247 7        43.200
  23002021.164 8 120876460.919 8        47.200                    94189478.14248
        30.700    23002024.76248
 15  8 23  0 16 30.0000000  0  9G05G07G28G02G20G06G09G30G13
  20976986.703 9 110234844.433 9        52.500    20976990.605 9  85897308.41949
        45.000    20976990.00049
  20877071.852 9 109709792.807 9        51.000    20877076.172 9  85488171.67749
        45.100    20877076.01249
  23777009.531 6 124949040.977 6        40.500                    97362913.09446
        24.700    23777014.12146
  23050348.805 7 121130429.664 7        44.400                    94387364.13948
        31.200    23050351.34048
  24463515.758 4 128556641.042 4        34.600                   100174021.76345
        17.800    24463519.04345
  24995752.188 5 131353559.76715        37.400    24995760.875 6 102353469.96456
        23.500    24995759.61346  24995758.766 2  98088741.10112        31.500
  22951854.828 7 120612893.246 7        43.700    22951861.270 7  93984120.06548
        33.600    22951860.29748  22951858.922 5  90068127.587 5        35.500
  20312042.445 9 106740530.822 9        55.900    20312049.113 9  83174476.79149
        48.700    20312048.65249  20312045.863 7  79708868.398 7        43.200
  22985738.406 9 120790892.609 9        48.300                    94122801.57448
        30.900    22985741.99248
 15  8 23  0 17  0.0000000  0  9G05G07G28G02G20G06G09G30G13
  20969367.344 9 110194804.401 9        52.300    20969371.766 9  85866108.39149
        45.000    20969371.25449
  20885770.273 9 109755502.340 9        50.800    20885774.578 9  85523789.49849
        44.600    20885774.08649
  23758549.102 7 124852028.961 7        41.100                    97287319.34847
        25.900    23758553.03547
  23064874.320 7 121206765.169 7        44.100                    94446846.31448
        31.300    23064877.40248
  24443574.797 6 128451839.932 6        39.300                   100092358.64146
        24.300    24443577.90246
  25015953.125 6 131459710.733 6        39.200    25015961.051 7 102436185.03147
        25.800    25015959.89547  25015957.113 1  98168009.733 1        27.900
  22967615.773 7 120695715.584 7        43.600    22967621.918 8  94048656.93148
        33.800    22967621.53148  22967619.391 5  90129975.401 5        35.600
  20308619.578 9 106722542.816 9        54.900    20308626.332 9  83160460.17049
        48.800    20308625.49249  20308623.230 7  79695435.797 7        43.300
  22969480.453 8 120705459.462 8        47.000                    94056230.31248
        30.900    22969484.87148
 15  8 23  0 17 30.0000000  0  9G05G07G28G02G20G06G09G30G13
  20961841.969 9 110155258.358 9        52.000    20961846.258 9  85835293.30349
        45.000    20961845.84849
  20894546.156 9 109801620.130 9        50.100    20894550.703 9  85559725.43349
        44.900    20894550.03949
  23740112.031 6 124755143.075 6        39.600                    97211823.86346
        24.800    23740115.78946
  23079457.719 7 121283399.793 7        43.000                    94506561.56148
        31.400    23079460.41448
  24423658.695 6 128347187.761 6        38.700                   100010811.49546
        21.100    24423663.03146
  25036140.609 3 131565809.123 3        33.800    25036150.293 6 102518859.04846
        20.400    25036149.40646  25036145.629 1  98247239.134 1        26.700
  22983405.047 7 120778689.294 7        44.400    22983412.027 8  94113311.74548
        33.700    22983411.59448  22983408.809 4  90191936.267 4        34.300
  20305295.539 9 106705076.220 9        54.300    20305302.445 9  83146849.83649
        48.800    20305301.76249  20305299.152 7  79682392.571 7        43.200
  22953249.773 8 120620162.904 8        47.900                    93989765.47948
        31.100    22953253.12948
 15  8 23  0 18  0.0000000  0  9G05G07G28G02G20G06G09G30G13
  20954410.656 9 110116208.124 9        52.100    20954415.422 9  85804864.54549
        44.900    20954414.91849
  20903399.445 9 109848144.423 9        50.700    20903403.758 9  85595978.12449
        44.500    20903403.03549
  23721700.250 6 124658386.744 6        39.600                    97136429.33146
        24.400    23721703.34446
  23094097.398 7 121360330.655 7        43.100                    94566507.66648
        30.600    23094100.23848
  24403771.805 5 128242686.694 5        35.500                    99929382.08245
        17.400    24403775.57845
  25056320.617 5 131671852.33215        35.400    25056327.668 5 102601490.08855
        17.400    25056327.91045  25056326.770 1  98326427.15611        30.600
  22999223.203 7 120861813.832 7        44.100    22999229.414 8  94178084.09148
        33.500    22999229.20348  22999226.828 4  90254009.766 4        34.800
  20302071.023 9 106688131.105 9        54.500    20302077.938 9  83133645.85849
        48.500    20302076.86349  20302074.484 7  79669738.755 7        43.300
  22937044.242 8 120535003.604 8        47.900                    93923407.59548
        31.800    22937047.45348
 15  8 23  0 18 30.0000000  0  9G05G07G28G02G20G06G09G30G13
  20947074.297 9 110077654.756 9        52.300    20947078.773 9  85774822.96549
        45.600    20947078.20749
  20912329.758 9 109895073.546 9        51.000    20912333.883 9  85632546.27449
        44.900    20912333.25849
  23703313.063 7 124561762.410 7        41.800                    97061137.67446
        24.900    23703317.13346
  23108793.250 7 121437554.953 7        42.200                    94626682.43548
        30.100    23108794.55548
  24383915.930 5 128138339.126 5        35.500                    99848072.25845
        19.000    24383919.14845
  25076489.469 6 131777837.266 6        38.600    25076497.203 6 102684075.84446
        24.700    25076496.46546  25076495.207 1  98405571.698 1        30.400
  23015069.547 7 120945088.303 7        44.100    23015075.859 8  94242973.27748
        33.500    23015075.32448  23015074.008 5  90316195.221 5        35.700
  20298945.570 9 106671706.953 9        54.600    20298952.832 9  83120847.82049
        48.700    20298952.03949  20298949.309 7  79657473.967 7        42.900
  22920864.875 8 120449982.131 8        47.400                    93857157.10448
        31.600    22920869.07448
 15  8 23  0 19  0.0000000  0  9G05G07G28G02G20G06G09G30G13
  20939832.828 9 110039599.778 9        52.800    20939837.367 9  85745169.73249
        44.900    20939836.81349
  20921336.766 9 109942405.422 9        51.200    20921341.145 9  85669428.25649
        44.600    20921340.59049
  23684951.703 6 124465272.852 6        40.500                    96985951.03747
        26.300    23684955.92647
  23123543.773 7 121515069.257 7        41.600                    94687083.15748
        30.200    23123545.57048
  24364089.375 6 128034147.597 6        39.300                    99766884.09046
        23.200    24364093.13746
  25096645.211 4 131883761.18814        34.200    25096654.703 7 102766613.92856
        22.200    25096653.84446  25096651.707 1  98484670.69111        26.800
  23030943.844 7 121028511.970 7        43.200    23030950.871 7  94307978.70648
        33.300    23030950.39848  23030948.902 4  90378492.084 4        34.700
  20295919.422 9 106655803.503 9        54.300    20295926.355 9  83108455.53149
        48.700    20295925.44149  20295922.949 7  79645598.024 7        42.800
  22904712.305 9 120365099.237 9        48.200                    93791014.62348
        31.800    22904716.18848
 15  8 23  0 19 30.0000000  0  9G05G07G28G02G20G06G09G30G13
  20932686.461 9 110002045.615 9        53.100    20932690.777 9  85715906.74849
        45.100    20932690.16049
  20930420.023 9 109990138.655 9        50.200    20930424.406 9  85706623.00149
        44.600    20930423.78149
  23666615.984 6 124368921.254 6        40.500                    96910871.89646
        24.500    23666620.27346
  23138348.703 7 121592871.370 7        41.100                    94747708.16147
        29.500    23138350.60947
  24344292.242 6 127930114.510 6        38.500                    99685819.38945
        19.300    24344295.80145
  25116790.086 3 131989621.70513        33.600    25116798.980 6 102849102.37556
        20.400    25116798.21546  25116794.672 1  98563722.48311        24.500
  23046848.531 7 121112084.326 7        44.600    23046854.441 7  94373100.00448
        32.300    23046853.98448  23046852.195 4  90440899.989 4        34.900
  20292991.992 9 106640420.771 9        54.400    20292999.078 9  83096468.99049
        48.700    20292998.29349  20292995.504 7  79634110.926 7        43.400
  22888586.180 8 120280355.871 8        47.500                    93724980.86248
        31.900    22888589.68048
 15  8 23  0 20  0.0000000  0  9G05G07G28G02G20G06G09G30G13
  20925635.367 9 109964993.063 9        53.400    20925640.098 9  85687034.63149
        45.600    20925639.48449
  20939579.258 9 110038271.142 9        49.500    20939583.504 9  85744128.83149
        44.200    20939583.26249
  23648309.039 7 124272710.350 7        42.900                    96835902.35747
        25.800    23648312.03547
  23153208.188 7 121670958.009 7        42.300                    94808554.85648
        30.300    23153209.39148
  24324525.445 5 127826241.730 5        36.200                    99604879.55645
        17.400    24324528.59845
  25136923.328 6 132095415.565 6        39.700    25136928.465 3 102931539.32645
        16.900    25136928.96945  25136928.887 1  98642724.277 1        30.800
  23062779.063 7 121195804.534 7        44.500    23062785.773 8  94438336.51948
        33.900    23062785.55548  23062783.414 3  90503418.315 3        33.500
  20290163.617 9 106625558.282 9        53.000    20290171.027 9  83084887.83649
        49.000    20290169.99649  20290167.441 7  79623012.323 7        43.200
  22872486.570 9 120195752.484 9        48.000                    93659056.14948
        31.900    22872490.23448
 15  8 23  0 20 30.0000000  0  9G05G07G28G02G20G06G09G30G13
  20918680.648 9 109928443.725 9        53.800    20918685.027 9  85658554.63049
        45.600    20918684.53949
  20948814.414 9 110086801.193 9        50.000    20948818.457 9  85781944.45649
        44.300    20948818.12949
  23630027.445 7 124176642.688 7        42.600                    96761044.46647
        26.300    23630031.43447
  23168121.664 7 121749326.169 7        41.800                    94869620.94148
        31.200    23168123.34848
  24304792.148 6 127722532.099 6        40.000                    99524066.85646
        22.500    24304794.10946
  25157040.992 4 132201140.491 4        34.800    25157050.250 6 103013922.46046
        21.500    25157048.67246  25157047.063 2  98721674.683 2        31.600
  23078738.594 7 121279672.043 7        44.700    23078745.191 7  94503687.79248
        33.100    23078744.37948  23078742.238 3  90566046.625 3        33.400
  20287434.508 9 106611215.913 9        53.400    20287441.703 9  83073711.97049
        49.000    20287440.87149  20287438.262 7  79612302.118 7        42.900
  22856413.727 8 120111290.217 8        47.800                    93593241.41548
        32.000    22856417.84048
 15  8 23  0 21  0.0000000  0  9G05G07G28G02G20G06G09G30G13
  20911821.461 9 109892399.959 9        52.900    20911826.055 9  85630468.58249
        45.700    20911825.33649
  20958124.719 9 110135727.404 9        49.600    20958129.109 9  85820068.77549
        44.600    20958128.46949
  23611773.914 7 124080721.589 7        42.700                    96686300.78447
        25.900    23611777.97347
  23183086.742 7 121827972.912 7        41.600                    94930904.06648
        30.200    23183089.07848
  24285087.141 6 127618988.008 6        38.900                    99443383.10746
        21.800    24285090.80146
  25177146.047 5 132306788.00315        35.700    25177155.555 7 103096241.63256
        22.600    25177155.84446
  23094726.344 8 121363686.376 8        46.100    23094732.844 7  94569153.47648
        32.600    23094732.43048  23094730.879 4  90628784.579 4        34.800
  20284804.313 9 106597393.562 9        53.000    20284811.043 9  83062941.31649
        48.800    20284810.36349  20284807.633 7  79601980.239 7        43.700
  22840368.398 9 120026969.832 9        48.900                    93527537.24948
        32.500    22840372.36348
 15  8 23  0 21 30.0000000  0  9G05G07G28G02G20G06G09G30G13
  20905059.266 9 109856862.790 9        53.500    20905063.852 9  85602777.28649
        46.000    20905063.21549
  20967509.922 9 110185047.573 9        49.800    20967514.313 9  85858500.08049
        43.800    20967513.78149
  23593549.148 7 123984949.492 7        42.900                    96611673.18946
        24.600    23593551.97346
  23198105.367 7 121906895.209 7        41.600                    94992401.94847
        28.300    23198107.55947
  24265414.258 5 127515611.457 5        36.700                    99362830.02246
        22.000    24265418.98446
  25197238.352 6 132412366.792 6        40.100    25197246.090 6 103178510.78446
        24.000    25197245.48846  25197240.949 1  98879390.08511        22.800
  23110741.523 8 121447846.561 8        45.400    23110747.973 7  94634732.84648
        32.900    23110747.29748  23110745.625 5  90691631.436 5        35.200
  20282272.547 9 106584090.675 9        53.700    20282279.508 9  83052575.43549
        48.800    20282278.60249  20282275.988 7  79592046.272 7        43.500
  22824350.406 9 119942791.966 9        48.200                    93461944.10948
        32.200    22824353.76248
 15  8 23  0 22  0.0000000  0  8G05G07G28G02G20G09G30G13
  20898393.375 9 109821833.771 9        52.700    20898397.902 9  85575481.94649
        45.400    20898397.45349
  20976970.008 9 110234760.459 9        49.700    20976974.391 9  85897237.38749
        44.400    20976973.71549
  23575353.828 7 123889329.624 7        41.700                    96537164.19346
        24.100    23575356.84046
  23213174.875 6 121986090.382 6        39.500                    95054112.43147
        27.900    23213177.44947
  24245776.492 6 127412405.171 6        39.400                    99282409.55546
        21.500    24245778.93446
  23126783.992 7 121532152.375 7        44.400    23126790.625 7  94700425.66548
        33.000    23126790.42248  23126788.398 4  90754587.048 4        34.900
  20279839.984 9 106571307.315 9        53.200    20279847.355 9  83042614.37649
        48.600    20279846.49249  20279843.938 7  79582500.263 7        43.000
  22808358.516 8 119858757.498 8        47.900                    93396462.73848
        32.700    22808362.52348
 15  8 23  0 22 30.0000000  0  8G05G07G28G02G20G09G30G13
  20891824.844 9 109787314.866 9        53.200    20891829.078 9  85548584.09649
        45.800    20891828.53549
  20986504.516 9 110284863.840 9        50.300    20986508.469 9  85936278.98549
        44.300    20986507.77349
  23557186.648 7 123793864.857 7        41.800                    96462776.10447
        25.500    23557191.43847
  23228297.406 7 122065555.584 7        42.200                    95116033.35847
        28.400    23228299.55547
  24226168.703 6 127309371.260 6        38.600                    99202123.34045
        19.900    24226171.54745
  23142854.844 7 121616603.176 7        43.900    23142861.031 8  94766231.45248
        32.500    23142860.62948  23142858.195 3  90817650.936 3        33.800
  20277506.328 9 106559043.218 9        53.200    20277513.395 9  83033057.94349
        48.800    20277512.54349  20277509.695 7  79573342.012 7        43.000
  22792394.867 8 119774867.268 8        47.900                    93331093.74548
        32.300    22792398.35248
 15  8 23  0 23  0.0000000  0  8G05G07G28G02G20G09G30G13
  20885353.086 9 109753306.972 9        52.700    20885357.691 9  85522084.44049
        45.800    20885357.16049
  20996112.922 9 110335355.885 9        49.500    20996116.906 9  85975623.43249
        43.600    20996116.69149
  23539050.586 7 123698557.756 7        41.400                    96388510.85347
        25.300    23539054.39547
  23243470.828 7 122145287.223 7        42.800                    95178161.88947
        29.100    23243471.91447
  24206594.922 6 127206512.262 6        38.900                    99121973.47846
        21.300    24206598.64546
  23158951.898 7 121701197.779 7        42.300    23158959.336 7  94832149.30148
        32.600    23158958.62548  23158956.250 4  90880822.227 4        34.100
  20275271.109 9 106547297.581 9        53.900    20275278.301 9  83023905.50749
        48.800    20275277.37149  20275274.992 7  79564570.927 7        43.200
  22776458.336 9 119691121.722 9        48.000                    93265837.49348
        32.800    22776461.98048
 15  8 23  0 23 30.0000000  0  8G05G07G28G02G20G09G30G13
  20878978.938 9 109719811.678 9        52.300    20878983.863 9  85495984.20349
        46.500    20878983.23849
  21005794.805 9 110386234.912 9        49.600    21005798.891 9  86015269.42749
        44.200    21005798.53549
  23520944.813 6 123603411.168 6        39.800                    96314370.66947
        25.400    23520949.06347
  23258692.664 7 122225282.728 7        41.400                    95240496.01147
        28.300    23258694.11747
  24187055.633 5 127103830.617 5        37.500                    99041961.87746
        22.300    24187060.20746
  23175077.906 7 121785935.831 7        43.200    23175083.711 7  94898178.94448
        32.100    23175082.80148  23175081.660 4  90944100.624 4        34.300
  20273134.531 9 106536070.252 9        53.400    20273141.520 9  83015156.94849
        48.900    20273140.78149  20273137.992 7  79556186.892 7        43.000
  22760549.961 9 119607522.021 9        48.300                    93200694.88048
        32.900    22760553.53148
 15  8 23  0 24  0.0000000  0  8G05G07G28G02G20G09G30G13
  20872702.867 9 109686830.777 9        52.500    20872707.785 9  85470284.80549
        45.700    20872707.18049
  21015550.070 9 110437499.221 9        51.900    21015554.703 9  86055215.63949
        43.700    21015554.13749
  23502870.500 6 123508428.266 6        40.800                    96240358.02847
        27.000    23502874.14147
  23273964.789 7 122305538.897 7        41.600                    95303033.26047
        28.000    23273967.69147
  24167550.633 6 127001328.692 6        38.400                    98962090.25446
        22.300    24167553.99246
  23191229.945 7 121870816.678 7        43.400    23191236.563 7  94964319.86548
        32.400    23191235.52048  23191234.379 4  91007485.646 4        34.600
  20271096.711 9 106525360.959 9        54.900    20271104.168 9  83006812.05149
        48.500    20271103.19949  20271100.883 7  79548189.700 7        42.800
  22744669.359 9 119524068.693 9        48.200                    93135666.33148
        33.200    22744672.67648
 15  8 23  0 24 30.0000000  0  8G05G07G28G02G20G09G30G13
  20866525.313 9 109654365.698 9        53.000    20866529.930 9  85444987.33949
        45.600    20866529.24249
  21025378.188 9 110489146.976 9        49.500    21025382.406 9  86095460.63849
        44.200    21025381.93049
  23484827.906 7 123413611.606 7        41.700                    96166474.95547
        26.800    23484831.14547
  23289286.828 7 122386052.880 7        41.700                    95365771.41547
        29.000    23289287.69947
  24148080.086 6 126899008.809 6        40.000                    98882360.48546
        21.300    24148082.28546
  23207409.500 7 121955839.811 7        42.100    23207415.672 7  95030571.63748
        31.500    23207414.96148  23207412.996 3  91070976.926 3        33.800
  20269157.352 9 106515169.350 9        52.500    20269164.543 9  82998870.53849
        48.700    20269163.73849  20269161.008 7  79540579.090 7        43.400
  22728816.734 9 119440762.623 9        48.500                    93070752.52948
        33.000    22728820.12148
 15  8 23  0 25  0.0000000  0  8G05G07G28G02G20G09G30G13
  20860445.883 9 109622418.001 9        52.800    20860450.125 9  85420093.02849
        45.900    20860449.35949
  21035279.102 9 110541176.587 9        49.900    21035283.434 9  86136003.20149
        43.600    21035282.85249
  23466816.188 6 123318964.034 6        40.800                    96092723.61047
        25.700    23466819.16047
  23304656.047 7 122466821.870 7        42.600                    95428708.24547
        28.400    23304658.79347
  24128642.063 5 126796873.281 5        36.900                    98802774.35546
        21.500    24128646.96946
  23223615.602 7 122041004.539 7        42.300    23223622.543 8  95096933.73348
        33.300    23223622.00848  23223618.988 3  91134573.948 3        33.600
  20267316.305 9 106505495.087 9        54.100    20267323.598 9  82991332.15849
        48.900    20267322.75449  20267320.023 7  79533354.801 7        43.400
  22712992.352 9 119357604.877 9        48.600                    93005954.30148
        33.100    22712995.27748
 15  8 23  0 25 30.0000000  0  8G05G07G28G02G20G09G30G13
  20854465.367 9 109590989.401 9        52.500    20854469.777 9  85395603.21349
        45.900    20854468.83649
  21045252.258 9 110593585.707 9        49.900    21045256.742 9  86176841.46649
        44.100    21045256.29349
  23448837.836 6 123224488.930 6        40.400                    96019106.63446
        24.500    23448841.51246
  23320074.016 7 122547842.788 7        42.900                    95491841.41247
        29.100    23320076.32047
  24109243.305 6 126694924.846 6        39.200                    98723334.06147
        25.100    24109247.25447
  23239848.813 7 122126310.325 7        42.600    23239855.383 7  95163405.76848
        31.800    23239855.22348  23239852.848 3  91198276.321 3        33.300
  20265573.930 9 106496337.827 9        53.800    20265580.688 9  82984196.64249
        48.700    20265579.94949  20265577.512 7  79526516.599 7        43.800
  22697196.195 9 119274595.897 9        48.500                    92941271.99148
        32.800    22697199.75848
 15  8 23  0 26  0.0000000  0  8G05G07G28G02G20G09G30G13
  20848583.320 9 109560080.940 9        52.800    20848587.750 9  85371518.69249
        46.200    20848587.03949
  21055297.703 9 110646372.936 9        51.000    21055302.055 9  86217974.37649
        43.700    21055301.49249
  23430893.797 6 123130188.544 6        40.700                    95945625.83647
        26.600    23430897.16047
  23335538.742 7 122629112.502 7        41.700                    95555168.40047
        27.100    23335541.22747
  24089879.148 6 126593165.835 6        38.900                    98644041.34546
        22.300    24089883.30546
  23256108.750 7 122211756.202 7        42.400    23256115.406 7  95229986.95848
        32.200    23256114.82848  23256113.277 4  91262083.276 4        34.500
  20263929.625 9 106487696.859 9        54.600    20263936.141 9  82977463.42349
        49.000    20263935.45749  20263932.668 7  79520063.935 7        43.000
  22681428.781 9 119191736.688 9        48.100                    92876706.39548
        32.700    22681432.25848
 15  8 23  0 26 30.0000000  0  8G05G07G28G02G20G09G30G13
  20842801.078 9 109529693.751 9        52.600    20842805.445 9  85347840.36249
        45.900    20842804.85949
  21065414.141 9 110699536.148 9        49.800    21065418.129 9  86259400.25749
        43.800    21065417.96949
  23412982.750 6 123036065.847 6        40.500                    95872283.51447
        26.500    23412986.91047
  23351050.633 7 122710627.833 7        42.900                    95618686.79547
        29.600    23351053.16447
  24070552.313 7 126491598.515 7        41.100                    98564898.05446
        21.700    24070555.05546
  23272394.969 7 122297341.675 7        42.600    23272401.410 7  95296676.91148
        31.800    23272401.07448  23272399.520 4  91325994.468 4        34.200
  20262383.367 9 106479571.794 9        53.600    20262389.918 9  82971132.21049
        48.800    20262389.23449  20262386.445 7  79513996.519 7        43.000
  22665689.219 9 119109028.049 9        48.100                    92812258.12748
        33.200    22665693.25048
 15  8 23  0 27  0.0000000  0  8G05G07G28G02G20G09G30G13
  20837117.977 9 109499829.799 9        52.100    20837122.570 9  85324569.74549
        46.000    20837122.27749
  21075601.938 9 110753074.145 9        50.100    21075606.121 9  86301118.16649
        43.700    21075605.76249
  23395106.367 7 122942123.735 7        41.100                    95799081.87747
        26.000    23395109.44147
  23366609.477 6 122792385.948 6        40.200                    95682394.42347
        27.300    23366611.33247
  24051261.172 6 126390225.567 6        39.900                    98485906.00946
        20.900    24051262.55946
  23288707.625 7 122383066.134 7        42.000    23288714.828 7  95363475.17048
        32.000    23288713.94548  23288711.688 3  91390009.469 3        33.800
  20260935.305 9 106471962.304 9        54.400    20260942.129 9  82965202.74149
        48.800    20260941.25849  20260938.762 7  79508314.113 7        43.200
  22649979.695 9 119026470.764 9        48.700                    92747927.79448
        33.700    22649983.68048
 15  8 23  0 27 30.0000000  0  8G05G07G28G02G20G09G30G13
  20831534.875 9 109470490.024 9        52.800    20831538.957 9  85301707.58449
        46.400    20831538.59849
  21085861.023 9 110806984.550 9        50.700    21085865.008 9  86343126.28349
        43.600    21085864.16849
  23377264.016 6 122848364.913 6        40.900                    95726023.06647
        25.000    23377267.36747
  23382212.531 7 122874383.867 7        41.200                    95746288.88547
        28.400    23382215.02347
  24032007.531 6 126289049.157 6        39.900                    98407067.32446
        22.000    24032010.58246
  23305046.977 7 122468928.824 7        41.600    23305053.547 7  95430381.14648
        31.900    23305053.62148  23305050.660 3  91454127.704 3        33.500
  20259585.328 9 106464867.768 9        54.300    20259592.078 9  82959674.53949
        48.800    20259591.38749  20259588.891 7  79503016.255 7        43.200
  22634298.539 9 118944065.459 9        48.900                    92683715.88048
        33.800    22634302.00848
 15  8 23  0 28  0.0000000  0  8G05G07G28G02G20G09G30G13
  20826051.578 9 109441675.956 9        53.400    20826056.207 9  85279255.06549
        45.700    20826055.71149
  21096190.063 9 110861265.683 9        51.100    21096194.234 9  86385423.25249
        43.800    21096193.69549
  23359457.852 6 122754792.214 6        40.600                    95653109.29647
        27.100    23359461.71547
  23397861.883 7 122956618.709 7        41.700                    95810367.95847
        28.500    23397864.08247
  24012792.773 7 126188071.862 7        42.500                    98328383.75746
        22.600    24012796.45346
  23321411.891 7 122554929.183 7        41.600    23321418.438 7  95497394.39648
        30.600    23321418.00448  23321415.922 3  91518348.737 3        33.200
  20258333.102 9 106458287.733 9        54.800    20258340.000 9  82954547.24449
        48.700    20258339.27349  20258336.426 7  79498102.594 7        43.600
  22618645.344 8 118861813.120 8        47.800                    92619623.15549
        34.300    22618649.56349
 15  8 23  0 28 30.0000000  0  8G05G07G28G02G20G09G30G13
  20820669.086 9 109413389.057 9        53.900    20820673.297 9  85257213.32449
        46.000    20820672.72349
  21106589.555 9 110915915.434 9        51.000    21106593.852 9  86428007.48249
        43.600    21106593.30949
  23341688.008 6 122661408.635 6        40.800                    95580342.90047
        27.400    23341691.41847
  23413555.336 6 123039087.413 6        40.600                    95874629.25747
        28.100    23413556.98847
  23993614.117 6 126087296.116 6        40.400                    98249857.16546
        21.800    23993618.09846
  23337803.875 7 122641066.488 7        42.100    23337809.938 7  95564514.36848
        31.000    23337809.37148  23337808.051 3  91582672.029 3        33.900
  20257179.063 9 106452221.695 9        54.100    20257186.172 9  82949820.46949
        48.800    20257185.40249  20257183.086 7  79493572.768 7        43.000
  22603023.109 9 118779714.734 9        49.000                    92555650.41448
        33.500    22603027.13348
 15  8 23  0 29  0.0000000  0  8G05G07G28G02G20G09G30G13
  20815386.391 9 109385630.652 9        53.800    20815390.938 9  85235583.39449
        45.900    20815390.52049
  21117059.023 9 110970932.486 9        51.200    21117063.273 8  86470877.89849
        43.700    21117062.62549
  23323954.070 7 122568217.074 7        41.000                    95507726.10247
        27.600    23323957.44147
  23429292.313 6 123121786.835 6        40.700                    95939070.31947
        27.100    23429294.77747
  23974477.352 7 125986724.406 7        42.200                    98171489.66746
        22.800    23974480.48446
  23354221.156 7 122727340.447 7        41.800    23354227.906 7  95631740.81348
        30.500    23354227.28948  23354225.852 3  91647097.363 3        33.300
  20256122.023 9 106446669.427 9        54.500    20256129.262 9  82945494.03049
        49.100    20256128.38749  20256125.891 7  79489426.600 7        43.600
  22587429.695 9 118697771.040 9        49.300                    92491798.20148
        33.000    22587433.70748
 15  8 23  0 29 30.0000000  0  8G05G07G28G02G20G09G30G13
  20810205.203 9 109358402.144 9        53.700    20810209.676 9  85214366.37249
        45.900    20810209.21949
  21127598.078 9 111026314.731 9        50.600    21127602.137 9  86514032.88849
        43.300    21127601.96149
  23306257.797 7 122475220.227 7        41.600                    95435261.04547
        28.300    23306261.04747
  23445072.578 6 123204713.880 6        40.500                    96003688.79547
        27.500    23445075.39847
  23955378.711 7 125886359.188 7        43.100                    98093282.99146
        23.200    23955381.43846
  23370663.992 7 122813750.124 7        41.600    23370671.324 7  95699073.01948
        31.000    23370670.87148  23370668.676 3  91711624.048 3        33.800
  20255163.227 9 106441630.113 9        53.500    20255170.047 9  82941567.29849
        48.800    20255169.49249  20255166.766 7  79485663.481 7        42.900
  22571866.242 9 118615982.612 9        49.300                    92428066.97749
        34.400    22571869.74649
 15  8 23  0 30  0.0000000  0  8G05G07G28G02G20G09G30G13
  20805124.750 9 109331705.040 9        52.700    20805128.949 9  85193563.43449
        45.800    20805128.37549
  21138205.984 9 111082060.386 9        50.800    21138209.895 9  86557471.06049
        43.200    21138209.18049
  23288598.063 7 122382421.032 7        41.400                    95362950.00447
        28.600    23288602.38747
  23460895.727 6 123287865.798 6        40.100                    96068482.46647
        28.500    23460898.22747
  23936318.375 7 125786202.871 7        41.000                    98015239.15046
        22.000    23936321.88346
  23387133.469 7 122900295.103 7        42.600    23387139.781 7  95766510.64448
        30.400    23387139.55948  23387136.656 3  91776251.781 3        33.100
  20254302.000 9 106437103.370 9        54.400    20254308.898 9  82938039.97149
        48.900    20254307.95349  20254305.340 7  79482283.131 7        43.400
  22556332.063 9 118534350.729 9        49.100                    92364457.73549
        34.600    22556336.27749
 15  8 23  0 30 30.0000000  0  8G05G07G28G02G20G09G30G13
  20800145.984 9 109305540.681 9        53.000    20800150.301 9  85173175.61649
        46.300    20800149.73449
  21148882.648 9 111138167.666 9        51.500    21148887.023 9  86601191.02449
        42.900    21148886.37149
  23270977.414 7 122289822.575 7        41.500                    95290795.38947
        27.500    23270980.49247
  23476762.008 6 123371239.656 6        40.600                    96133449.08047
        28.500    23476763.87547
  23917300.313 7 125686257.712 7        41.700                    97937359.83446
        22.800    23917303.43846
  23403627.563 7 122986974.762 7        43.300    23403634.063 7  95834053.21848
        30.400    23403633.75048  23403631.082 3  91840980.097 3        32.900
  20253538.023 9 106433088.657 9        54.200    20253544.695 9  82934911.62949
        49.000    20253543.98449  20253541.547 7  79479285.135 7        43.400
  22540828.242 9 118452876.037 9        48.900                    92300970.99049
        34.100    22540831.87549
 15  8 23  0 31  0.0000000  0  8G05G07G28G02G20G09G30G13
  20795268.711 9 109279910.181 9        52.800    20795272.781 9  85153203.80149
        46.500    20795272.27749
  21159628.383 9 111194634.967 9        51.000    21159632.543 9  86645191.51649
        43.200    21159631.71549
  23253395.195 7 122197427.329 7        41.400                    95218799.10547
        25.700    23253397.77347
  23492669.117 7 123454832.242 7        41.000                    96198586.12847
        29.100    23492670.79747
  23898322.656 7 125586526.372 7        42.100                    97859647.09746
        24.200    23898325.00446
  23420148.367 7 123073788.309 7        44.500    23420154.125 7  95901700.12348
        30.900    23420153.55148  23420152.348 3  91905808.372 3        33.500
  20252871.086 9 106429585.317 9        55.000    20252878.328 9  82932181.75449
        48.800    20252877.30549  20252874.750 7  79476669.006 7        43.500
  22525353.813 9 118371559.495 9        49.100                    92237607.45449
        34.300    22525357.86749
 15  8 23  0 31 30.0000000  0  8G05G07G28G02G20G09G30G13
  20790493.172 9 109254814.589 9        53.400    20790497.754 9  85133648.78449
        46.700    20790497.16449
  21170441.422 9 111251460.040 9        51.200    21170445.770 8  86689470.79349
        43.200    21170445.25849
  23235851.508 7 122105237.991 7        42.600                    95146963.26147
        28.100    23235855.79747
  23508616.508 6 123538640.267 6        39.600                    96263891.06147
        27.800    23508619.11347
  23879385.328 7 125487011.436 7        42.900                    97782102.97946
        24.500    23879388.12546
  23436693.539 7 123160735.091 7        44.100    23436699.809 7  95969450.86148
        31.200    23436699.30548  23436697.398 3  91970736.139 3        33.400
  20252301.656 9 106426592.693 9        55.000    20252308.746 9  82929849.85149
        48.900    20252307.91449  20252305.418 7  79474434.260 7        43.000
  22509909.922 9 118290401.822 9        48.600                    92174367.72148
        33.900    22509913.55548
 15  8 23  0 32  0.0000000  0  8G05G07G28G02G20G09G30G13
  20785819.781 9 109230255.142 9        53.300    20785823.660 9  85114511.55049
        46.100    20785823.21149
  21181322.922 9 111308640.950 9        51.200    21181327.188 9  86734027.34749
        43.300    21181326.57849
  23218349.000 7 122013257.877 7        43.000                    95075290.45847
        28.900    23218352.80947
  23524604.367 6 123622660.883 6        39.000                    96329361.68247
        26.100    23524607.33647
  23860489.289 7 125387715.164 7        41.400                    97704729.31446
        22.200    23860492.58246
  23453264.328 7 123247814.394 7        42.900    23453271.172 7  96037304.83348
        31.700    23453270.89848  23453268.582 3  92035762.862 3        32.800
  20251829.516 9 106424110.003 9        54.400    20251836.492 9  82927915.28849
        48.900    20251835.62549  20251833.074 7  79472580.307 7        43.600
  22494497.211 9 118209403.680 9        48.600                    92111252.31149
        35.000    22494500.77049
 15  8 23  0 32 30.0000000  0  8G05G07G28G02G20G09G30G13
  20781248.453 9 109206233.231 9        52.800    20781252.902 9  85095793.16949
        46.700    20781252.40649
  21192271.391 9 111366176.218 9        50.800    21192275.676 9  86778860.02449
        43.700    21192275.12949
  23200885.656 7 121921489.447 7        43.200                    95003782.61447
        26.900    23200889.64147
  23540633.688 6 123706891.209 6        40.700                    96394995.67947
        25.900    23540634.87147
  23841636.609 7 125288640.061 7        43.500                    97627527.97146
        24.100    23841639.15246
  23469859.477 7 123335025.778 7        41.700    23469866.367 7  96105261.73448
        31.200    23469866.16448  23469863.730 3  92100888.243 3        32.200
  20251453.578 9 106422136.931 9        55.200    20251461.043 9  82926377.83549
        48.800    20251460.20749  20251457.828 7  79471106.918 7        42.600
  22479113.805 8 118128566.216 8        47.000                    92048262.09049
        34.800    22479117.20749
 15  8 23  0 33  0.0000000  0  8G05G07G28G02G20G09G30G13
  20776779.758 9 109182750.283 9        51.700    20776784.203 9  85077494.77649
        46.400    20776783.43049
  21203287.039 9 111424063.638 9        50.000    21203291.473 9  86823967.11049
        43.200    21203290.80549
  23183463.273 7 121829935.646 7        43.800                    94932442.00147
        27.600    23183465.74247
  23556701.609 7 123791327.952 7        41.000                    96460790.48747
        28.100    23556704.11347
  23822825.977 7 125189788.840 7        44.100                    97550501.01846
        22.800    23822828.17246
  23486480.320 7 123422368.637 7        41.200    23486487.410 7  96173321.10848
        30.800    23486486.97348  23486484.891 3  92166111.806 3        33.700
  20251175.156 9 106420672.818 9        54.700    20251182.082 9  82925236.97449
        48.800    20251181.12949  20251178.457 7  79470013.593 7        43.100
  22463761.547 8 118047890.296 8        47.200                    91985397.76049
        34.000    22463765.36349
 15  8 23  0 33 30.0000000  0  8G05G07G28G02G20G09G30G13
  20772413.867 9 109159807.369 9        52.800    20772418.531 9  85059617.18149
        46.100    20772417.73849
  21214369.375 9 111482301.640 9        49.300    21214373.680 9  86869347.37049
        43.200    21214373.46949
  23166082.781 7 121738599.027 7        43.000                    94861270.62647
        27.900    23166086.41847
  23572808.336 6 123875968.319 6        40.900                    96526744.01647
        26.000    23572809.32447
  23804057.328 7 125091163.784 7        42.200                    97473650.34346
        22.000    23804061.01646
  23503126.391 7 123509842.298 7        41.300    23503132.723 7  96241482.39047
        29.900    23503132.01247  23503130.457 3  92231433.021 3        33.100
  20250993.320 9 106419716.911 9        54.700    20251000.297 9  82924492.11849
        48.900    20250999.39849  20250996.902 7  79469299.776 7        43.100
  22448440.594 8 117967376.680 8        46.300                    91922659.88449
        34.400    22448444.12149
 15  8 23  0 34  0.0000000  0  8G05G07G28G02G20G09G30G13
  20768150.734 9 109137405.557 9        52.100    20768155.277 9  85042161.22949
        46.400    20768154.83649
  21225518.000 9 111540888.443 9        49.800    21225521.930 8  86914999.42449
        43.400    21225521.59849
  23148744.250 7 121647482.846 7        42.500                    94790271.02247
        28.400    23148748.21947
  23588952.578 7 123960809.218 7        41.000                    96592853.75447
        27.200    23588955.48847
  23785333.180 7 124992767.516 7        41.700                    97396977.93746
        22.200    23785336.42646
  23519796.641 6 123597446.100 6        40.300    23519803.813 7  96309745.07447
        29.600    23519802.85247  23519801.063 3  92296851.415 3        32.800
  20250907.773 9 106419268.592 9        54.400    20250915.031 9  82924142.78149
        49.000    20250914.18849  20250911.340 7  79468964.995 7        43.100
  22433150.313 8 117887026.006 8        47.700                    91860048.98249
        34.700    22433153.66849
 15  8 23  0 34 30.0000000  0  8G05G07G28G02G20G09G30G13
  20763991.234 9 109115546.016 9        52.100    20763995.977 9  85025127.81749
        46.200    20763995.45749
  21236732.938 9 111599821.857 9        49.700    21236736.863 9  86960921.56749
        43.300    21236736.52349
  23131447.484 7 121556589.712 7        42.900                    94719445.22447
        28.500    23131450.96547
  23605135.891 7 124045847.418 7        41.400                    96659117.31447
        26.900    23605136.76647
  23766652.734 7 124894602.263 7        42.300                    97320485.53546
        23.900    23766656.34846
  23536491.656 7 123685179.279 7        41.200    23536498.660 7  96378108.56347
        29.400    23536498.45747  23536496.082 3  92362366.435 3        32.800
  20250918.984 9 106419327.033 9        52.600    20250925.898 9  82924188.32049
        48.900    20250925.11749  20250922.445 7  79469008.639 7        43.300
  22417890.953 9 117806839.499 9        48.500                    91797566.00149
        35.100    22417895.19149
 15  8 23  0 35  0.0000000  0  8G05G07G28G02G20G09G30G13
  20759934.688 9 109094230.126 9        52.500    20759939.496 9  85008518.03249
        46.600    20759938.97349
  21248012.820 9 111659100.171 9        49.400    21248016.852 9  87007112.45849
        43.000    21248016.26649
  23114194.445 7 121465922.147 7        42.500                    94648795.16547
        28.100    23114197.52347
  23621354.703 7 124131080.419 7        43.000                    96725532.55747
        28.500    23621357.28147
  23748016.891 7 124796670.817 7        42.100                    97244175.31846
        23.000    23748021.02046
  23553211.547 7 123773041.327 7        41.400    23553218.117 7  96446572.49948
        30.600    23553217.64848  23553215.625 3  92427977.705 3        33.000
  20251026.727 9 106419891.578 9        53.900    20251033.355 9  82924628.23649
        49.100    20251032.36749  20251029.754 7  79469430.215 7        43.200
  22402663.617 8 117726817.815 8        47.300                    91735211.46249
        34.800    22402667.37949
 15  8 23  0 35 30.0000000  0  8G05G07G28G02G20G09G30G13
  20755982.180 9 109073458.929 9        53.400    20755986.543 9  84992332.68249
        46.400    20755985.95349
  21259358.906 9 111718721.750 9        49.100    21259362.734 8  87053570.83449
        42.900    21259362.13349
  23096983.797 7 121375483.327 7        42.400                    94578323.38647
        27.800    23096987.40647
  23637610.055 6 124216504.538 6        40.200                    96792096.83947
        26.800    23637612.46147
  23729425.664 6 124698975.458 6        40.900                    97168049.09746
        23.200    23729430.23446
  23569955.844 7 123861031.732 7        41.200    23569962.215 7  96515136.43647
        29.800    23569961.59047  23569959.863 3  92493684.826 3        33.000
  20251230.180 9 106420961.704 9        53.500    20251237.156 9  82925462.10749
        49.200    20251236.28149  20251233.730 7  79470229.346 7        43.300
  22387467.336 9 117646961.876 9        49.200                    91672986.06649
        35.800    22387471.14149
 15  8 23  0 36  0.0000000  0  8G05G07G28G02G20G09G30G13
  20752133.563 9 109053233.652 9        53.200    20752137.891 9  84976572.72249
        46.300    20752137.41849
  21270769.172 9 111778684.580 9        49.900    21270773.215 8  87100295.11649
        42.600    21270772.54349
  23079818.563 7 121285276.101 7        42.400                    94508032.06947
        29.500    23079821.49247
  23653901.508 7 124302116.999 7        41.500                    96858807.79247
        26.500    23653903.99247
  23710880.750 7 124601518.776 7        42.600                    97092108.85446
        22.800    23710885.09846
  23586723.805 7 123949149.824 7        41.300    23586730.195 7  96583799.85947
        29.400    23586729.73847  23586727.895 3  92559487.251 3        33.200
  20251529.766 9 106422536.570 9        54.500    20251536.539 9  82926689.27649
        49.000    20251535.91049  20251533.184 7  79471405.381 7        43.300
  22372303.133 8 117567272.789 8        47.900                    91610890.68449
        34.700    22372306.68449
 15  8 23  0 36 30.0000000  0  8G05G07G28G02G20G09G30G13
  20748388.773 9 109033555.011 9        53.200    20748393.355 9  84961238.71249
        46.400    20748392.73849
  21282244.305 9 111838986.615 9        49.500    21282248.500 8  87147283.71649
        43.400    21282247.69549
  23062697.070 7 121195303.126 7        43.200                    94437923.26247
        29.100    23062700.02347
  23670229.266 7 124387914.746 7        43.700                    96925663.19347
        28.400    23670231.06347
  23692382.156 7 124504303.213 7        42.600                    97016356.46846
        24.300    23692385.24646
  23603516.172 7 124037394.785 7        42.000    23603523.004 7  96652562.15847
        29.600    23603522.57447  23603520.727 3  92625384.446 3        33.100
  20251925.344 9 106424615.336 9        53.400    20251932.594 9  82928309.09149
        48.900    20251931.89849  20251929.285 7  79472957.707 7        43.600
  22357171.039 9 117487751.155 9        48.600                    91548925.79449
        35.000    22357174.96549
 15  8 23  0 37  0.0000000  0  8G05G07G28G02G20G09G30G13
  20744748.453 9 109014424.050 9        52.700    20744752.973 9  84946331.46449
        46.400    20744752.43049
  21293783.445 9 111899626.066 9        49.200    21293787.730 8  87194535.24649
        42.700    21293787.19549
  23045620.922 7 121105567.138 7        42.300                    94367999.10647
        29.200    23045623.81647
  23686590.313 7 124473894.728 7        42.200                    96992660.51646
        24.700    23686591.13746
  23673928.063 7 124407331.271 7        43.000                    96940793.92347
        25.200    23673931.36347
  23620332.563 7 124125766.013 7        41.400    23620339.430 7  96721422.84648
        30.200    23620338.63348  23620336.668 3  92691375.923 3        32.300
  20252416.906 9 106427197.191 9        53.700    20252423.824 9  82930320.93449
        48.800    20252423.03149  20252420.422 7  79474885.723 7        43.600
  22342070.438 9 117408397.829 9        48.000                    91487092.05449
        35.900    22342073.89149
 15  8 23  0 37 30.0000000  0  8G05G07G28G02G20G09G30G13
  20741212.242 9 108995842.172 9        52.900    20741216.992 9  84931852.07949
        46.600    20741216.62549
  21305386.633 9 111960600.932 9        49.600    21305390.988 8  87242048.14149
        42.900    21305390.32449
  23028590.328 7 121016070.686 7        42.100                    94298261.63147
        29.600    23028594.26247
  23702984.875 6 124560053.761 6        40.600                    97059797.40546
        24.300    23702987.82046
  23655522.352 7 124310605.670 7        42.600                    96865423.32747
        25.300    23655525.90247
  23637173.297 7 124214262.972 7        41.700    23637179.527 7  96790381.48847
        29.500    23637179.02347  23637176.766 3  92757461.302 3        32.200
  20253003.695 9 106430281.429 9        53.500    20253010.922 9  82932724.24449
        49.100    20253010.19149  20253007.578 7  79477188.892 7        43.400
  22327002.133 9 117329213.868 9        48.200                    91425390.27849
        34.800    22327005.71149
 15  8 23  0 38  0.0000000  0  8G05G07G28G02G20G09G30G13
  20737780.961 9 108977810.566 9        52.300    20737785.688 9  84917801.47849
        46.400    20737785.19949
  21317053.445 9 112021909.817 9        49.100    21317057.613 8  87289821.29749
        42.800    21317057.06349
  23011605.594 7 120926817.021 7        42.400                    94228713.34848
        30.500    23011609.52048
  23719415.055 7 124646388.829 7        43.400                    97127071.53347
        25.600    23719414.77347
  23637164.234 7 124214128.619 7        44.100                    96790246.43046
        24.300    23637166.58646
  23654038.281 7 124302885.172 7        41.400    23654043.836 7  96859437.73247
        29.400    23654043.73047  23654041.883 3  92823640.197 3        33.300
  20253686.008 9 106433867.478 9        53.400    20253693.273 9  82935518.57049
        49.200    20253692.52349  20253689.734 7  79479866.787 7        43.500
  22311966.055 8 117250200.335 8        47.800                    91363821.29849
        35.200    22311969.51249
 15  8 23  0 38 30.0000000  0  8G05G07G28G02G20G09G30G13
  20734454.617 9 108960329.648 9        52.600    20734459.316 9  84904179.98449
        46.700    20734458.62549
  21328783.117 9 112083550.222 9        49.300    21328787.570 8  87337852.76049
        42.800    21328786.89549
  22994667.609 7 120837808.468 7        42.800                    94159356.04748
        30.200    22994671.44948
  23735877.289 7 124732897.067 7        43.400                    97194480.44047
        28.100    23735879.43847
  23618851.930 7 124117902.757 7        42.900                    96715265.23247
        26.200    23618856.17647
  23670925.313 6 124391631.637 6        40.900    23670932.051 7  96928590.79547
        29.300    23670931.67647  23670929.246 3  92889911.890 3        32.700
  20254463.750 9 106437954.132 9        53.900    20254471.152 9  82938702.97849
        48.900    20254470.28549  20254467.730 7  79482918.516 7        43.400
  22296963.016 9 117171357.847 9        48.000                    91302385.60949
        35.400    22296966.15249
 15  8 23  0 39  0.0000000  0  8G05G07G28G02G20G09G30G13
  20731233.336 9 108943401.214 9        53.400    20731237.566 9  84890988.98849
        46.400    20731236.94949
  21340575.969 9 112145520.825 9        50.500    21340579.914 9  87386141.53949
        42.600    21340579.16449
  22977777.242 7 120749048.060 7        42.700                    94090192.09747
        29.900    22977780.65647
  23752369.461 6 124819575.471 6        39.200                    97262022.09247
        25.300    23752372.36747
  23600589.203 7 124021930.769 7        43.700                    96640481.89847
        26.500    23600593.55547
  23687836.680 7 124480502.055 7        41.100    23687843.441 7  96997840.47547
        29.400    23687843.55547  23687840.949 3  92956276.148 3        33.000
  20255336.266 9 106442540.895 9        55.100    20255343.395 9  82942277.08149
        48.800    20255342.78549  20255340.172 7  79486343.703 7        43.400
  22281992.289 9 117092687.275 9        49.900                    91241083.88149
        35.800    22281995.98049
 15  8 23  0 39 30.0000000  0  8G05G07G28G02G20G09G30G13
  20728117.094 9 108927025.800 9        53.000    20728121.133 9  84878228.92449
        46.800    20728120.52049
  21352430.648 9 112207819.296 9        49.600    21352434.727 8  87434685.80449
        42.800    21352434.34049
  22960934.852 7 120660538.463 7        42.700                    94021223.60747
        29.600    22960938.21547
  23768897.703 7 124906420.923 7        41.900                    97329693.82947
        26.600    23768899.45747
  23582374.992 7 123926214.880 7        44.100                    96565898.09747
        25.700    23582378.53547
  23704771.352 7 124569495.645 7        42.600    23704778.664 7  97067186.10947
        28.900    23704778.08647  23704776.125 3  93022732.368 3        33.300
  20256304.398 9 106447626.792 9        54.400    20256311.191 9  82946240.12049
        49.000    20256310.26649  20256307.652 7  79490141.617 7        43.400
  22267055.250 8 117014189.584 8        47.400                    91179916.85949
        36.100    22267058.42249
 15  8 23  0 40  0.0000000  0  8G05G07G28G02G20G09G30G13
  20725106.352 9 108911204.520 9        53.400    20725110.887 9  84865900.64849
        46.300    20725110.07849
  21364348.102 9 112270444.196 9        49.200    21364351.660 8  87483484.42349
        42.700    21364351.09849
  22944139.922 7 120572282.636 7        43.600                    93952452.83648
        30.800    22944143.95348
  23785455.578 7 124993430.363 7        44.000                    97397493.43947
        29.800    23785457.02347
  23564209.797 7 123830757.825 7        42.400                    96491515.97647
        25.600    23564213.82447
  23721729.680 7 124658611.947 7        41.400    23721736.777 7  97136627.36947
        28.100    23721736.34847  23721733.563 3  93089280.243 3        32.100
  20257367.063 9 106453211.153 9        54.100    20257373.676 9  82950591.57649
        48.900    20257372.82049  20257370.324 7  79494311.755 7        43.400
  22252150.234 8 116935865.801 8        47.900                    91118885.35249
        35.500    22252153.75049
 15  8 23  0 40 30.0000000  0  8G05G07G28G02G20G09G30G13
  20722201.469 9 108895938.651 9        53.000    20722205.484 9  84854005.16949
        46.500    20722204.70749
  21376326.727 9 112333393.597 9        50.200    21376330.840 9  87532535.91149
        42.500    21376330.17249
  22927393.539 7 120484283.105 7        43.600                    93883881.79647
        28.900    22927398.06347
  23802042.555 7 125080600.855 7        41.800                    97465418.36846
        23.900    23802044.44146
  23546094.578 7 123735562.155 7        43.500                    96417337.53946
        23.800    23546098.56646
  23738712.031 7 124747850.213 7        41.500    23738718.816 7  97206163.66447
        28.500    23738717.69147  23738715.492 3  93155919.200 3        32.000
  20258524.336 9 106459293.004 9        54.400    20258531.156 9  82955330.68649
        48.800    20258530.24649  20258527.809 7  79498853.404 7        43.900
  22237278.844 8 116857716.832 8        47.800                    91057990.07349
        35.900    22237282.66449
 15  8 23  0 41  0.0000000  0  9G05G07G28G02G20G15G09G30G13
  20719402.023 9 108881228.757 9        53.800    20719406.570 9  84842542.90949
        46.700    20719405.80549
  21388366.844 9 112396665.614 9        49.600    21388370.941 8  87581838.77449
        42.500    21388370.42249
  22910698.016 7 120396542.723 7        44.000                    93815512.67048
        30.700    22910701.00048
  23818660.383 6 125167928.979 6        40.400                    97533466.37147
        26.500    23818663.92647
  23528030.844 7 123640630.369 7        43.800                    96343364.71047
        25.300    23528033.23847
  25113194.875 3 131970690.72013        32.600

  23755716.406 7 124837209.934 7        41.700    23755722.387 7  97275794.59147
        27.600    23755721.53147  23755719.977 3  93222648.836 3        32.700
  20259776.086 9 106465871.546 9        54.800    20259782.809 9  82960456.82249
        49.500    20259782.07849  20259779.586 7  79503765.948 7        43.100
  22222441.336 9 116779743.472 9        49.500                    90997231.62949
        36.200    22222444.96949
 15  8 23  0 41 30.0000000  0  9G05G07G28G02G20G15G09G30G13
  20716708.938 9 108867075.278 9        53.500    20716713.102 9  84831514.22249
        46.300    20716712.64149
  21400468.375 9 112460258.021 9        49.500    21400472.172 8  87631391.32949
        42.500    21400471.89549
  22894051.133 7 120309064.077 7        44.300                    93747347.51248
        30.900    22894054.86748
  23835309.477 7 125255411.855 7        43.900                    97601634.75347
        26.000    23835308.89847
  23510015.844 7 123545964.798 7        43.200                    96269599.37347
        25.800    23510018.69147
  25094526.609 4 131872596.581 4        34.800    25094531.074 1 102757908.90011
        30.200
  23772743.977 7 124926690.206 7        42.200    23772750.523 7  97345519.47947
        29.600    23772750.35947  23772748.219 3  93289468.505 3        32.800
  20261122.336 9 106472945.594 9        54.800    20261129.344 9  82965969.07549
        48.800    20261128.59449  20261125.980 7  79509048.524 7        43.000
  22207637.203 9 116701946.562 9        49.800                    90936610.67749
        35.900    22207640.64849
 15  8 23  0 42  0.0000000  0  9G05G07G28G02G20G15G09G30G13
  20714121.766 9 108853479.839 9        54.400    20714126.070 9  84820920.37049
        46.600    20714125.69949
  21412630.078 9 112524169.250 9        50.200    21412634.414 8  87681192.28249
        42.700    21412633.59049
  22877455.258 7 120221850.006 7        44.100                    93679388.52548
        31.200    22877458.75848
  23851983.977 6 125343046.708 6        40.300                    97669921.62147
        27.700    23851988.03147
  23492052.586 7 123451568.319 7        42.900                    96196043.63647
        26.100    23492055.39147
  25075863.352 5 131774523.469 5        35.500    25075868.797 2 102681488.300 2
        31.200
  23789793.961 7 125016290.689 7        42.500    23789800.820 7  97415338.00947
        27.800    23789800.69947  23789798.852 3  93356377.918 3        33.400
  20262562.641 9 106480514.643 9        55.100    20262570.105 9  82971867.03749
        48.900    20262569.14849  20262566.594 7  79514700.737 7        43.300
  22192866.227 9 116624327.197 9        49.500                    90876128.06749
        36.100    22192869.67649
 15  8 23  0 42 30.0000000  0  9G05G07G28G02G20G15G09G30G13
  20711641.102 9 108840443.361 9        53.700    20711645.379 9  84810762.07149
        46.600    20711644.77349
  21424852.648 9 112588397.592 9        50.400    21424857.086 8  87731240.34049
        42.600    21424856.52049
  22860909.711 7 120134903.275 7        43.900                    93611637.82048
        30.500    22860912.95748
  23868688.625 6 125430830.163 6        40.400                    97738324.34746
        21.800    23868689.41046
  23474142.047 7 123357443.391 7        43.400                    96122699.58147
        26.700    23474145.55147
  25057206.008 7 131676471.968 7        41.200    25057209.719 3 102605087.48455
        18.600    25057209.53145
  23806867.234 7 125106010.578 7        41.600    23806873.688 7  97485249.58747
        27.700    23806873.60947  23806871.000 3  93423376.505 3        32.600
  20264097.031 9 106488577.571 9        55.300    20264103.914 9  82978149.83549
        48.900    20264103.21949  20264100.488 7  79520721.754 7        43.500
  22178129.836 9 116546886.359 9        49.500                    90815784.57149
        36.400    22178133.82449
 15  8 23  0 43  0.0000000  0  9G05G07G28G02G20G15G09G30G13
  20709266.688 9 108827966.465 9        54.500    20709271.684 9  84801039.81049
        46.700    20709270.83649
  21437134.617 9 112652941.026 9        49.600    21437138.570 8  87781533.92449
        42.200    21437138.10249
  22844415.289 7 120048226.955 7        44.700                    93544097.83548
        31.500    22844419.54348
  23885422.000 8 125518759.391 8        45.100                    97806840.60048
        30.300    23885425.02748
  23456282.555 7 123263591.924 7        43.100                    96049568.54247
        26.300    23456285.71147
  25038551.203 6 131578443.007 6        39.600    25038556.563 4 102528701.32646
        20.600    25038555.10546
  23823962.680 7 125195849.461 7        41.800    23823969.422 7  97555253.88947
        28.300    23823968.98847  23823966.500 2  93490463.971 2        31.800
  20265725.023 9 106497133.577 9        55.000    20265731.992 9  82984816.86049
        48.900    20265731.21549  20265728.484 7  79527110.985 7        43.200
  22163427.305 9 116469625.092 9        49.500                    90755580.99849
        36.400    22163431.15249
 15  8 23  0 43 30.0000000  0  9G05G07G28G02G20G15G09G30G13
  20706998.906 9 108816049.665 9        54.200    20707003.516 9  84791753.99149
        47.200    20707003.00849
  21449476.305 9 112717797.300 9        51.700    21449480.570 8  87832071.27849
        42.600    21449480.18849
  22827973.258 8 119961823.195 8        45.100                    93476770.26348
        30.800    22827977.50448
  23902180.469 7 125606831.158 7        42.700                    97875467.87746
        21.100    23902182.46946
  23438474.820 7 123170016.949 7        42.800                    95976652.98247
        25.900    23438479.27347
  25019901.406 5 131480437.011 5        37.500    25019906.199 5 102452333.06945
        18.600    25019905.68445
  23841080.906 7 125285806.405 7        41.700    23841087.297 7  97625350.19847
        28.100    23841086.83247  23841084.867 3  93557639.604 3        32.200
  20267447.039 9 106506181.468 9        55.100    20267453.727 9  82991867.16449
        49.100    20267453.10249  20267450.492 7  79533867.524 7        43.400
  22148759.492 9 116392544.010 9        49.600                    90695517.83849
        36.400    22148763.31649
 15  8 23  0 44  0.0000000  0  9G05G07G28G02G20G15G09G30G13
  20704837.984 9 108804693.657 9        53.700    20704842.645 9  84782905.15549
        46.400    20704841.93049
  21461877.328 9 112782964.817 9        50.900    21461881.555 8  87882851.15649
        42.700    21461881.20749
  22811583.531 8 119875694.917 8        45.300                    93409657.33448
        31.800    22811587.72748
  23918966.531 7 125695042.233 7        41.100                    97944203.88047
        27.700    23918970.27347
  23420722.406 7 123076721.117 7        43.200                    95903954.96147
        27.100    23420725.25447
  25001255.570 6 131382454.892 6        38.400    25001260.723 4 102375983.39645
        19.300    25001259.97745
  23858221.266 7 125375880.831 7        41.800    23858228.523 7  97695538.04447
        28.200    23858228.25047  23858225.992 4  93624902.948 4        34.000
  20269262.008 9 106515720.317 9        55.400    20269268.781 9  82999300.04149
        48.900    20269268.14149  20269265.590 7  79540990.702 7        43.100
  22134125.789 9 116315643.994 9        49.300                    90635595.76749
        36.600    22134129.69149
 15  8 23  0 44 30.0000000  0  9G05G07G28G02G20G15G09G30G13
  20702783.945 9 108793900.012 9        53.200    20702788.297 9  84774494.51349
        46.700    20702787.90249
  21474337.148 9 112848441.928 9        50.900    21474341.605 8  87933872.27749
        42.500    21474340.91049
  22795247.242 7 119789844.969 7        44.500                    93342761.27448
        31.900    22795250.24648
  23935779.875 7 125783389.961 7        42.800                    98013046.17846
        22.500    23935779.89146
  23403021.633 7 122983706.754 7        43.100                    95831476.22947
        27.000    23403025.36747
  24982615.242 6 131284497.862 6        39.900    24982620.098 5 102299653.31646
        22.800    24982619.31646
  23875385.469 7 125466072.377 7        42.100    23875391.891 7  97765817.14847
        28.300    23875391.77747  23875389.520 3  93692253.747 3        33.100
  20271170.703 9 106525749.483 9        55.900    20271177.523 9  83007114.97149
        48.900    20271176.60549  20271174.109 7  79548480.006 7        43.500
  22119527.016 9 116238926.363 9        48.500                    90575815.80649
        36.900    22119530.54349
 15  8 23  0 45  0.0000000  0  9G05G07G28G02G20G15G09G30G13
  20700837.336 9 108783669.462 9        53.600    20700841.668 9  84766522.65449
        46.800    20700840.89149
  21486855.578 9 112914226.578 9        50.300    21486859.824 8  87985133.05049
        42.300    21486859.08649
  22778963.109 7 119704275.973 7        44.300                    93276084.14648
        31.500    22778967.20748
  23952615.133 6 125871871.182 6        39.200                    98081992.63746
        24.800    23952619.09846
  23385375.672 7 122890976.434 7        43.800                    95759218.86647
        27.400    23385379.80147
  24963979.383 6 131186566.651 6        40.100    24963984.078 5 102223343.33146
        21.700    24963983.89146
  23892569.305 7 125556380.351 7        41.800    23892576.957 7  97836186.99247
        28.100    23892576.68847  23892574.313 3  93759691.509 3        32.000
  20273172.031 9 106536267.876 9        55.000    20273179.352 9  83015311.12349
        48.800    20273178.56349  20273175.949 7  79556334.658 7        43.200
  22104962.750 9 116162391.852 9        48.800                    90516178.53849
        36.700    22104966.62149
 15  8 23  0 45 30.0000000  0  9G05G07G28G02G20G15G09G30G13
  20698997.648 9 108774002.333 9        53.500    20699002.164 9  84758989.82249
        46.800    20699001.51649
  21499432.086 9 112980316.919 9        51.200    21499436.371 8  88036632.01349
        41.700    21499435.80549
  22762734.219 8 119618990.354 8        45.000                    93209627.83748
        31.200    22762737.47348
  23969478.109 7 125960483.097 7        41.100                    98151040.82346
        22.500    23969480.21546
  23367784.445 7 122798532.713 7        43.700                    95687184.81247
        25.800    23367787.88747
  24945348.438 6 131088661.586 6        39.900    24945353.879 5 102147053.71546
        22.600    24945352.66446
  23909777.648 7 125646803.836 7        41.100    23909783.582 7  97906646.83347
        27.600    23909783.23847  23909780.922 2  93827215.515 2        31.200
  20275266.617 9 106547274.113 9        55.100    20275273.461 9  83023887.41849
        49.000    20275272.62949  20275269.961 7  79564553.603 7        43.200
  22090433.992 9 116086041.343 9        48.900                    90456684.65149
        36.800    22090437.76249
 15  8 23  0 46  0.0000000  0  9G05G07G28G02G20G15G09G30G13
  20697265.547 9 108764899.280 9        54.500    20697269.926 9  84751896.52449
        46.800    20697269.42249
  21512066.375 9 113046710.895 9        51.100    21512070.922 8  88088367.57049
        42.300    21512070.30149
  22746559.711 8 119533990.932 8        45.000                    93143394.53848
        32.700    22746562.89848
  23986364.258 7 126049222.370 7        41.600                    98220188.35647
        26.500    23986367.32447
  23350248.180 7 122706378.068 7        44.400                    95615376.00647
        27.200    23350251.49247
  24926724.320 6 130990783.654 6        40.500    24926727.625 5 102070785.19946
        22.600    24926726.91046
  23927006.234 7 125737342.243 7        42.000    23927011.836 7  97977196.23247
        26.400    23927011.62147  23927009.715 2  93894825.358 2        31.800
  20277453.742 9 106558767.476 9        55.600    20277460.602 9  83032843.28449
        48.800    20277459.59049  20277457.094 7  79573136.308 7        42.900
  22075940.164 9 116009875.969 9        48.200                    90397335.02449
        36.600    22075943.85549
 15  8 23  0 46 30.0000000  0  9G05G07G28G02G20G15G09G30G13
  20695640.836 9 108756361.767 9        54.300    20695645.207 9  84745243.91349
        46.900    20695644.63349
  21524758.531 9 113113406.923 9        51.400    21524762.371 8  88140338.49749
        41.700    21524761.72349
  22730439.789 8 119449281.045 8        46.600                    93077386.84248
        32.900    22730443.60548
  24003275.781 7 126138086.140 7        43.200                    98289432.78747
        25.800    24003277.62547
  23332766.336 7 122614515.065 7        43.400                    95543794.43647
        26.000    23332770.21147
  24908102.297 5 130892934.113 5        37.700    24908108.293 5 101994538.87146
        21.100    24908107.19146
  23944256.867 7 125827995.405 7        41.700    23944262.820 7  98047835.03547
        28.200    23944262.67247  23944260.766 3  93962520.877 3        32.900
  20279733.430 9 106570747.222 9        55.200    20279740.027 9  83042178.15349
        48.800    20279739.25849  20279736.707 7  79582082.221 7        43.300
  22061482.148 9 115933896.777 9        48.600                    90338130.47149
        37.300    22061485.63749
 15  8 23  0 47  0.0000000  0  9G05G07G28G02G20G15G09G30G13
  20694123.898 9 108748389.492 9        53.700    20694128.012 9  84739031.74249
        47.000    20694127.49649
  21537507.664 9 113180402.820 9        51.600    21537511.926 8  88192543.09649
        42.100    21537511.32049
  22714375.219 7 119364862.592 7        44.900                    93011606.23348
        31.500    22714378.94548
  24020208.422 6 126227071.013 6        40.500                    98358771.71446
        24.000    24020210.35546
  23315342.328 7 122522946.312 7        43.800                    95472442.16847
        27.300    23315344.79747
  24889488.289 6 130795113.391 6        40.500    24889492.879 4 101918314.98346
        21.800    24889492.59046
  23961528.531 6 125918762.131 6        40.900    23961536.012 7  98118562.34947
        26.900    23961535.69547  23961533.613 3  94030301.197 3        33.500
  20282105.422 9 106583211.808 9        54.600    20282112.434 9  83051890.81949
        48.600    20282111.45749  20282108.785 7  79591390.198 7        43.800
  22047059.266 9 115858104.208 9        49.400                    90279071.34049
        37.500    22047062.41449
 15  8 23  0 47 30.0000000  0  9G05G07G28G02G20G15G09G30G13
  20692714.289 9 108740983.435 9        53.800    20692718.867 9  84733260.78549
        46.800    20692718.23049
  21550312.906 9 113247696.702 9        51.800    21550317.266 8  88244979.88249
        41.800    21550316.61349
  22698366.898 8 119280738.446 8        45.900                    92946054.97448
        32.300    22698370.77048
  24037164.680 7 126316174.066 7        42.500                    98428202.64147
        28.100    24037167.52047
  23297973.070 7 122431674.390 7        43.600                    95401321.19047
        26.900    23297975.74647
  24870879.719 7 130697322.438 7        41.300    24870883.832 5 101842114.25646
        22.600    24870883.73046
  23978822.508 7 126009641.909 7        42.200    23978829.680 7  98189377.72647
        27.600    23978829.24647  23978827.051 3  94098165.949 3        33.400
  20284569.375 9 106596160.313 9        54.400    20284575.977 9  83061980.56449
        48.800    20284575.27049  20284572.832 7  79601059.531 7        42.900
  22032671.703 9 115782499.217 9        48.300                    90220158.37149
        37.300    22032675.65249
 15  8 23  0 48  0.0000000  0  9G05G07G28G02G20G15G09G30G13
  20691413.000 9 108734144.633 9        54.300    20691417.770 9  84727931.84049
        46.900    20691416.88749
  21563174.805 9 113315287.004 9        50.900    21563178.965 8  88297647.64449
        42.100    21563178.64549
  22682415.547 8 119196911.294 8        45.800                    92880735.13548
        32.800    22682419.25848
  24054142.258 6 126405392.553 6        40.900                    98497723.44547
        25.100    24054143.52747
  23280662.430 7 122340701.585 7        44.200                    95330433.28847
        28.700    23280665.13347
  24852276.344 6 130599562.221 6        40.000    24852280.996 5 101765937.51246
        21.300    24852280.44946
  23996137.852 7 126100634.364 7        41.100    23996144.457 7  98260280.95147
        28.100    23996144.05547  23996141.797 2  94166114.849 2        31.800
  20287125.070 9 106609591.895 9        55.000    20287132.129 9  83072446.73349
        48.700    20287131.22349  20287128.613 7  79611089.612 7        43.400
  22018320.445 9 115707083.329 9        49.000                    90161392.75249
        37.500    22018323.94149
 15  8 23  0 48 30.0000000  0  9G05G07G28G02G20G15G09G30G13
  20690219.672 9 108727873.616 9        53.400    20690224.379 9  84723045.33149
        46.800    20690223.68849
  21576092.938 9 113383171.745 9        51.600    21576096.750 8  88350544.84149
        42.000    21576096.28549
  22666520.539 8 119113384.047 8        46.200                    92815648.98548
        32.600    22666524.08648
  24071141.375 6 126494723.020 6        40.600                    98567331.71847
        26.500    24071143.35547
  23263407.742 7 122250030.630 7        43.200                    95259780.62047
        29.200    23263411.53947
  24833679.039 6 130501833.542 6        39.400    24833683.348 5 101689785.32646
        20.900    24833683.48046
  24013474.828 6 126191738.815 6        40.200    24013481.117 7  98331271.41247
        27.100    24013480.47347  24013478.980 3  94234147.381 3        32.900
  20289772.727 9 106623505.446 9        55.100    20289779.793 9  83083288.46749
        48.900    20289778.80949  20289776.434 7  79621479.601 7        43.200
  22004005.430 9 115631857.362 9        48.800                    90102775.12249
        37.700    22004009.10949
 15  8 23  0 49  0.0000000  0  9G05G07G28G02G20G15G09G30G13
  20689134.805 9 108722171.153 9        53.400    20689138.879 9  84718601.85649
        46.900    20689138.46949
  21589066.523 9 113451348.830 9        51.900    21589070.914 8  88403669.85149
        41.700    21589069.96949
  22650683.453 8 119030159.063 8        46.200                    92750798.35948
        32.100    22650686.68448
  24088162.469 7 126584163.121 7        42.300                    98637025.15147
        27.100    24088163.86747
  23246211.180 7 122159663.981 7        43.400                    95189365.03247
        27.200    23246214.02747
  24815086.695 5 130404137.379 5        36.800    24815092.660 5 101613658.52546
        20.100    24815092.24646
  24030832.008 6 126282954.484 6        40.600    24030838.887 7  98402348.54347
        26.900    24030838.49647  24030836.828 3  94302262.980 3        33.200
  20292511.961 9 106637899.783 9        55.500    20292519.004 9  83094504.83449
        48.800    20292518.18849  20292515.520 7  79632228.618 7        43.200
  21989726.719 9 115556822.145 9        49.400                    90044306.14249
        38.000    21989730.75049
 15  8 23  0 49 30.0000000  0  9G05G07G28G02G20G15G09G30G13
  20688157.695 9 108717037.814 9        54.100    20688161.863 9  84714601.84449
        47.200    20688161.59849
  21602095.375 9 113519816.812 9        51.400    21602099.781 8  88457021.50949
        41.600    21602098.89849
  22634904.602 8 118947239.203 8        46.000                    92686185.48148
        33.000    22634907.86348
  24105200.203 5 126673709.324 5        37.600                    98706801.48846
        22.000    24105202.25046
  23229074.313 7 122069604.190 7        43.900                    95119188.58547
        29.100    23229076.89547
  24796502.742 6 130306474.357 6        38.900    24796507.941 5 101537557.53546
        21.300    24796507.22346
  24048211.336 6 126374280.906 6        40.800    24048218.543 7  98473511.97147
        27.600    24048218.20747  24048216.418 3  94370461.249 3        33.900
  20295342.602 9 106652773.979 9        55.800    20295349.941 9  83106095.11249
        48.700    20295348.89849  20295346.168 7  79643335.973 7        43.000
  21975484.586 9 115481979.066 9        50.200                    89985986.87349
        37.600    21975487.80949
 15  8 23  0 50  0.0000000  0  9G05G07G28G02G20G15G09G30G13
  20687289.188 9 108712474.024 9        53.800    20687293.969 9  84711045.64649
        47.000    20687293.23049
  21615179.500 9 113588573.733 9        50.900    21615183.891 8  88510598.33049
        41.400    21615183.33649
  22619183.609 8 118864626.782 8        46.000                    92621812.18448
        33.200    22619187.72348
  24122260.938 6 126763358.658 6        40.400                    98776658.00347
        26.900    24122263.82847
  23211994.617 7 121979853.881 7        43.600                    95049253.29147
        27.700    23211998.52747
  24777925.258 6 130208845.362 6        40.600    24777929.539 5 101461483.02946
        23.000    24777929.16446
  24065611.391 7 126465717.352 7        41.800    24065618.160 7  98544761.13847
        28.000    24065617.81347  24065615.379 3  94438741.687 3        32.400
  20298263.852 9 106668126.773 9        54.800    20298270.691 9  83118058.33249
        48.700    20298269.94549  20298267.043 7  79654800.723 7        42.900
  21961278.914 9 115407328.691 9        50.300                    89927817.74549
        37.900    21961282.59849
 15  8 23  0 50 30.0000000  0  9G05G07G28G02G20G15G09G30G13
  20686528.992 9 108708480.019 9        54.400    20686533.457 9  84707933.42549
        46.900    20686532.85249
  21628318.586 9 113657617.524 9        51.300    21628322.527 8  88564398.68749
        41.900    21628322.10949
  22603522.133 8 118782324.628 8        46.800                    92557680.66048
        33.100    22603525.16048
  24139339.133 5 126853108.030 5        37.000                    98846592.54346
        20.400    24139341.87946
  23194975.367 7 121890415.570 7        44.700                    94979561.10447
        27.200    23194978.66447
  24759352.914 6 130111251.210 6        38.700    24759358.402 5 101385435.68946
        22.200    24759357.99246
  24083031.445 6 126557263.038 6        40.400    24083038.379 7  98616095.42747
        26.100    24083037.62547  24083035.953 3  94507103.698 3        32.100
  20301276.320 9 106683956.921 9        55.400    20301283.656 9  83130393.51249
        48.500    20301282.84449  20301280.113 7  79666621.941 7        43.000
  21947110.477 9 115332871.997 9        50.400                    89869799.57149
        37.900    21947114.62549
 15  8 23  0 51  0.0000000  0  9G05G07G28G02G20G15G09G30G13
  20685878.070 9 108705056.957 9        53.400    20685882.238 9  84705266.09749
        47.000    20685881.71149
  21641511.117 9 113726946.348 9        51.800    21641515.438 8  88618421.13549
        41.600    21641515.13349
  22587920.359 8 118700335.751 8        46.900                    92493793.23048
        33.300    22587923.67248
  24156437.945 6 126942954.772 6        40.000                    98916603.03747
        28.300    24156439.62947
  23178015.594 7 121801291.668 7        43.600                    94910113.91247
        28.600    23178019.05147
  24740788.242 6 130013692.960 6        39.400    24740793.109 5 101309416.30946
        21.800    24740792.69546
  24100473.445 6 126648917.655 6        40.500    24100479.496 7  98687514.60447
        26.900    24100478.86347  24100476.723 3  94575547.094 3        32.100
  20304379.477 9 106700263.644 9        55.400    20304386.188 9  83143100.04949
        48.600    20304385.41049  20304382.684 7  79678799.032 7        42.700
  21932978.484 9 115258610.307 9        49.200                    89811933.32149
        37.300    21932982.21549
 15  8 23  0 51 30.0000000  0  9G05G07G28G02G20G15G09G30G13
  20685335.023 9 108702204.752 9        54.000    20685339.531 9  84703043.59649
        47.100    20685338.84049
  21654757.930 9 113796558.416 9        51.500    21654761.711 8  88672664.29649
        41.400    21654761.49649
  22572378.047 8 118618662.099 8        45.500                    92430151.41748
        33.000    22572381.63348
  24173552.070 5 127032895.408 5        36.700                    98986686.49546
        21.700    24173554.73446
  23161116.070 7 121712484.836 7        42.900                    94840913.78647
        27.900    23161119.68447
  24722231.008 6 129916171.447 6        39.000    24722235.488 5 101233425.58546
        21.100    24722234.54346
  24117934.797 6 126740680.315 6        40.500    24117941.582 7  98759017.96547
        26.400    24117941.19147  24117939.934 3  94644071.139 3        32.600
  20307572.867 9 106717045.527 9        55.300    20307579.965 9  83156176.84049
        48.600    20307579.09049  20307576.359 7  79691330.958 7        42.700
  21918884.563 9 115184544.130 9        49.700                    89754219.42849
        38.400    21918888.54749
 15  8 23  0 52  0.0000000  0  9G05G07G28G02G20G15G09G30G13
  20684901.094 9 108699924.446 9        53.000    20684905.270 9  84701266.72849
        47.200    20684904.70749
  21668058.352 9 113866451.905 9        51.100    21668062.613 8  88727126.76349
        41.600    21668062.22349
  22556896.656 8 118537306.413 8        46.700                    92366757.41348
        33.500    22556901.07848
  24190684.813 7 127122927.025 7        41.000                    99056841.16547
        28.600    24190687.97347
  23144277.859 7 121623997.539 7        43.500                    94771962.62447
        29.200    23144280.79747
  24703680.477 7 129818687.687 7        41.900    24703684.645 5 101157464.24946
        22.800    24703683.92646
  24135417.328 6 126832550.473 6        40.400    24135424.195 7  98830605.07547
        27.900    24135424.09447  24135421.840 3  94712675.453 3        32.400
  20310856.813 9 106734301.474 9        54.500    20310863.570 9  83169623.03549
        48.800    20310862.60549  20310860.051 7  79704216.899 7        43.100
  21904827.523 9 115110674.575 9        49.800                    89696658.73949
        38.400    21904831.73849
 15  8 23  0 52 30.0000000  0  9G05G07G28G02G20G15G09G30G13
  20684576.406 9 108698216.347 9        52.200    20684580.836 9  84699935.74249
        46.700    20684579.79349
  21681411.391 9 113936624.922 9        51.200    21681415.516 8  88781807.03649
        41.600    21681415.17249
  22541476.172 8 118456271.410 8        46.800                    92303613.26748
        33.700    22541479.46148
  24207832.961 5 127213046.887 5        37.400                    99127064.23646
        22.900    24207837.23846
  23127499.930 7 121535832.329 7        43.100                    94703262.45747
        29.100    23127503.55947
  24685137.211 7 129721242.363 7        41.600    24685141.398 5 101081532.86746
        22.900    24685141.28946
  24152919.664 6 126924527.422 6        39.100    24152926.805 7  98902275.40347
        25.800    24152926.28947  24152923.797 3  94781359.508 3        32.100
  20314230.375 9 106752030.313 9        54.900    20314236.914 9  83183437.71749
        48.800    20314236.19549  20314233.641 7  79717455.968 7        43.100
  21890808.313 9 115037002.846 9        50.000                    89639252.21749
        38.100    21890812.29749
 15  8 23  0 53  0.0000000  0  9G05G07G28G02G20G15G09G30G13
  20684360.031 9 108697080.635 9        53.700    20684364.387 9  84699050.76349
        46.800    20684363.98849
  21694817.969 9 114007075.638 9        51.000    21694822.172 8  88836703.68749
        42.100    21694821.82049
  22526117.266 8 118375559.837 8        46.600                    92240721.13648
        33.400    22526120.29348
  24224999.711 7 127303251.730 7        41.000                    99197353.96046
        22.500    24224999.38346
  23110785.016 7 121447991.683 7        43.100                    94634815.21147
        28.500    23110788.05947
  24666600.672 7 129623836.246 7        41.100    24666605.207 5 101005632.01346
        22.600    24666605.56646
  24170442.859 6 127016610.530 6        39.700    24170448.711 7  98974028.45047
        27.500    24170448.11747  24170446.859 3  94850122.854 3        32.000
  20317693.852 9 106770230.844 9        54.900    20317700.961 9  83197619.94949
        48.600    20317700.02049  20317697.582 7  79731047.272 7        43.000
  21876827.008 9 114963529.987 9        50.000                    89582000.64049
        38.300    21876830.43049
 15  8 23  0 53 30.0000000  0  9G05G07G28G02G20G15G09G30G13
  20684252.836 9 108696518.259 9        53.400    20684257.574 9  84698612.54749
        46.600    20684256.99649
  21708276.664 9 114077802.211 9        51.800    21708280.543 8  88891815.29849
        41.200    21708280.27049
  22510820.609 8 118295174.292 8        46.900                    92178083.05648
        33.300    22510823.73848
  24242179.344 6 127393538.890 6        38.100                    99267707.43547
        27.100    24242184.31347
  23094131.734 7 121360478.226 7        43.900                    94566622.90847
        27.900    23094134.15247
  24648073.000 6 129526470.459 6        39.900    24648077.914 5 100929762.61846
        21.800    24648077.63346
  24187985.953 6 127108799.309 6        38.800    24187992.617 7  99045863.85347
        27.600    24187991.62547  24187989.074 2  94918965.109 2        31.600
  20321246.734 9 106788902.065 9        54.100    20321253.367 9  83212168.95049
        48.800    20321252.66049  20321249.816 7  79744990.064 7        43.100
  21862883.328 9 114890256.885 9        48.400                    89524904.72449
        38.600    21862886.99249
 15  8 23  0 54  0.0000000  0  9G05G07G28G02G20G15G09G30G13
  20684255.211 9 108696529.081 9        53.900    20684259.488 9  84698620.97849
        46.800    20684258.70349
  21721787.586 9 114148802.627 9        51.700    21721791.473 8  88947140.29049
        40.700    21721790.94949
  22495585.961 8 118215117.250 8        47.000                    92115700.96048
        33.600    22495590.04348
  24259376.852 7 127483904.869 7        42.400                    99338122.37046
        22.900    24259379.71546
  23077541.094 7 121273294.374 7        43.700                    94498687.45648
        30.400    23077543.90648
  24629552.500 6 129429145.721 6        39.300    24629557.469 5 100853925.19746
        22.500    24629556.84446
  24205548.320 6 127201092.962 6        39.300    24205555.289 7  99117780.97547
        25.900    24205555.13347  24205552.816 2  94987885.681 2        31.500
  20324889.063 9 106808042.577 9        54.400    20324896.230 9  83227083.63849
        48.600    20324895.25449  20324892.523 7  79759283.304 7        43.200
  21848978.508 9 114817184.435 9        49.300                    89467965.17349
        38.500    21848982.25449
 15  8 23  0 54 30.0000000  0  9G05G07G28G02G20G15G09G30G13
  20684366.758 9 108697113.693 9        52.100    20684370.672 9  84699076.52049
        47.300    20684370.06349
  21735350.250 9 114220075.127 9        50.000    21735354.258 8  89002677.29949
        40.900    21735353.75849
  22480414.898 8 118135391.081 8        47.300                    92053576.69249
        34.000    22480418.59849
  24276585.180 5 127574346.945 5        36.500                    99408596.92446
        21.100    24276587.75046
  23061013.984 7 121186442.973 7        43.300                    94431011.02747
        29.300    23061017.20747
  24611040.211 6 129331862.907 6        38.400    24611045.242 5 100778120.41846
        22.000    24611044.08246
  24223131.078 6 127293490.953 6        39.500    24223138.086 7  99189779.40747
        27.200    24223137.75047  24223135.727 3  95056884.154 3        32.300
  20328620.555 9 106827651.215 9        54.400    20328627.082 9  83242363.09349
        48.700    20328626.23849  20328623.742 7  79773926.118 7        43.100
  21835111.430 9 114744313.917 9        49.300                    89411182.96249
        38.200    21835114.81349
 15  8 23  0 55  0.0000000  0  9G05G07G28G02G20G15G09G30G13
  20684587.078 9 108698272.449 9        53.600    20684591.465 9  84699979.44249
        47.000    20684590.74649
  21748964.516 9 114291617.909 9        50.900    21748968.914 8  89058424.92049
        41.200    21748968.37949
  22465306.617 8 118055998.375 8        47.600                    91991712.25148
        33.300    22465309.86748
  24293811.227 6 127664862.096 6        40.200                    99479128.04347
        28.500    24293815.13747
  23044550.398 7 121099926.020 7        43.300                    94363595.24147
        29.600    23044553.39547
  24592535.984 6 129234623.332 6        38.900    24592540.313 5 100702349.36546
        22.300    24592539.52046
  24240733.836 6 127385992.558 6        40.700    24240740.539 7  99261858.54147
        27.400    24240740.17647  24240737.742 3  95125959.998 3        32.100
  20332440.688 9 106847726.753 9        54.600    20332447.543 9  83258006.37649
        48.800    20332446.64849  20332444.094 7  79788917.587 7        43.300
  21821283.281 9 114671646.156 9        50.200                    89354558.74149
        39.000    21821286.54749
 15  8 23  0 55 30.0000000  0  9G05G07G28G02G20G15G09G30G13
  20684916.719 9 108700006.050 9        52.100    20684920.898 9  84701330.29149
        47.100    20684920.28549
  21762629.789 9 114363429.491 9        50.900    21762633.895 8  89114381.99649
        40.900    21762633.19549
  22450262.969 8 117976941.724 8        47.700                    91930109.67349
        34.600    22450266.52749
  24311049.102 6 127755447.266 6        39.400                    99549713.86146
        22.000    24311050.71546
  23028150.844 7 121013746.553 7        43.100                    94296442.40847
        29.300    23028153.78147
  24574039.695 5 129137427.741 5        37.700    24574045.629 5 100626612.56446
        21.800    24574044.86346
  24258355.672 6 127478597.236 6        40.000    24258362.684 7  99334018.02347
        26.800    24258362.24247  24258359.754 2  95195112.843 2        31.400
  20336349.492 9 106868268.095 9        54.600    20336356.477 9  83274012.61449
        48.500    20336355.66049  20336352.871 7  79804256.907 7        43.400
  21807494.109 9 114599182.298 9        50.200                    89298093.40649
        39.100    21807497.31349
 15  8 23  0 56  0.0000000  0  9G05G07G28G02G20G15G09G30G13
  20685356.156 9 108702314.668 9        52.400    20685360.926 9  84703129.21349
        47.100    20685360.16049
  21776345.422 9 114435507.474 9        50.700    21776349.801 8  89170546.64649
        40.900    21776349.21149
  22435283.250 8 117898223.988 8        47.200                    91868771.18949
        34.100    22435287.16449
  24328298.805 5 127846099.702 5        37.900                    99620352.11646
        21.700    24328300.39846
  23011816.148 7 120927906.872 7        43.700                    94229554.35448
        30.900    23011819.52748
  24555553.047 5 129040276.946 5        37.600    24555558.266 5 100550910.68046
        22.800    24555558.05946
  24275997.742 6 127571304.431 6        40.600    24276004.059 7  99406257.38047
        26.400    24276003.61747  24276001.418 3  95264342.216 3        32.100
  20340347.039 9 106889273.955 9        54.900    20340353.844 9  83290380.82449
        48.700    20340352.78149  20340350.289 7  79819943.103 7        43.400
  21793743.492 9 114526923.555 9        50.700                    89241787.89849
        39.200    21793746.94949
 15  8 23  0 56 30.0000000  0  9G05G07G28G02G20G15G09G30G13
  20685904.711 9 108705198.732 9        53.800    20685909.313 9  84705376.52749
        46.800    20685908.68049
  21790112.500 9 114507849.931 9        50.800    21790116.613 8  89226917.39749
        41.000    21790115.71549
  22420368.430 8 117819847.503 8        47.900                    91807698.63149
        34.800    22420372.89849
  24345563.414 6 127936816.184 6        39.800                    99691040.28047
        25.800    24345564.85947
  22995545.797 7 120842409.443 7        43.200                    94162932.98347
        28.900    22995548.78947
  24537074.523 6 128943172.075 6        38.700    24537079.230 5 100475244.59746
        22.500    24537079.04346
  24293658.289 6 127664113.449 6        40.500    24293665.598 7  99478576.07447
        26.700    24293664.71547  24293662.105 1  95333647.644 1        30.700
  20344432.547 9 106910743.138 9        55.600    20344439.395 9  83307110.05549
        48.500    20344438.45749  20344435.906 7  79835975.283 7        43.200
  21780032.438 9 114454870.913 9        50.500                    89185642.99549
        38.800    21780035.79749
 15  8 23  0 57  0.0000000  0  9G05G07G28G02G20G15G09G30G13
  20686562.906 9 108708657.789 9        53.900    20686568.102 9  84708071.89049
        46.800    20686567.31649
  21803928.836 9 114580455.308 9        50.900    21803932.609 8  89283493.01049
        40.700    21803931.94149
  22405519.250 9 117741814.654 9        48.000                    91746893.82348
        33.500    22405522.64148
  24362836.500 5 128027593.675 5        37.000                    99761775.97846
        20.100    24362838.88346
  22979342.266 7 120757256.587 7        44.500                    94096580.11047
        29.900    22979345.77747
  24518604.086 6 128846113.643 6        38.300    24518609.648 6 100399614.66746
        22.600    24518609.39846
  24311339.531 7 127757023.352 7        41.700    24311345.023 6  99550973.40247
        26.700    24311344.35247  24311343.035 3  95403028.396 3        32.600
  20348605.703 9 106932674.072 9        55.800    20348612.820 9  83324199.09749
        48.800    20348612.01649  20348609.289 7  79852352.277 7        42.700
  21766360.734 9 114383024.887 9        51.400                    89129659.08649
        39.300    21766364.23049
 15  8 23  0 57 30.0000000  0  9G05G07G28G02G20G15G09G30G13
  20687330.906 9 108712693.089 9        53.200    20687335.672 9  84711216.27949
        46.600    20687334.84049
  21817794.484 9 114653322.055 9        50.100    21817798.328 8  89340272.28649
        40.600    21817798.05949
  22390736.352 9 117664128.151 9        48.800                    91686358.89949
        34.500    22390739.05549
  24380123.703 6 128118429.571 6        39.900                    99832557.11946
        22.600    24380124.23846
  22963204.398 8 120672451.244 8        46.300                    94030498.04548
        30.600    22963208.01648
  24500144.570 6 128749103.068 6        40.200    24500149.027 6 100324022.07546
        24.100    24500148.64846
  24329038.047 6 127850033.940 6        39.800    24329044.793 7  99623449.16347
        26.900    24329044.17647  24329042.680 3  95472484.336 3        32.100
  20352866.773 9 106955065.892 9        55.300    20352873.887 9  83341647.26649
        48.600    20352873.20349  20352870.473 7  79869073.445 7        43.000
  21752728.289 9 114311387.006 9        50.800                    89073837.36949
        39.100    21752731.62149
 15  8 23  0 58  0.0000000  0  9G05G07G28G02G20G15G09G30G13
  20688208.695 9 108717304.621 9        53.800    20688213.559 9  84714809.67649
        46.700    20688212.55949
  21831709.836 9 114726448.081 9        50.500    21831713.414 8  89397253.59749
        40.200    21831713.19149
  22376019.148 9 117586790.239 9        48.300                    91626095.59749
        34.400    22376022.47749
  24397418.781 6 128209320.352 6        38.100                    99903381.15045
        19.000    24397419.63745
  22947133.094 8 120587995.843 8        46.000                    93964688.64448
        30.200    22947136.36348
  24481693.992 6 128652141.157 6        40.400    24481698.891 6 100248467.38146
        22.900    24481697.51646
  24346756.195 6 127943144.338 6        38.500    24346762.879 6  99696002.71946
        24.700    24346761.97746  24346760.191 3  95542014.815 3        32.100
  20357215.250 9 106977917.140 9        55.300    20357222.191 9  83359453.43249
        48.400    20357221.32449  20357218.770 7  79886137.685 7        42.800
  21739135.906 9 114239958.104 9        51.800                    89018178.48749
        39.500    21739139.12149
 15  8 23  0 58 30.0000000  0  9G05G07G28G02G20G15G09G30G13
  20689195.523 9 108722492.281 9        54.100    20689200.461 9  84718852.01049
        46.700    20689199.72749
  21845674.523 9 114799831.475 9        51.800    21845678.711 8  89454435.46449
        41.300    21845678.05149
  22361369.070 9 117509803.513 9        48.100                    91566105.94649
        35.100    22361372.75449
  24414724.781 5 128300263.726 5        37.400                    99974246.02646
        21.100    24414726.75046
  22931128.984 8 120503892.859 8        45.700                    93899153.87048
        30.200    22931132.38348
  24463251.367 6 128555228.632 6        39.800    24463255.977 6 100172951.14746
        22.500    24463255.76646
  24364493.430 6 128036353.954 6        38.600    24364499.902 6  99768633.58747
        25.700    24364499.23047  24364497.441 1  95611619.392 1        30.800
  20361650.813 9 107001226.498 9        55.000    20361657.656 9  83377616.56749
        48.400    20361656.91849  20361654.129 7  79903544.024 7        43.000
  21725583.367 9 114168739.416 9        51.300                    88962683.41149
        39.000    21725586.86349
 15  8 23  0 59  0.0000000  0  9G05G07G28G02G20G15G09G30G13
  20690292.281 9 108728255.884 9        54.000    20690296.934 9  84723343.12249
        46.700    20690296.24649
  21859687.563 9 114873470.239 9        50.900    21859691.520 8  89511816.31849
        40.600    21859690.64149
  22346786.250 9 117433170.295 9        48.800                    91506391.77649
        34.800    22346790.05549
  24432039.109 5 128391256.108 5        36.300                   100045149.12646
        20.100    24432041.72746
  22915191.469 8 120420144.520 8        45.300                    93833895.42748
        30.500    22915195.44548
  24444818.813 6 128458366.576 6        39.200    24444824.121 6 100097474.24846
        24.600    24444823.76646
  24382249.617 6 128129661.928 6        39.200    24382256.371 7  99841341.07347
        27.100    24382256.19947  24382253.180 1  95681297.413 1        30.000
  20366173.188 9 107024992.538 9        55.900    20366180.109 9  83396135.56449
        48.600    20366179.19949  20366176.527 7  79921291.394 7        43.000
  21712071.188 9 114097731.721 9        52.400                    88907352.75249
        39.300    21712074.10249
 15  8 23  0 59 30.0000000  0  9G05G07G28G02G20G15G09G30G13
  20691498.914 9 108734595.921 9        54.500    20691503.508 9  84728283.40649
        46.900    20691503.12149
  21873748.930 9 114947362.698 9        51.900    21873752.887 8  89569394.84649
        40.800    21873752.16849
  22332270.953 9 117356893.314 9        48.900                    91446955.17049
        34.900    22332274.75449
  24449363.578 6 128482294.731 6        39.500                   100116088.30246
        20.900    24449365.75046
  22899323.461 8 120336753.438 8        46.500                    93768915.37448
        30.600    22899326.71148
  24426396.797 6 128361556.080 6        39.200    24426400.965 6 100022037.52246
        24.300    24426400.66846
  24400023.805 6 128223067.723 6        39.100    24400031.043 7  99914124.79747
        25.500    24400030.60247  24400028.168 2  95751048.478 2        31.600
  20370782.586 9 107049214.024 9        55.900    20370789.777 9  83415009.44549
        48.500    20370788.75049  20370786.258 7  79939378.862 7        43.200
  21698598.859 9 114026936.180 9        52.300                    88852187.40349
        39.100    21698602.21949
 15  8 23  1  0  0.0000000  0  9G05G07G28G02G20G15G09G30G13
  20692815.406 9 108741513.382 9        54.100    20692819.699 9  84733673.62949
        46.800    20692819.22349
  21887858.188 9 115021507.348 9        51.900    21887862.000 8  89627169.90249
        39.900    21887861.13749
  22317824.461 9 117280975.236 9        49.300                    91387798.23649
        34.700    22317827.43849
  24466696.328 6 128573376.712 6        38.800                   100187061.24246
        22.800    24466698.85546
  22883523.172 8 120253722.453 8        45.600                    93704215.92748
        30.000    22883526.59448
  24407983.844 6 128264797.999 6        38.600    24407989.137 6  99946641.67847
        25.300    24407988.87947
  24417816.961 6 128316571.032 6        40.200    24417823.930 7  99986984.51847
        26.700    24417823.93047  24417821.379 2  95820872.361 2        31.700
  20375477.945 9 107073889.952 9        55.000    20375484.711 9  83434237.44349
        48.300    20375484.08649  20375481.590 7  79957805.694 7        42.700
  21685167.828 9 113956354.212 9        52.700                    88797188.47449
        39.500    21685171.40249
 15  8 23  1  0 30.0000000  0  9G05G07G28G02G20G15G09G30G13
  20694241.766 9 108749007.807 9        54.100    20694246.438 9  84739513.44149
        47.300    20694245.76649
  21902014.344 9 115095901.942 9        51.000    21902018.734 8  89685139.71249
        40.400    21902017.98049
  22303446.203 9 117205418.069 9        49.100                    91328922.53749
        35.300    22303450.19949
  24484036.023 6 128664499.159 6        39.600                   100258065.65546
        22.300    24484038.29746
  22867791.422 8 120171053.673 8        46.100                    93639798.70848
        31.200    22867795.19148
  24389582.375 6 128168093.383 6        39.700    24389586.980 6  99871287.44347
        25.800    24389586.09447
  24435628.461 6 128410170.858 6        40.200    24435635.570 7 100059919.40447
        25.700    24435635.02747  24435633.063 2  95890768.314 2        31.400
  20380260.258 9 107099018.642 9        55.400    20380267.137 9  83453818.24549
        48.300    20380266.46949  20380263.855 7  79976570.626 7        43.000
  21671777.109 9 113885986.477 9        52.400                    88742356.47849
        39.800    21671781.05549
 15  8 23  1  1  0.0000000  0  9G05G07G28G02G20G15G09G30G13
  20695777.594 9 108757079.209 9        54.300    20695782.023 9  84745802.83849
        47.000    20695781.52749
  21916218.781 9 115170544.912 9        50.700    21916222.441 8  89743303.05149
        40.300    21916222.19949
  22289137.469 9 117130224.287 9        48.200                    91270329.99049
        34.900    22289141.39849
  24501383.930 7 128755659.014 7        41.200                   100329099.34946
        22.800    24501385.19146
  22852129.867 8 120088749.855 8        46.400                    93575665.85848
        30.900    22852133.17648
  24371190.133 6 128071443.274 6        39.600    24371194.836 6  99795975.69247
        25.900    24371194.29347
  24453458.617 6 128503866.563 6        40.200    24453464.953 6 100132929.06446
        24.800    24453464.30146  24453462.512 1  95960735.885 1        30.400
  20385127.563 9 107124598.843 9        55.200    20385134.609 9  83473750.86849
        48.300    20385133.68049  20385130.891 7  79995672.725 7        42.600
  21658427.242 9 113815834.003 9        52.000                    88687692.22449
        39.200    21658430.95749
 15  8 23  1  1 30.0000000  0  9G05G07G28G02G20G15G09G30G13
  20697423.242 9 108765727.703 9        54.500    20697427.773 9  84752541.91849
        46.800    20697427.20749
  21930469.930 9 115245434.294 9        51.400    21930473.672 8  89801658.41449
        39.400    21930473.02749
  22274898.234 9 117055396.264 9        48.300                    91212022.45049
        35.200    22274901.83249
  24518736.617 5 128846853.363 5        36.900                   100400159.83246
        22.600    24518739.94146
  22836537.445 8 120006813.302 8        46.200                    93511819.22248
        30.700    22836541.07848
  24352809.188 6 127974848.498 6        39.800    24352814.074 6  99720707.10947
        25.600    24352813.25847
  24471306.125 6 128597657.635 6        40.900    24471312.906 7 100206013.00447
        25.100    24471312.21547  24471310.430 2  96030774.656 2        31.800
  20390081.023 9 107150629.230 9        54.900    20390088.141 9  83494034.28849
        48.100    20390087.05549  20390084.500 7  80015110.994 7        43.500
  21645119.047 9 113745898.018 9        52.400                    88633196.66249
        39.400    21645122.74249
 15  8 23  1  2  0.0000000  0  9G05G07G28G02G20G15G09G30G13
  20699178.914 9 108774953.353 9        53.900    20699183.145 9  84759730.73349
        47.000    20699182.30949
  21944767.031 9 115320568.284 9        50.900    21944771.598 8  89860204.37749
        39.700    21944770.88749
  22260729.234 9 116980936.770 9        49.000                    91154002.07049
        35.400    22260732.42649
  24536097.219 6 128938079.166 6        40.300                   100471244.83346
        24.700    24536099.23446
  22821015.648 8 119925246.521 8        45.100                    93448260.70348
        31.300    22821019.40248
  24334438.633 6 127878310.179 6        40.400    24334442.824 6  99645482.47947
        26.600    24334442.32447
  24489172.773 7 128691543.294 7        41.900    24489178.930 6 100279170.63747
        25.400    24489178.74247  24489176.895 1  96100884.070 1        30.200
  20395119.898 9 107177108.391 9        55.500    20395127.063 9  83514667.39849
        48.100    20395126.19149  20395123.578 7  80034884.394 7        43.000
  21631852.367 9 113676179.612 9        52.800                    88578870.63749
        40.000    21631855.69949
 15  8 23  1  2 30.0000000  0  9G05G07G28G02G20G15G09G30G13
  20701044.258 9 108784756.453 9        54.300    20701048.816 9  84767369.50549
        47.200    20701048.35249
  21959111.055 9 115395945.288 9        50.900    21959115.445 8  89918939.70349
        39.500    21959114.93449
  22246630.461 9 116906847.902 9        49.600                    91096270.51049
        35.300    22246633.93449
  24553461.672 5 129029333.701 5        37.600                   100542352.30346
        21.300    24553463.89546
  22805565.336 8 119844052.105 8        46.000                    93384992.33648
        31.200    22805568.47748
  24316078.469 6 127781829.142 6        38.800    24316083.008 6  99570302.48846
        24.900    24316081.89846
  24507055.664 7 128785523.049 7        41.400    24507062.418 7 100352401.61147
        25.100    24507062.16847  24507059.973 2  96171063.765 2        31.200
  20400244.109 9 107204035.079 9        55.500    20400250.711 9  83535649.23349
        48.200    20400249.83249  20400247.395 7  80054991.986 7        43.300
  21618626.898 9 113606679.945 9        52.900                    88524715.05749
        39.500    21618630.25449
 15  8 23  1  3  0.0000000  0  9G05G07G28G02G20G15G09G30G13
  20703019.773 9 108795136.910 9        54.100    20703023.648 9  84775458.17049
        47.000    20703023.29349
  21973500.641 9 115471563.263 9        50.500    21973505.051 8  89977862.79749
        39.400    21973504.40249
  22232602.672 9 116833132.293 9        48.000                    91038829.77749
        35.900    22232606.07449
  24570831.828 5 129120614.119 5        37.600                   100613479.82846
        23.600    24570834.78546
  22790185.047 7 119763232.515 7        44.700                    93322016.03348
        31.200    22790189.14548
  24297729.289 6 127685406.444 6        38.400    24297733.914 6  99495167.93247
        25.800    24297733.59047
  24524957.852 6 128879596.173 6        40.900    24524964.227 6 100425705.33646
        24.200    24524964.22346  24524962.141 1  96241313.148 1        30.800
  20405452.961 9 107231407.939 9        54.700    20405459.805 9  83556978.73849
        48.300    20405458.95749  20405456.168 7  80075432.765 7        42.800
  21605443.180 9 113537400.105 9        51.800                    88470730.77249
        40.500    21605447.10249
 15  8 23  1  3 30.0000000  0  9G05G07G28G02G20G15G09G30G13
  20705104.820 9 108806094.586 9        53.800    20705109.480 9  84783996.61049
        46.700    20705108.88749
  21987935.859 9 115547420.671 9        50.200    21987940.301 8  90036972.45349
        39.600    21987939.60249
  22218646.711 9 116759792.378 9        48.600                    90981681.81049
        35.700    22218650.00049
  24588206.133 5 129211917.096 5        36.700                   100684624.96646
        21.500    24588209.07046
  22774877.688 8 119682790.118 8        45.000                    93259333.66048
        30.700    22774880.96948
  24279392.258 6 127589043.025 6        38.700    24279396.453 6  99420079.57646
        23.200    24279396.34046
  24542876.297 7 128973761.997 7        41.000    24542882.352 6 100499081.31646
        24.700    24542881.94946  24542880.457 2  96311631.781 2        31.000
  20410746.250 9 107259225.469 9        55.000    20410753.277 9  83578654.73249
        48.300    20410752.28949  20410749.680 7  80096205.586 7        43.000
  21592301.266 9 113468340.776 9        51.200                    88416918.32049
        39.900    21592305.09449
 15  8 23  1  4  0.0000000  0 10G05G07G21G28G02G20G15G09G30G13
  20707299.523 9 108817629.472 9        52.800    20707303.898 9  84792984.82849
        47.000    20707303.17249
  22002416.484 9 115623515.441 9        50.400    22002420.527 8  90096267.06349
        39.600    22002419.67249
  25958811.781 5 136414475.90815        37.800

  22204762.414 9 116686830.455 9        49.300                    90924828.36249
        36.000    22204765.77749
  24605585.023 6 129303239.835 6        38.300                   100755785.58846
        20.600    24605586.80946
  22759642.383 7 119602727.375 7        44.600                    93196947.10548
        31.400    22759645.51248
  24261066.313 6 127492739.978 6        39.300    24261071.121 6  99345038.28447
        26.000    24261070.53547
  24560813.359 6 129068019.821 6        40.100    24560819.410 6 100572528.96546
        24.200    24560818.64846  24560816.859 1  96382019.110 1        30.000
  20416124.070 9 107287486.201 9        55.100    20416131.359 9  83600676.08349
        48.400    20416130.48849  20416127.816 7  80117309.387 7        43.300
  21579202.703 9 113399503.329 9        52.500                    88363278.75149
        40.000    21579205.88749
 15  8 23  1  4 30.0000000  0 10G05G07G21G28G02G20G15G09G30G13
  20709604.484 9 108829741.996 9        52.300    20709608.957 9  84802423.15649
        47.000    20709608.53949
  22016941.398 9 115699845.998 9        49.400    22016945.848 8  90155745.41749
        39.200    22016945.00049
  25950354.352 4 136370032.154 4        34.600                   106262365.32355
        15.600    25950355.04345
  22190951.133 9 116614248.881 9        48.900                    90868271.30649
        36.300    22190954.27749
  24622966.055 6 129394579.714 6        38.400                   100826959.52746
        22.900    24622968.21146
  22744479.609 7 119523046.876 7        44.400                    93134858.43248
        30.700    22744482.59048
  24242751.609 6 127396498.405 6        39.500    24242756.797 5  99270044.87746
        22.500    24242755.60946
  24578766.797 6 129162369.174 6        40.200    24578774.230 7 100646047.94547
        25.800    24578773.64147  24578771.621 1  96452474.821 1        30.700
  20421586.141 9 107316189.021 9        55.400    20421593.199 9  83623041.92549
        48.000    20421592.45349  20421589.488 7  80138743.313 7        42.200
  21566145.492 9 113330889.060 9        51.900                    88309813.09249
        40.100    21566149.51649
 15  8 23  1  5  0.0000000  0 10G05G07G21G28G02G20G15G09G30G13
  20712019.398 9 108842431.605 9        52.700    20712023.867 9  84812311.15849
        47.100    20712023.38349
  22031511.391 9 115776410.318 9        49.500    22031514.961 8  90215405.92349
        39.000    22031514.28949
  25941971.516 2 136325989.100 2        31.500                   106228046.04145
        15.600    25941974.96145
  22177211.594 9 116542049.858 9        49.200                    90812012.34349
        35.800    22177215.35549
  24640349.852 5 129485933.640 5        36.300                   100898144.35046
        20.900    24640352.44546
  22729390.539 8 119443751.212 8        45.100                    93073069.61648
        31.600    22729393.18848
  24224449.367 6 127300319.161 6        39.900    24224454.566 6  99195100.03347
        25.500    24224453.68447
  24596738.719 6 129256809.153 6        40.400    24596745.258 7 100719637.54546
        24.000    24596745.15246  24596742.895 2  96522998.181 2        31.000
  20427131.844 9 107345332.291 9        55.000    20427139.008 9  83645750.96549
        48.100    20427138.01649  20427135.285 7  80160506.144 7        42.300
  21553131.563 9 113262498.868 9        52.100                    88256522.04749
        40.200    21553135.25849
 15  8 23  1  5 30.0000000  0 10G05G07G21G28G02G20G15G09G30G13
  20714544.125 9 108855698.438 9        52.500    20714548.734 9  84822648.94849
        46.600    20714547.98449
  22046125.242 9 115853207.026 9        49.000    22046129.246 8  90275247.52149
        39.300    22046128.83649
  25933668.203 3 136282347.97913        33.200                   106194040.05955
        15.600    25933671.38345
  22163546.016 9 116470235.905 9        49.000                    90756053.42349
        36.200    22163549.48849
  24657735.867 5 129577298.578 5        37.900                   100969337.81346
        20.600    24657738.48446
  22714374.633 7 119364842.540 7        44.500                    93011582.33348
        32.400    22714377.78948
  24206159.984 7 127204203.414 7        43.000    24206164.637 6  99120204.68447
        27.000    24206163.74647
  24614726.820 6 129351339.367 6        39.500    24614734.047 6 100793297.41246
        23.200    24614733.70746  24614731.918 2  96593588.894 2        31.100
  20432761.227 9 107374914.770 9        55.000    20432768.512 9  83668802.25049
        48.000    20432767.69949  20432764.969 7  80182596.966 7        42.600
  21540160.180 9 113194333.881 9        52.300                    88203406.48249
        40.200    21540163.71949
 15  8 23  1  6  0.0000000  0 10G05G07G21G28G02G20G15G09G30G13
  20717178.461 9 108869542.052 9        52.900    20717182.945 9  84833436.16949
        46.800    20717182.29749
  22060783.320 9 115930233.855 9        48.900    22060787.520 8  90335268.41949
        39.300    22060786.97749
  25925440.461 5 136239110.019 5        37.800                   106160348.15445
        19.300    25925444.02045
  22149953.977 9 116398809.412 9        48.100                    90700396.42149
        35.800    22149956.77749
  24675124.453 6 129668671.729 6        38.300                   101040537.71746
        21.800    24675126.09446
  22699432.898 8 119286323.350 8        45.400                    92950398.56548
        31.900    22699436.59048
  24187882.258 7 127108152.091 7        42.300    24187886.031 6  99045359.51547
        27.300    24187885.99647
  24632732.070 6 129445958.928 6        39.500    24632738.980 6 100867026.95546
        22.800    24632738.69946  24632736.793 1  96664246.360 1        30.600
  20438473.781 9 107404934.845 9        55.000    20438481.164 9  83692194.51549
        48.300    20438480.12149  20438477.625 7  80205014.546 7        42.300
  21527231.820 9 113126394.918 9        52.300                    88150467.03049
        40.800    21527235.59849
 15  8 23  1  6 30.0000000  0 10G05G07G21G28G02G20G15G09G30G13
  20719922.633 9 108883962.673 9        52.500    20719926.988 9  84844673.01249
        46.700    20719926.63749
  22075484.094 8 116007489.217 8        47.800    22075488.277 8  90395467.39649
        38.500    22075487.62549
  25917289.625 5 136196276.394 5        36.700                   106126971.29545
        19.300    25917292.64845
  22136435.945 9 116327772.378 9        48.200                    90645042.89349
        36.300    22136439.45749
  24692512.617 5 129760050.082 5        37.700                   101111741.58646
        22.200    24692515.43446
  22684565.688 8 119208196.272 8        45.100                    92889520.32948
        31.200    22684569.16848
  24169615.398 6 127012166.266 6        40.900    24169620.641 6  98970565.39747
        25.600    24169620.40247
  24650754.875 6 129540667.168 6        39.500    24650761.320 6 100940825.57246
        22.900    24650761.46546  24650758.914 1  96734970.026 1        29.800
  20444269.453 9 107435391.089 9        55.200    20444276.566 9  83715926.65749
        47.900    20444275.56649  20444272.953 7  80227757.850 7        42.700
  21514346.820 9 113058683.798 9        51.800                    88097705.12349
        40.900    21514350.47349
 15  8 23  1  7  0.0000000  0  9G05G07G21G28G20G15G09G30G13
  20722776.695 9 108898959.950 9        52.500    20722781.012 9  84856359.19449
        47.000    20722780.46149
  22090228.648 8 116084971.346 8        47.900    22090232.898 8  90455843.07749
        39.400    22090232.23049
  25909215.508 5 136153848.553 5        36.200                   106093910.65145
        17.400    25909219.71145
  22122993.063 8 116257127.598 8        47.900                    90589995.02649
        36.500    22122996.17649
  22669773.844 8 119130463.578 8        45.100                    92828949.40648
        31.600    22669777.07848
  24151363.453 6 126916247.081 6        40.500    24151367.621 6  98895823.19747
        28.100    24151367.21947
  24668794.258 6 129635463.653 6        39.600    24668801.066 6 101014692.97846
        23.900    24668801.13746  24668797.707 1  96805759.618 1        28.600
  20450147.883 9 107466282.197 9        54.900    20450155.043 9  83739997.65249
        48.200    20450154.41449  20450151.684 7  80250825.888 7        43.300
  21501505.172 9 112991201.156 9        51.900                    88045121.24949
        40.900    21501509.12949
 15  8 23  1  7 30.0000000  0  9G05G07G21G28G20G15G09G30G13
  20725740.383 9 108914534.193 9        51.700    20725744.500 9  84868494.95949
        46.900    20725743.91049
  22105016.008 8 116162678.727 8        47.300    22105019.727 8  90516394.28249
        38.900    22105019.23049
  25901218.977 3 136111827.99513        33.700                   106061167.33554
        14.800    25901221.23444
  22109624.523 9 116186877.068 9        48.600                    90535254.35549
        36.700    22109627.93449
  22655057.375 7 119053128.152 7        44.500                    92768688.05648
        32.600    22655060.47348
  24133123.313 7 126820395.867 7        41.400    24133128.344 6  98821133.93947
        25.000    24133127.43847
  24686850.180 6 129730347.793 6        39.600    24686856.973 7 101088628.65346
        23.200    24686856.42646  24686854.168 1  96876614.667 1        29.800
  20456108.953 9 107497606.996 9        54.700    20456115.941 9  83764406.59049
        47.900    20456115.20349  20456112.590 7  80274217.787 7        42.800
  21488707.664 9 112923948.318 9        52.100                    87992716.44949
        41.100    21488710.95749
 15  8 23  1  8  0.0000000  0  9G05G07G21G28G20G15G09G30G13
  20728813.445 9 108930684.944 9        52.600    20728817.914 9  84881079.95449
        46.600    20728817.18449
  22119845.531 9 116240609.445 9        48.400    22119849.984 8  90577119.50549
        38.300    22119849.15249
  25893300.188 4 136070215.19114        34.800

  22096331.625 9 116117022.974 9        48.300                    90480822.61449
        36.500    22096335.18049
  22640416.242 8 118976191.823 8        45.200                    92708737.65148
        31.700    22640419.40248
  24114896.914 7 126724613.282 7        42.100    24114901.309 6  98746498.19547
        27.700    24114900.93047
  24704922.570 6 129825318.756 6        38.200    24704928.977 6 101162631.96846
        21.800    24704928.95346  24704926.930 1  96947534.531 1        30.400
  20462152.039 9 107529363.671 9        55.000    20462158.828 9  83789152.05349
        47.900    20462158.11349  20462155.148 7  80297932.190 7        42.700
  21475953.133 9 112856925.956 9        52.000                    87940491.23649
        41.000    21475956.88749
 15  8 23  1  8 30.0000000  0  9G05G07G21G28G20G15G09G30G13
  20731996.680 9 108947412.089 9        51.600    20732000.938 9  84894114.09049
        46.500    20732000.28149
  22134717.383 8 116318761.691 8        47.500    22134721.359 8  90638017.36449
        38.900    22134720.89549
  25885460.070 5 136029011.689 5        35.900                   105996623.06755
        16.900    25885461.91045
  22083115.086 9 116047567.693 9        48.300                    90426701.62349
        36.900    22083118.16449
  22625852.789 8 118899657.217 8        45.200                    92649100.30648
        31.600    22625855.76648
  24096682.523 7 126628900.443 7        41.400    24096687.801 6  98671916.79647
        27.400    24096687.15247
  24723012.070 6 129920375.919 6        38.600    24723017.316 6 101236702.48946
        21.700    24723017.11346  24723015.563 1  97018518.752 1        30.500
  20468276.930 9 107561550.875 9        54.100    20468284.168 9  83814233.00049
        48.000    20468283.13749  20468280.352 7  80321968.091 7        42.800
  21463243.750 9 112790135.769 9        52.800                    87888446.94449
        40.400    21463247.22749
 15  8 23  1  9  0.0000000  0  9G05G07G21G28G20G15G09G30G13
  20735289.188 9 108964714.868 9        52.200    20735293.488 9  84907596.76549
        46.400    20735292.74249
  22149630.938 8 116397133.583 8        47.300    22149635.016 7  90699086.35249
        38.600    22149634.43049
  25877696.906 5 135988218.222 5        35.400                   105964835.92145
        18.600    25877700.34045
  22069974.320 8 115978513.362 8        46.700                    90372893.06849
        37.300    22069977.30549
  22611365.148 8 118823526.624 8        45.100                    92589777.75948
        32.200    22611368.77048
  24078482.875 7 126533258.193 7        41.300    24078487.590 6  98597390.38847
        27.200    24078487.21547
  24741116.258 5 130015518.336 5        37.600    24741122.406 6 101310839.47746
        21.500    24741121.33246  24741120.129 1  97089566.641 1        29.700
  20474483.570 9 107594166.816 9        54.300    20474490.547 9  83839648.02049
        48.000    20474489.59449  20474486.746 7  80346324.154 7        42.600
  21450578.375 9 112723578.395 9        50.200                    87836584.05849
        41.400    21450581.84849
 15  8 23  1  9 30.0000000  0  9G05G07G21G28G20G15G09G30G13
  20738691.281 9 108982593.109 9        52.600    20738695.828 9  84921527.85349
        46.700    20738695.10949
  22164586.414 8 116475723.183 8        47.900    22164590.410 7  90760325.00349
        38.700    22164589.68449
  25870012.945 4 135947835.979 4        34.200                   105933369.28845
        18.300    25870016.22745
  22056910.086 8 115909862.269 8        47.300                    90319398.71649
        37.600    22056913.25049
  22596955.398 8 118747802.629 8        46.000                    92530772.06148
        32.400    22596958.85548
  24060296.398 7 126437687.662 7        41.300    24060301.094 6  98522919.88247
        26.400    24060300.83647
  24759236.992 5 130110745.393 5        37.900    24759243.914 7 101385042.34646
        22.600    24759243.80946  24759240.789 1  97160677.746 1        28.400
  20480771.688 9 107627210.122 9        55.100    20480778.012 9  83865396.06049
        48.400    20480777.34049  20480774.785 7  80370999.353 7        42.100
  21437957.141 9 112657254.993 9        52.900                    87784903.49349
        40.900    21437960.75049
 15  8 23  1 10  0.0000000  0  9G05G07G21G28G20G15G09G30G13
  20742203.016 9 109001046.964 9        52.800    20742207.754 9  84935907.47749
        46.700    20742206.94149
  22179582.422 8 116554529.243 8        47.300    22179586.414 7  90821732.31649
        37.900    22179585.85949
  25862406.641 4 135907866.431 4        34.900                   105902224.18245
        17.400    25862410.25845
  22043923.836 8 115841616.640 8        47.600                    90266220.31249
        37.200    22043926.77049
  22582624.047 8 118672487.669 8        45.500                    92472085.08648
        31.800    22582626.59448
  24042123.703 7 126342190.110 7        42.000    24042128.184 6  98448506.24047
        28.100    24042127.69947
  24777374.211 6 130206056.682 6        38.000    24777381.656 7 101459310.87946
        24.700    24777382.02046  24777378.301 1  97231851.806 1        28.700
  20487140.500 9 107660679.578 9        54.300    20487147.406 9  83891476.15249
        47.600    20487146.66849  20487143.824 7  80395992.777 7        43.000
  21425381.063 9 112591166.810 9        52.100                    87733406.20449
        40.700    21425384.22349
 15  8 23  1 10 30.0000000  0  9G05G07G21G28G20G15G09G30G13
  20745823.961 9 109020075.704 9        52.500    20745828.379 9  84950735.06449
        46.700    20745828.06349
  22194619.500 8 116633549.759 8        47.900    22194623.574 8  90883306.73849
        39.000    22194622.79749
  25854879.430 3 135868310.47413        33.800                   105871401.38455
        16.900    25854882.66845
  22031014.008 8 115773778.778 8        47.100                    90213359.64849
        37.300    22031017.98049
  22568369.977 8 118597583.974 8        45.500                    92413718.58248
        32.600    22568373.58248
  24023965.086 7 126246766.365 7        43.400    24023969.527 6  98374150.09047
        27.500    24023969.03547
  24795527.445 6 130301451.342 6        39.000    24795534.477 6 101533644.37646
        24.100    24795534.41846  24795531.223 1  97303088.074 1        30.200
  20493590.414 9 107694573.462 9        53.700    20493597.367 9  83917886.98149
        47.700    20493596.53149  20493594.039 7  80421303.155 7        42.700
  21412850.148 9 112525314.952 9        51.400                    87682093.07449
        41.200    21412853.62949
 15  8 23  1 11  0.0000000  0  9G05G07G21G28G20G15G09G30G13
  20749554.297 9 109039679.307 9        51.600    20749558.750 9  84966010.59549
        46.700    20749558.30149
  22209696.711 8 116712782.776 8        46.800    22209701.121 8  90945046.75149
        38.300    22209700.70349
  25847430.984 5 135829168.836 5        37.800                   105840901.38743
        13.900    25847433.07043
  22018183.031 8 115706350.930 8        46.900                    90160818.48349
        37.000    22018186.67649
  22554195.016 8 118523093.977 8        46.400                    92355674.44048
        33.000    22554198.18848
  24005820.898 7 126151417.736 7        42.400    24005825.570 6  98299852.48847
        26.800    24005824.16847
  24813696.719 5 130396928.719 5        37.300    24813702.617 6 101608042.33246
        22.000    24813702.15646  24813699.488 1  97374386.114 1        29.400
  20500120.555 9 107728890.298 9        55.100    20500127.484 9  83944627.37049
        47.700    20500126.82049  20500123.914 7  80446929.363 7        42.600
  21400364.273 9 112459700.818 9        50.200                    87630965.18249
        41.500    21400367.52749
 15  8 23  1 11 30.0000000  0 10G05G07G21G28G08G20G15G09G30G13
  20753394.375 9 109059857.771 9        51.400    20753398.730 9  84981734.05749
        46.700    20753397.98449
  22224814.969 8 116792227.042 8        46.700    22224818.594 7  91006951.35749
        38.700    22224818.22349
  25840062.031 5 135790443.451 5        36.500                   105810725.72745
        16.300    25840063.75445
  22005430.758 9 115639334.954 9        48.400                    90108598.25349
        37.300    22005433.79749
  25268509.289 3 132786907.09613        33.100

  22540098.758 8 118449020.109 8        45.600                    92297954.53348
        33.800    22540102.19548
  23987690.992 7 126056145.543 7        41.300    23987696.043 6  98225614.38947
        28.600    23987694.79347
  24831879.883 5 130492488.574 5        36.800    24831886.828 6 101682504.56746
        21.500    24831886.22346  24831885.141 1  97445745.727 1        29.800
  20506731.156 9 107763628.960 9        55.400    20506737.961 9  83971696.46149
        47.800    20506737.28949  20506734.617 7  80472870.568 7        42.200
  21387923.695 9 112394325.599 9        51.600                    87580023.46049
        42.100    21387927.05549
 15  8 23  1 12  0.0000000  0 10G05G07G21G28G08G20G15G09G30G13
  20757343.469 9 109080610.123 9        50.800    20757348.063 9  84997904.72649
        46.800    20757347.37549
  22239972.492 8 116871880.538 8        47.100    22239976.309 7  91069019.01449
        37.500    22239975.71549
  25832771.875 4 135752134.731 4        34.400                   105780874.78445
        16.900    25832775.21545
  21992756.906 8 115572733.319 8        47.100                    90056700.88749
        37.900    21992760.00449
  25260469.305 4 132744650.771 4        34.400    25260477.789 1 103437444.10711
        27.000
  22526083.500 8 118375365.117 8        46.300                    92240561.04648
        33.100    22526086.28948
  23969575.953 7 125960950.487 7        41.100    23969580.125 6  98151436.49547
        26.600    23969579.18847
  24850079.727 6 130588129.711 6        38.000    24850087.258 6 101757030.13746
        21.100    24850086.45746  24850084.023 1  97517166.060 1        28.700
  20513421.609 9 107798787.425 9        55.200    20513428.258 9  83999092.66849
        48.000    20513427.62149  20513424.895 7  80499125.273 7        42.600
  21375528.539 9 112329190.021 9        49.800                    87529268.46549
        41.100    21375532.28949
 15  8 23  1 12 30.0000000  0 10G05G07G21G28G08G20G15G09G30G13
  20761401.602 9 109101936.270 9        50.600    20761406.301 9  85014522.49449
        47.000    20761405.57849
  22255169.438 8 116951741.722 8        46.700    22255173.934 7  91131248.49649
        37.400    22255173.24649
  25825562.063 4 135714244.02014        34.600                   105751349.54655
        17.400    25825565.24245
  21980162.008 8 115506548.282 8        47.300                    90005128.13549
        37.800    21980165.48449
  25252509.078 3                        32.400

  22512147.195 8 118302130.885 8        46.800                    92183495.41048
        32.500    22512150.05148
  23951475.445 6 125865833.848 6        40.400    23951480.621 6  98077319.65347
        27.700    23951480.16847
  24868295.492 6 130683851.627 6        39.900    24868302.980 6 101831618.65846
        21.800    24868302.53146  24868299.809 1  97588646.714 1        28.000
  20520191.703 9 107834364.519 9        55.400    20520198.660 9  84026815.08149
        47.600    20520197.53549  20520195.273 7  80525692.585 7        42.700
  21363179.656 9 112264295.524 9        51.300                    87478701.32749
        41.700    21363183.00049
 15  8 23  1 13  0.0000000  0 10G05G07G21G28G08G20G15G09G30G13
  20765568.836 9 109123835.621 9        50.900    20765573.355 9  85031586.91349
        46.700    20765572.76249
  22270405.742 8 117031808.712 8        46.400    22270409.875 7  91193638.34949
        38.500    22270409.25849
  25818430.281 5 135676772.126 5        35.400                   105722150.76245
        17.800    25818433.47345
  21967646.945 8 115440781.929 8        47.600                    89953881.63849
        37.600    21967650.44949
  25244628.969 1 132661416.963 1        29.400

  22498291.156 8 118229319.602 8        46.700                    92126759.33748
        32.300    22498294.51648
  23933390.867 7 125770796.569 7        41.000    23933395.418 6  98003264.66047
        28.800    23933394.66047
  24886526.555 6 130779653.597 6        39.000    24886533.051 6 101906269.53446
        22.600    24886532.91846  24886529.898 1  97660187.175 1        28.400
  20527041.328 9 107870358.570 9        55.500    20527048.195 9  84054862.39749
        47.600    20527047.32849  20527044.715 7  80552571.264 7        42.300
  21350876.563 9 112199643.134 9        50.600                    87428322.84849
        42.000    21350880.45749
 15  8 23  1 13 30.0000000  0 10G05G07G21G28G08G20G15G09G30G13
  20769845.234 9 109146307.845 9        51.200    20769849.625 9  85049097.72749
        46.700    20769848.97749
  22285680.531 8 117112079.869 8        47.400    22285684.895 8  91256187.29849
        37.300    22285684.28149
  25811379.398 3 135639720.27413        33.800                   105693279.13755
        16.300    25811382.17245
  21955212.328 8 115375436.103 8        47.400                    89902962.81549
        37.900    21955215.53949
  25236834.898 1 132620443.60611        28.900    25236840.066 1 103340633.19811
        24.000
  22484516.680 8 118156933.992 8        46.900                    92070354.97048
        32.900    22484520.05148
  23915321.328 6 125675839.919 6        40.900    23915326.063 6  97929272.49547
        29.000    23915325.22747
  24904771.492 5 130875535.005 5        37.500    24904778.270 6 101980982.31046
        22.600    24904778.22746  24904775.973 1  97731786.938 1        28.600
  20533969.570 9 107906768.011 9        55.700    20533976.836 9  84083233.39549
        47.600    20533975.76649  20533973.328 7  80579760.138 7        42.500
  21338620.133 9 112135233.991 9        50.100                    87378133.90949
        41.500    21338623.78149
 15  8 23  1 14  0.0000000  0  9G05G07G21G28G20G15G09G30G13
  20774230.594 9 109169352.271 9        50.500    20774234.945 9  85067054.41949
        46.400    20774234.32849
  22300994.383 8 117192553.448 8        47.500    22300998.531 7  91318893.96949
        36.800    22300998.15649
  25804410.117 3 135603089.373 3        33.700                   105664735.61345
        16.900    25804412.29745
  21942857.992 8 115310513.079 8        47.900                    89852373.46049
        37.600    21942861.45749
  22470824.164 8 118084976.397 8        47.800                    92014284.13048
        32.600    22470826.93848
  23897267.164 7 125580965.015 7        41.300    23897271.930 6  97855344.02447
        28.500    23897270.83247
  24923032.164 5 130971495.150 5        36.400    24923038.754 5 102055756.41045
        19.900    24923037.62145  24923037.180 1  97803445.449 1        29.200
  20540976.844 9 107943591.390 9        55.400    20540983.773 9  84111926.94249
        47.500    20540982.91049  20540980.121 7  80607258.116 7        42.100
  21326409.883 9 112071069.359 9        50.200                    87328135.49949
        41.400    21326413.04749
 15  8 23  1 14 30.0000000  0  9G05G07G21G28G20G15G09G30G13
  20778724.398 9 109192968.454 9        50.800    20778729.012 9  85085456.62949
        46.300    20778728.23049
  22316346.484 8 117273227.627 8        47.200    22316350.391 7  91381756.96249
        37.000    22316349.69949
  25797519.063 5 135566880.03615        36.200                   105636520.51855
        15.600    25797521.92645
  21930584.359 8 115246015.174 8        47.800                    89802115.35849
        38.600    21930587.57049
  22457212.914 8 118013449.097 8        46.700                    91958548.57448
        33.700    22457216.66448
  23879229.266 7 125486172.920 7        42.100    23879233.422 6  97781480.08447
        28.200    23879232.21947
  24941307.875 5 131067533.208 5        37.300    24941314.578 6 102130591.28246
        21.100    24941314.11346  24941312.383 1  97875162.158 1        29.300
  20548062.438 9 107980826.993 9        55.200    20548069.488 9  84140941.69549
        47.600    20548068.66049  20548066.047 7  80635063.925 7        42.500
  21314246.469 9 112007150.148 9        51.100                    87278328.32049
        41.600    21314249.92649
 15  8 23  1 15  0.0000000  0  9G05G07G21G28G20G15G09G30G13
  20783327.375 9 109217156.330 9        51.400    20783331.969 9  85104304.31949
        46.300    20783331.28949
  22331735.828 9 117354100.611 9        48.400    22331740.047 7  91444774.86449
        37.300    22331739.11749
  25790710.047 5 135531093.771 5        37.300                   105608635.13345
        17.400    25790711.92245
  21918392.570 9 115181944.396 9        49.600                    89752190.08749
        37.500    21918395.50849
  22443683.906 8 117942354.265 8        47.000                    91903150.00448
        33.800    22443687.62548
  23861206.102 7 125391464.706 7        41.600    23861210.859 6  97707681.47947
        27.600    23861209.69947
  24959597.758 6 131163648.739 6        38.000    24959604.492 6 102205486.50946
        21.500    24959603.94946  24959602.398 1  97946936.737 1        29.400
  20555226.508 9 108018473.482 9        55.200    20555233.250 9  84170276.63049
        47.300    20555232.50849  20555229.836 7  80663176.568 7        42.100
  21302130.039 9 111943477.561 9        50.000                    87228713.32249
        42.000    21302133.47349
 15  8 23  1 15 30.0000000  0  9G05G07G21G28G20G15G09G30G13
  20788038.742 9 109241915.246 9        51.900    20788043.145 9  85123596.97649
        46.300    20788042.49249
  22347162.875 8 117435171.053 8        47.200    22347166.801 7  91507946.63349
        37.200    22347166.20749
  25783980.836 5 135495731.545 5        36.000                   105581080.12845
        15.600    25783983.40645
  21906281.219 9 115118302.778 9        49.300                    89702599.21949
        38.600    21906284.71949
  22430237.695 8 117871694.529 8        46.700                    91848090.47448
        33.700    22430241.43448
  23843200.281 7 125296841.671 7        41.600    23843204.547 6  97633949.27547
        27.900    23843204.11747
  24977902.820 5 131259841.098 5        36.500    24977909.285 6 102280441.61546
        21.500    24977908.69146  24977906.141 1  98018768.717 1        27.700
  20562468.094 9 108056529.388 9        55.400    20562475.359 9  84199930.58149
        47.400    20562474.86349  20562472.133 7  80691594.935 7        42.100
  21290060.648 9 111880053.267 9        51.600                    87179291.80049
        41.300    21290064.51249
 15  8 23  1 16  0.0000000  0  9G05G07G21G28G20G15G09G30G13
  20792858.711 9 109267244.028 9        51.300    20792863.320 9  85143333.68949
        46.400    20792862.64549
  22362627.461 9 117516437.029 9        48.000    22362631.887 7  91571270.74849
        37.000    22362631.01649
  25777332.414 5 135460793.818 5        37.200                   105553855.91445
        16.900    25777334.23045
  21894252.750 9 115055091.989 9        48.000                    89653344.07249
        38.600    21894256.13749
  22416875.273 9 117801472.160 9        48.100                    91793371.74848
        33.900    22416878.43048
  23825210.625 7 125202304.969 7        42.500    23825215.039 7  97560284.33647
        28.700    23825215.00047
  24996221.055 5 131356109.284 5        35.200    24996229.066 6 102355455.78346
        21.700    24996227.73446  24996225.477 1  98090657.326 1        27.100
  20569787.563 9 108094992.819 9        55.000    20569794.230 9  84229902.09149
        47.200    20569793.53949  20569790.984 7  80720317.632 7        42.800
  21278038.844 9 111816878.073 9        50.800                    87130064.38149
        41.800    21278042.37549
 15  8 23  1 16 30.0000000  0  9G05G07G21G28G20G15G09G30G13
  20797787.086 9 109293143.058 9        51.100    20797791.406 9  85163514.74149
        46.400    20797790.99649
  22378128.898 9 117597896.876 9        48.300    22378132.941 7  91634745.95149
        37.000    22378132.60949
  25770764.242 5 135426281.482 5        37.000                   105526963.17945
        17.400    25770767.67645
  21882306.250 9 114992314.663 9        48.700                    89604426.68749
        38.000    21882310.20349
  22403595.508 8 117731689.014 8        47.100                    91738995.28948
        33.600    22403598.92248
  23807238.516 7 125107855.591 7        42.100    23807241.719 7  97486687.43847
        28.900    23807242.14547
  25014555.297 5 131452452.872 5        36.200    25014562.473 6 102430528.65946
        21.800    25014562.18446  25014559.637 1  98162602.183 1        29.300
  20577184.180 9 108133862.397 9        55.700    20577191.172 9  84260190.08149
        47.400    20577190.35249  20577187.855 7  80749343.624 7        42.200
  21266064.352 9 111753953.105 9        51.100                    87081031.94549
        41.800    21266068.17249
 15  8 23  1 17  0.0000000  0  9G05G07G21G28G20G15G09G30G13
  20802824.172 9 109319611.007 9        52.100    20802828.031 9  85184139.11249
        46.500    20802827.21549
  22393666.742 9 117679548.905 9        48.900    22393670.641 7  91698370.90449
        36.500    22393670.23049
  25764277.797 5 135392195.798 5        35.600                   105500402.88445
        16.900    25764280.76245
  21870443.648 9 114929972.691 9        48.900                    89555848.53649
        38.500    21870447.19149
  22390400.336 8 117662347.889 8        47.400                    91684963.25448
        33.100    22390403.54348
  23789281.414 7 125013494.728 7        41.600    23789285.613 6  97413159.53047
        29.300    23789285.45347
  25032904.047 5 131548871.138 5        36.400    25032909.996 6 102505659.79345
        19.900    25032909.53945  25032908.512 1  98234602.826 1        29.400
  20584657.625 9 108173136.595 9        54.500    20584664.844 9  84290793.35249
        47.100    20584663.77349  20584661.336 7  80778671.762 7        42.300
  21254138.039 9 111691279.557 9        52.500                    87032195.41949
        42.100    21254141.66849
 15  8 23  1 17 30.0000000  0  9G05G07G21G28G20G15G09G30G13
  20807968.727 9 109346647.795 9        52.000    20807972.957 9  85205206.73449
        46.400    20807972.18449
  22409240.867 9 117761391.720 9        48.900    22409245.113 8  91762144.51449
        36.300    22409244.57449
  25757873.172 5 135358538.05515        35.100                   105474176.07355
        17.400    25757876.12945
  21858663.336 9 114868068.143 9        48.600                    89507611.23449
        37.800    21858667.07449
  22377289.961 8 117593450.868 8        47.700                    91631277.26349
        34.200    22377293.00449
  23771342.102 7 124919223.958 7        41.800    23771345.980 6  97339701.80547
        28.400    23771344.94947
  25051265.375 5 131645363.470 5        37.600    25051272.121 6 102580848.66146
        20.400    25051271.78946  25051269.941 1  98306658.801 1        29.100
  20592208.023 9 108212813.945 9        55.700    20592215.035 9  84321710.77149
        47.000    20592213.97349  20592211.422 7  80808300.947 7        42.900
  21242260.281 9 111628858.979 9        52.200                    86983556.00549
        41.500    21242263.53549
 15  8 23  1 18  0.0000000  0  9G05G07G21G28G20G15G09G30G13
  20813221.914 9 109374252.475 9        52.900    20813225.949 9  85226716.86549
        46.400    20813225.55549
  22424850.547 9 117843423.186 9        48.900    22424854.891 7  91826065.12449
        36.700    22424854.59049
  25751550.305 5 135325308.38215        36.800                   105448282.83855
        19.000    25751553.12945
  21846966.875 8 114806602.550 8        47.600                    89459715.97949
        38.500    21846969.88749
  22364264.328 9 117525000.146 9        48.400                    91577939.04148
        33.800    22364267.27748
  23753420.500 7 124825043.690 7        41.400    23753424.953 6  97266314.61147
        28.900    23753424.14547
  25069641.320 5 131741928.867 5        37.800    25069647.836 6 102656094.39846
        20.900    25069647.52346  25069645.031 1  98378769.289 1        28.700
  20599834.742 9 108252892.511 9        55.300    20599841.660 9  84352940.81949
        47.000    20599840.77749  20599838.105 7  80838229.750 7        42.100
  21230430.063 9 111566692.106 9        51.400                    86935114.29849
        42.000    21230433.63349
 15  8 23  1 18 30.0000000  0  9G05G07G21G28G20G15G09G30G13
  20818582.969 9 109402424.719 9        52.100    20818587.164 9  85248669.25649
        46.300    20818586.83249
  22440496.625 9 117925642.019 9        48.700    22440500.852 7  91890131.74449
        37.100    22440500.62949
  25745307.891 4 135292508.30014        34.300                   105422724.35155
        16.900    25745310.94145
  21835354.211 9 114745578.349 9        48.900                    89412164.66249
        38.400    21835357.72749
  22351323.688 9 117456998.320 9        48.000                    91524950.60848
        33.600    22351326.78948
  23735515.930 7 124730955.713 7        41.800    23735520.117 6  97192999.32147
        29.700    23735519.48047
  25088030.203 5 131838567.147 5        37.300    25088037.559 6 102731396.95145
        19.900    25088037.61345  25088034.066 1  98450934.258 1        27.800
  20607537.766 9 108293371.211 9        55.600    20607544.582 9  84384482.66749
        47.000    20607543.87149  20607541.141 7  80868457.346 7        42.200
  21218648.797 9 111504780.653 9        51.800                    86886871.60549
        42.600    21218652.13749
 15  8 23  1 19  0.0000000  0  9G05G07G21G28G20G15G09G30G13
  20824051.594 9 109431163.462 9        51.900    20824055.910 9  85271063.07849
        46.300    20824055.42649
  22456177.516 9 118008046.551 9        48.600    22456181.934 7  91954343.06049
        36.200    22456181.57049
  25739147.789 5 135260137.94115        36.200                   105397500.69855
        17.800    25739151.34045
  21823826.016 9 114684997.486 9        50.500                    89364958.80149
        38.300    21823829.58249
  22338469.148 9 117389447.204 9        48.500                    91472313.36848
        33.800    22338473.09848
  23717629.000 7 124636960.834 7        41.600    23717633.020 6  97119756.57347
        28.900    23717632.39847
  25106434.328 5 131935277.237 5        37.300    25106441.270 6 102806755.43046
        20.100    25106441.37146  25106438.117 1  98523152.832 1        27.300
  20615316.125 9 108334248.072 9        55.900    20615323.023 9  84416334.77249
        46.900    20615322.20749  20615319.770 7  80898982.279 7        42.200
  21206916.234 9 111443125.281 9        52.800                    86838828.45849
        41.700    21206919.43449
 15  8 23  1 19 30.0000000  0  9G05G07G21G28G20G15G09G30G13
  20829628.148 9 109460468.252 9        52.100    20829632.387 9  85293897.97949
        46.100    20829631.78149
  22471893.297 9 118090634.819 9        48.000    22471898.195 7  92018697.53949
        36.200    22471897.67249
  25733070.367 5 135228198.166 5        35.000                   105372612.52845
        17.800    25733073.35545
  21812382.695 8 114624861.967 8        47.800                    89318099.95949
        38.600    21812386.29349
  22325700.891 9 117322349.244 9        48.100                    91420029.23649
        34.000    22325703.89849
  23699760.445 7 124543060.500 7        41.600    23699765.184 6  97046587.50847
        29.000    23699764.58247
  25124851.273 6 132032058.537 6        38.700    25124857.516 6 102882169.43745
        19.600    25124857.36745  25124854.582 1  98595424.574 1        27.400
  20623170.305 9 108375521.598 9        55.400    20623177.027 9  84448495.96249
        47.000    20623176.21549  20623173.781 7  80929803.424 7        42.300
  21195232.508 9 111381727.263 9        50.200                    86790985.85149
        41.900    21195235.81649
 15  8 23  1 20  0.0000000  0 10G05G07G21G28G08G20G15G09G30G13
  20835312.086 9 109490338.244 9        51.900    20835316.715 9  85317173.28749
        45.900    20835316.03949
  22487644.414 9 118173405.368 9        48.500    22487648.586 7  92083194.06449
        36.200    22487648.04749
  25727074.211 4 135196690.91814        34.200                   105348061.41955
        16.900    25727078.00045
  21801024.477 9 114565173.585 9        49.500                    89271589.54649
        39.000    21801027.87549
  25143087.727 1 132127858.64711        30.700    25143094.465 1 102956760.93211
        27.600
  22313019.227 8 117255706.816 8        47.700                    91368100.08448
        33.600    22313022.08248
  23681909.898 7 124449255.635 7        41.600    23681914.336 6  96973492.82647
        28.700    23681913.74247
  25143280.531 6 132128910.239 6        38.600    25143287.504 6 102957638.28046
        20.400    25143286.72346  25143284.703 1  98667748.884 1        28.100
  20631099.750 9 108417190.155 9        54.900    20631106.922 9  84480964.97549
        46.900    20631105.93449  20631103.613 7  80960919.555 7        42.000
  21183597.891 9 111320587.878 9        51.600                    86743344.77849
        42.100    21183601.53949
 15  8 23  1 20 30.0000000  0 10G05G07G21G28G08G20G15G09G30G13
  20841103.570 9 109520772.752 9        51.300    20841107.793 9  85340888.48649
        46.300    20841107.07449
  22503429.516 8 118256356.631 8        47.200    22503433.891 7  92147831.39249
        36.600    22503433.37149
  25721161.594 5 135165615.710 5        36.200                   105323846.98745
        19.000    25721163.75445
  21789751.523 9 114505934.318 9        48.000                    89225429.08749
        39.400    21789754.76249
  25136475.477 3 132093109.965 3        32.300    25136480.117 1 102929684.016 1
        25.200
  22300424.711 9 117189521.899 9        48.500                    91316527.43049
        34.600    22300428.28949
  23664077.453 7 124355547.524 7        41.600    23664082.309 6  96900473.53447
        29.400    23664081.33647
  25161725.117 6 132225831.895 6        38.900    25161731.984 6 103033161.65845
        19.900    25161731.66845  25161729.527 1  98740125.422 1        28.400
  20639103.875 9 108459252.193 9        55.300    20639110.789 9  84513740.58049
        47.100    20639109.90649  20639107.410 7  80992329.523 7        42.600
  21172013.016 9 111259708.214 9        50.300                    86695906.07949
        42.200    21172016.22749
 15  8 23  1 21  0.0000000  0 10G05G07G21G28G08G20G15G09G30G13
  20847002.719 9 109551771.086 9        51.100    20847007.066 9  85365043.02449
        45.900    20847006.36349
  22519248.523 8 118339486.909 8        47.500    22519252.926 7  92212608.22549
        35.900    22519252.61349
  25715329.078 5 135134973.39515        36.000                   105299969.79655
        17.800    25715333.37945
  21778564.648 9 114447146.232 9        50.000                    89179620.20149
        38.600    21778567.75449
  25129950.391 2 132058820.199 2        31.200    25129953.484 1 102902964.624 1
        26.800
  22287917.563 8 117123796.951 8        47.900                    91265313.17849
        35.000    22287920.41449
  23646264.398 7 124261937.664 7        41.800    23646268.813 6  96827530.80247
        29.300    23646267.87547
  25180181.820 6 132322822.790 6        38.900    25180188.059 6 103108738.95546
        20.600    25180188.53946  25180185.930 1  98812553.684 1        27.900
  20647182.438 9 108501706.224 9        55.000    20647189.516 9  84546821.64649
        47.000    20647188.64549  20647185.973 7  81024032.206 7        42.000
  21160477.578 9 111199089.914 9        50.900                    86648671.04249
        42.600    21160480.89549
 15  8 23  1 21 30.0000000  0 10G05G07G21G28G08G20G15G09G30G13
  20853008.586 9 109583332.347 9        52.100    20853012.391 9  85389636.21049
        45.900    20853011.99649
  22535101.422 8 118422794.296 8        47.000    22535105.887 7  92277523.05349
        35.700    22535105.18049
  25709581.211 5 135104765.359 5        36.700                   105276431.04645
        19.000    25709584.81345
  21767463.656 9 114388811.059 9        48.300                    89134164.22949
        38.700    21767467.45749
  25123511.859 1 132024991.051 1        30.100    25123516.996 1 102876604.250 1
        28.600
  22275499.047 9 117058534.504 9        48.400                    91214459.33349
        34.400    22275501.74649
  23628469.820 7 124168426.899 7        43.100    23628474.328 6  96754665.30247
        28.900    23628473.57447
  25198651.242 6 132419882.063 6        39.200    25198658.473 6 103184369.55446
        21.300    25198657.38746  25198655.305 1  98885032.974 1        28.900
  20655335.453 9 108544550.409 9        55.100    20655342.516 9  84580206.72749
        47.000    20655341.60249  20655339.105 7  81056026.238 7        42.300
  21148992.336 9 111138734.080 9        50.400                    86601640.52749
        42.400    21148996.12549
 15  8 23  1 22  0.0000000  0 10G05G07G21G28G08G20G15G09G30G13
  20859121.078 9 109615455.875 9        51.800    20859125.734 9  85414667.52349
        45.900    20859125.13349
  22550987.938 8 118506277.454 8        47.300    22550992.266 7  92342574.86749
        35.300    22550991.45749
  25703916.875 4 135074992.377 4        34.200                   105253231.33245
        17.800    25703918.88745
  21756449.523 9 114330930.428 9        50.800                    89089062.44849
        38.800    21756452.78149
  25117161.063 1                        29.100

  22263167.828 8 116993736.276 8        47.200                    91163967.20549
        34.900    22263170.78549
  23610694.469 7 124075016.537 7        41.600    23610699.078 6  96681878.01847
        29.100    23610698.03147
  25217133.234 6 132517009.079 6        38.200    25217140.520 6 103260052.93845
        19.900    25217140.16845  25217137.090 1  98957562.894 1        27.100
  20663562.109 9 108587783.242 9        55.100    20663568.691 9  84613894.64949
        47.000    20663567.94149  20663565.270 7  81088310.499 7        42.100
  21137557.000 9 111078641.651 9        52.000                    86554815.25849
        42.800    21137560.85249
 15  8 23  1 22 30.0000000  0  9G05G07G21G28G08G20G15G30G13
  20865341.117 9 109648141.352 9        52.100    20865345.531 9  85440136.72449
        45.800    20865344.80549
  22566907.633 8 118589935.350 8        46.000    22566911.859 7  92407762.82949
        35.500    22566911.37149
  25698333.938 5 135045655.687 5        35.000                   105230371.54445
        17.400    25698336.12945
  21745522.219 9 114273507.213 9        49.900                    89044317.09149
        39.200    21745525.36749
  25110901.047 1 131958723.07411        28.900    25110908.855 3 102824966.94213
        32.600
  22250925.742 8 116929404.913 8        47.500                    91113838.86949
        34.100    22250929.26649
  23592938.328 7 123981708.129 7        42.900    23592943.340 6  96609170.17247
        29.400    23592942.27347
  20671863.352 9 108631403.821 9        55.200    20671870.090 9  84647884.71549
        47.200    20671869.29749  20671866.805 7  81120884.305 7        41.800
  21126172.344 9 111018814.413 9        51.300                    86508196.63949
        42.900    21126176.08649
 15  8 23  1 23  0.0000000  0  8G05G07G21G28G20G15G30G13
  20871667.734 9 109681386.903 9        50.800    20871671.848 9  85466042.33849
        45.900    20871671.29749
  22582860.289 8 118673765.740 8        46.800    22582864.621 7  92473085.19449
        35.500    22582864.41849
  25692834.297 3 135016754.75813        33.300                   105207851.36455
        17.400    25692836.82045
  21734682.023 9 114216542.316 9        49.900                    88999928.87449
        39.200    21734685.59449
  22238773.508 9 116865542.054 9        48.100                    91064075.61149
        34.400    22238775.84849
  23575201.953 7 123888502.782 7        42.900    23575206.984 6  96536542.65747
        29.600    23575206.14847
  20680237.156 9 108675409.581 9        55.000    20680244.113 9  84682174.92349
        46.500    20680243.12149  20680240.684 7  81153745.758 7        42.000
  21114838.320 9 110959252.872 9        51.300                    86461785.05449
        42.300    21114841.97349
 15  8 23  1 23 30.0000000  0  8G05G07G21G28G20G15G30G13
  20878100.641 9 109715192.223 9        51.900    20878105.262 9  85492384.14349
        46.500    20878104.68449
  22598844.813 8 118757767.032 8        46.800    22598848.594 7  92538540.73949
        35.800    22598848.47749
  25687417.242 4 134988290.901 4        34.000                   105185671.76145
        18.300    25687420.50845
  21723929.570 9 114160038.062 9        50.600                    88955899.59249
        39.600    21723932.88749
  22226710.352 8 116802150.338 8        46.700                    91014679.46849
        34.800    22226713.60249
  23557485.133 7 123795401.596 7        42.600    23557489.738 6  96463996.30848
        30.200    23557489.20348
  20688684.164 9 108719799.266 9        54.900    20688690.723 9  84716764.29149
        46.500    20688690.12149  20688687.625 7  81186893.896 7        42.200
  21103554.883 9 110899958.737 9        51.600                    86415581.83649
        42.600    21103558.21149
 15  8 23  1 24  0.0000000  0  8G05G07G21G28G20G15G30G13
  20884639.680 9 109749556.192 9        52.000    20884644.500 9  85519161.25849
        45.700    20884643.99649
  22614862.195 8 118841937.404 8        46.700    22614865.691 7  92604128.03949
        34.800    22614865.46949
  25682084.750 5 134960264.701 5        35.200                   105163833.19145
        19.000    25682088.13345
  21713265.078 9 114103995.952 9        50.300                    88912230.42249
        38.900    21713268.46149
  22214736.969 9 116739231.492 9        48.000                    90965651.78249
        35.000    22214740.24249
  23539788.219 7 123702405.507 7        41.400    23539793.617 7  96391531.84247
        29.000    23539793.26247
  20697203.891 9 108764571.075 9        54.200    20697211.188 9  84751651.41149
        46.500    20697210.52749  20697207.973 7  81220327.391 7        41.500
  21092322.516 9 110840932.799 9        52.100                    86369587.59649
        42.800    21092326.14149
 15  8 23  1 24 30.0000000  0  8G05G07G21G28G20G15G30G13
  20891285.156 9 109784478.109 9        52.300    20891289.438 9  85546373.13149
        46.100    20891289.16049
  22630910.516 8 118926275.289 8        46.000    22630915.094 7  92669845.85949
        34.900    22630914.68849
  25676834.695 3 134932676.80113        33.700                   105142336.09355
        17.800    25676837.85545
  21702689.039 9 114048417.861 9        50.600                    88868922.83149
        39.100    21702692.27749
  22202854.727 8 116676787.813 8        47.400                    90916994.37449
        34.600    22202857.77049
  23522111.930 7 123609516.018 7        43.300    23522116.957 7  96319150.45248
        30.200    23522116.35248
  20705796.203 9 108809723.382 9        55.400    20705803.355 9  84786835.02749
        46.600    20705802.49249  20705799.703 7  81254045.021 7        41.800
  21081141.680 9 110782176.660 9        52.300                    86323803.59049
        42.600    21081144.82449
 15  8 23  1 25  0.0000000  0  8G05G07G21G28G20G15G30G13
  20898036.625 9 109819956.528 9        53.000    20898040.957 9  85574018.64749
        46.000    20898040.49649
  22646991.492 8 119010778.835 8        47.000    22646995.695 7  92735692.75849
        35.000    22646995.27049
  25671667.555 3 134905527.175 3        33.800                   105121180.59345
        16.300    25671670.67645
  21692201.438 9 113993305.146 9        49.900                    88825977.85849
        39.100    21692204.53549
  22191062.688 9 116614821.056 9        48.000                    90868708.58849
        34.900    22191064.90249
  23504456.445 7 123516733.953 7        42.600    23504461.125 7  96246852.75848
        30.400    23504460.54748
  20714460.297 9 108855254.083 9        55.200    20714467.496 9  84822313.49649
        46.500    20714466.65649  20714463.926 7  81288045.222 7        41.800
  21070012.195 9 110723690.876 9        52.100                    86278230.26349
        42.600    21070015.76249
 15  8 23  1 25 30.0000000  0  8G05G07G21G28G20G15G30G13
  20904893.570 9 109855990.881 9        52.700    20904898.328 9  85602097.35849
        45.700    20904897.75449
  22663102.695 8 119095446.745 8        45.900    22663107.281 7  92801667.73849
        34.700    22663106.67249
  25666585.328 4 134878817.386 4        34.800                   105100367.76645
        16.300    25666587.77345
  21681802.758 9 113938660.029 9        50.100                    88783397.26549
        39.300    21681806.58649
  22179362.234 9 116553333.498 9        48.100                    90820796.20249
        35.200    22179365.09849
  23486821.484 7 123424060.961 7        41.900    23486825.672 7  96174640.05447
        29.300    23486825.34047
  20723196.477 9 108901162.009 9        54.800    20723203.742 9  84858085.91749
        46.300    20723202.96549  20723200.473 7  81322327.118 7        41.400
  21058934.563 9 110665477.210 9        52.700                    86232868.96649
        42.900    21058938.46949
 15  8 23  1 26  0.0000000  0  8G05G07G21G28G20G15G30G13
  20911856.523 9 109892580.101 9        53.000    20911860.973 9  85630608.42949
        45.700    20911860.56349
  22679245.516 8 119180277.517 8        46.500    22679249.746 7  92867769.62649
        34.200    22679249.37149
  25661585.656 3 134852547.941 3        33.700                   105079898.06245
        15.600    25661587.71145
  21671493.406 9 113884484.050 9        50.800                    88741182.22649
        39.500    21671497.15249
  22167752.844 9 116492327.403 9        48.300                    90773258.97149
        35.100    22167756.66449
  23469207.836 7 123331498.302 7        43.200    23469212.234 7  96102513.34048
        30.600    23469211.60948
  20732003.961 9 108947445.505 9        54.600    20732010.555 9  84894150.97749
        46.600    20732009.61749  20732007.242 7  81356889.466 7        42.100
  21047908.906 9 110607536.841 9        53.400                    86187720.62749
        43.600    21047912.50449
 15  8 23  1 26 30.0000000  0  8G05G07G21G28G20G15G30G13
  20918924.461 9 109929723.130 9        52.800    20918928.797 9  85659551.04249
        45.800    20918928.14149
  22695419.273 8 119265269.396 8        46.900    22695423.410 7  92933997.04649
        34.400    22695423.15649
  25656671.414 5 134826718.749 5        35.800                   105059771.38245
        15.600    25656672.88345
  21661273.773 9 113830778.803 9        51.100                    88699333.99149
        39.600    21661277.10549
  22156236.055 9 116431804.707 9        48.700                    90726098.43449
        35.400    22156239.53949
  23451614.219 7 123239047.028 7        43.600    23451618.863 7  96030473.38747
        29.800    23451618.26247
  20740882.523 9 108994102.647 9        54.700    20740889.551 9  84930507.19749
        46.400    20740888.78549  20740886.172 7  81391730.841 7        42.100
  21036935.641 9 110549870.661 9        53.700                    86142785.95349
        42.800    21036938.80949
 15  8 23  1 27  0.0000000  0  8G05G07G21G28G20G15G30G13
  20926098.227 9 109967419.464 9        51.800    20926102.379 9  85688924.80449
        45.400    20926101.71149
  22711622.977 8 119350421.236 8        46.800    22711627.320 7  93000349.13349
        35.000    22711626.74249
  25651840.711 5 134801330.804 5        35.400                   105039988.61045
        16.300    25651841.24245
  21651143.648 9 113777546.619 9        49.800                    88657854.37849
        38.900    21651147.04749
  22144811.289 8 116371767.951 8        45.500                    90679316.55449
        34.800    22144814.25849
  23434043.297 7 123146708.773 7        43.700    23434047.703 7  95958521.50248
        30.400    23434047.26648
  20749831.984 9 109041132.491 9        53.900    20749838.445 9  84967153.82249
        46.300    20749837.77049  20749835.215 7  81426850.526 7        41.400
  21026014.617 9 110492480.611 9        51.500                    86098066.43649
        43.400    21026018.13749
 15  8 23  1 27 30.0000000  0  8G05G07G21G28G20G15G30G13
  20933376.344 9 110005667.545 9        53.000    20933380.730 9  85718728.49449
        45.900    20933380.14849
  22727856.930 8 119435730.941 8        46.400    22727861.953 7  93066824.21049
        34.000    22727861.32449
  25647094.219 5 134776384.746 5        36.200                   105020550.06645
        17.800    25647095.93045
  21641104.234 9 113724788.757 9        50.100                    88616744.36749
        39.900    21641107.60949
  22133479.133 9 116312218.792 9        48.500                    90632914.60649
        35.000    22133482.64849
  23416493.266 7 123054484.356 7        43.000    23416497.734 7  95886658.33347
        29.900    23416496.96547
  20758851.844 9 109088532.729 9        55.100    20758858.535 9  85004089.07549
        46.200    20758857.84449  20758855.348 7  81462246.813 7        41.800
  21015145.922 9 110435367.448 9        53.200                    86053562.67149
        43.500    21015149.44149
 15  8 23  1 28  0.0000000  0  8G05G07G21G28G20G15G30G13
  20940759.609 9 110044465.923 9        53.000    20940763.855 9  85748960.99149
        45.800    20940763.15649
  22744120.602 8 119521196.794 8        46.100    22744125.020 7  93133420.96549
        34.200    22744123.99649
  25642430.398 5 134751881.207 5        35.900                   105001456.36945
        17.800    25642433.03145
  21631155.711 9 113672506.354 9        50.200                    88576004.84049
        39.200    21631159.08249
  22122240.469 9 116253158.864 9        49.100                    90586893.87049
        35.100    22122243.39849
  23398965.859 7 122962374.902 7        43.700    23398970.348 7  95814884.77148
        30.600    23398969.70748
  20767941.734 9 109136301.387 9        55.000    20767949.211 9  85041311.41149
        46.100    20767948.42249  20767945.516 7  81497918.217 7        41.600
  21004330.469 9 110378531.662 9        53.200                    86009275.05449
        42.900    21004333.81649
 15  8 23  1 28 30.0000000  0  8G05G07G21G28G20G15G30G13
  20948247.594 9 110083814.517 9        52.900    20948251.754 9  85779622.23049
        45.600    20948251.16049
  22760413.578 8 119606817.983 8        45.900    22760417.715 7  93200138.76948
        33.600    22760417.00848
  25637852.016 5 134727820.733 5        37.100                   104982707.96645
        19.300    25637854.85245
  21621297.266 9 113620702.081 9        50.300                    88535637.88749
        39.600    21621301.18049
  22111095.547 9 116194591.478 9        48.200                    90541256.94449
        35.700    22111099.36349
  23381460.148 7 122870382.486 7        43.900    23381464.508 7  95743202.36248
        31.600    23381464.22748
  20777102.195 9 109184437.864 9        54.300    20777108.992 9  85078820.35449
        46.100    20777108.09049  20777105.359 7  81533864.290 7        42.000
  20993568.234 9 110321976.194 9        53.700                    85965205.86549
        43.200    20993571.73449
 15  8 23  1 29  0.0000000  0  9G05G07G21G28G08G20G15G30G13
  20955839.164 9 110123711.012 9        53.200    20955843.633 9  85810710.39349
        45.500    20955843.08649
  22776736.563 8 119692592.080 8        46.500    22776740.363 7  93266975.70049
        34.200    22776739.70749
  25633358.039 5 134704203.107 5        36.500                   104964304.58945
        18.600    25633360.86345
  21611530.289 9 113569376.695 9        49.900                    88495644.08849
        39.400    21611533.52749
  25037695.820 2 131574010.37912        31.600    25037699.898 1 102525201.75611
        29.400
  22100044.656 9 116136517.225 9        49.000                    90496004.27949
        35.500    22100047.71549
  23363977.102 7 122778507.506 7        43.900    23363981.418 7  95671611.48448
        30.800    23363980.91848
  20786331.383 9 109232939.470 9        54.100    20786338.656 9  85116613.81149
        45.900    20786337.84849  20786335.121 7  81570083.016 7        41.500
  20982859.578 9 110265701.062 9        53.100                    85921355.11749
        42.600    20982863.29349
 15  8 23  1 29 30.0000000  0  9G05G07G21G28G08G20G15G30G13
  20963535.586 9 110164155.733 9        53.300    20963540.098 9  85842225.75049
        45.800    20963539.58649
  22793087.547 8 119778518.344 8        46.100    22793091.695 7  93333931.21849
        34.200    22793091.18049
  25628947.617 5 134681030.049 5        36.500                   104946247.65945
        18.600    25628951.09845
  21601855.016 9 113518532.750 9        50.400                    88456025.44149
        39.500    21601858.12549
  25032703.977 3                        32.800

  22089087.711 9 116078939.130 9        48.800                    90451138.23149
        35.800    22089090.75049
  23346516.461 7 122686752.229 7        44.900    23346520.410 7  95600113.89248
        31.100    23346519.78548
  20795630.430 9 109281805.409 9        54.400    20795637.516 9  85154691.17349
        46.500    20795636.73049  20795634.117 7  81606573.822 7        42.000
  20972204.453 9 110209708.240 9        53.700                    85877724.35649
        43.200    20972208.38749
 15  8 23  1 30  0.0000000  0  8G05G07G21G28G20G15G30G13
  20971336.141 9 110205147.085 9        53.100    20971339.922 9  85874167.05749
        45.500    20971339.75849
  22809467.289 8 119864595.251 8        46.100    22809471.371 7  93401004.12148
        33.900    22809470.68848
  25624620.781 3 134658301.647 3        33.200                   104928537.23645
        15.600    25624625.66445
  21592271.938 9 113468171.615 9        50.400                    88416783.00449
        39.400    21592275.30549
  22078225.609 9 116021859.125 9        48.400                    90406660.30249
        35.200    22078228.94949
  23329078.328 7 122595117.573 7        43.600    23329083.148 7  95528710.25948
        30.900    23329083.00048
  20804998.188 9 109331033.771 9        54.500    20805005.008 9  85193050.94149
        46.300    20805004.03949  20805001.250 7  81643335.262 7        41.400
  20961603.539 9 110153998.747 9        53.700                    85834314.37249
        43.200    20961606.89149
 15  8 23  1 30 30.0000000  0  8G05G07G21G28G20G15G30G13
  20979239.938 9 110246683.039 9        52.300    20979244.500 9  85906532.73349
        45.500    20979243.85949
  22825874.820 8 119950820.308 8        45.500    22825879.313 7  93468192.47949
        34.100    22825878.41849
  25620381.266 3 134636017.788 3        33.300                   104911173.18645
        16.900    25620385.39545
  21582780.266 9 113418294.122 9        49.400                    88377917.43849
        39.400    21582783.62949
  22067458.727 9 115965278.404 9        49.400                    90362571.44149
        35.200    22067461.40249
  23311664.000 7 122503604.140 7        44.100    23311668.516 7  95457401.10848
        30.400    23311668.18848
  20814434.641 9 109380622.207 9        55.100    20814441.820 9  85231691.28149
        46.000    20814440.80149  20814438.070 7  81680365.591 7        41.100
  20951056.219 9 110098572.980 9        54.000                    85791125.46649
        43.700    20951059.66049
 15  8 23  1 31  0.0000000  0  8G05G07G21G28G20G15G30G13
  20987247.922 9 110288763.991 9        52.500    20987252.320 9  85939323.07649
        45.200    20987251.78549
  22842311.328 8 120037193.437 8        45.500    22842316.293 7  93535496.18448
        33.500    22842315.39548
  25616224.992 3 134614179.745 3        32.800                   104894156.60445
        15.600    25616229.19145
  21573381.414 9 113368903.237 9        49.700                    88339431.04349
        40.000    21573384.71149
  22056787.859 9 115909200.365 9        49.200                    90318874.26649
        35.700    22056790.73049
  23294273.422 7 122412214.687 7        43.700    23294278.207 7  95386188.58248
        30.700    23294277.73048
  20823939.477 9 109430570.426 9        54.300    20823946.309 9  85270611.96649
        45.800    20823945.54749  20823942.992 7  81717664.587 7        42.000
  20940563.734 9 110043433.960 9        53.700                    85748159.99949
        43.600    20940567.02349
 15  8 23  1 31 30.0000000  0  8G05G07G21G28G20G15G30G13
  20995358.727 9 110331387.551 9        52.700    20995363.211 9  85972536.23249
        45.200    20995362.67249
  22858775.500 8 120123712.207 8        45.800    22858780.129 7  93602913.38549
        34.300    22858779.63349
  25612155.188 5 134592787.229 5        35.300                   104877487.06545
        15.600    25612158.26645
  21564075.469 9 113319999.394 9        49.600                    88301324.16249
        39.900    21564079.08249
  22046212.148 9 115853625.897 9        49.700                    90275569.48749
        36.200    22046215.30549
  23276906.344 7 122320949.553 7        44.200    23276910.621 7  95315072.90648
        31.500    23276910.10948
  20833512.172 9 109480875.747 9        53.700    20833518.941 9  85309810.92849
        45.700    20833518.21549  20833515.605 7  81755230.253 7        41.200
  20930125.516 9 109988581.576 9        54.100                    85705417.88249
        43.500    20930128.75449
 15  8 23  1 32  0.0000000  0  8G05G07G21G28G20G15G30G13
  21003573.102 9 110374552.874 9        51.500    21003577.129 9  86006171.54049
        45.200    21003576.55949
  22875267.289 8 120210375.146 8        45.800    22875271.586 7  93670442.94548
        33.700    22875270.87948
  25608169.813 5 134571841.464 5        36.600                   104861165.70245
        15.600    25608171.66845
  21554862.352 9 113271584.392 9        48.900                    88263598.20349
        39.600    21554865.65249
  22035732.688 9 115798557.127 9        49.400                    90232658.75849
        35.600    22035736.10549
  23259562.961 7 122229810.112 7        44.500    23259567.547 7  95244055.16248
        31.100    23259566.50048
  20843152.539 9 109531536.680 9        53.800    20843159.406 9  85349286.97249
        45.700    20843158.60249  20843156.281 7  81793061.464 7        41.000
  20919742.063 9 109934017.555 9        53.800                    85662900.47249
        43.400    20919746.32449
 15  8 23  1 32 30.0000000  0 10G05G07G21G28G08G20G15G19G30G13
  21011889.867 9 110418258.427 9        52.900    21011894.262 9  86040227.80749
        45.100    21011893.43049
  22891785.695 8 120297180.713 8        45.800    22891789.820 7  93738083.64648
        33.400    22891788.80948
  25604269.469 5 134551341.647 5        37.100                   104845191.79745
        16.300    25604270.26645
  21545742.719 9 113223659.677 9        49.500                    88226254.27749
        39.500    21545745.91049
  25004720.164 2                        31.200

  22025350.211 9 115743995.979 9        49.200                    90190143.58449
        36.600    22025353.42649
  23242244.055 7 122138797.897 7        44.600    23242248.176 7  95173136.55548
        31.800    23242247.90648
  25108849.250 4 131947875.29614        34.700

  20852860.750 9 109582551.482 9        54.100    20852867.559 9  85389038.77249
        45.700    20852866.72749  20852864.059 7  81831156.941 7        41.500
  20909414.172 9 109879743.068 9        53.100                    85620608.67549
        43.600    20909417.74249
 15  8 23  1 33  0.0000000  0 10G05G07G21G28G08G20G15G19G30G13
  21020309.336 9 110462503.505 9        52.100    21020313.438 9  86074704.48649
        44.700    21020312.80949
  22908331.148 8 120384127.581 8        46.000    22908335.434 7  93805834.44449
        34.000    22908334.71149
  25600452.969 5 134531289.065 5        36.900                   104829566.37045
        17.800    25600454.71545
  21536716.656 9 113176227.023 9        50.000                    88189293.77649
        39.800    21536719.91449
  25000386.914 3                        32.300

  22015064.422 9 115689944.701 9        49.300                    90148025.70349
        37.000    22015067.40249
  23224949.203 7 122047914.217 7        44.600    23224954.129 7  95102318.10048
        31.400    23224953.67648
  25102526.766 3 131914660.188 3        32.000

  20862635.477 9 109633918.747 9        54.100    20862641.969 9  85429065.21149
        45.600    20862641.03149  20862638.301 7  81869515.610 7        41.200
  20899141.422 9 109825759.524 9        53.500                    85578543.58149
        43.900    20899144.91049
 15  8 23  1 33 30.0000000  0 10G05G07G21G28G08G20G15G19G30G13
  21028831.039 9 110507286.112 9        51.300    21028835.504 9  86109600.01349
        45.000    21028834.73449
  22924902.766 8 120471214.082 8        45.200    22924907.426 7  93873694.03648
        32.700    22924906.98848
  25596722.867 4 134511683.541 4        34.800                   104814289.36445
        17.400    25596724.34445
  21527783.992 9 113129287.698 9        49.100                    88152717.68749
        40.200    21527787.49249
  24996147.852 3 131355682.85213        32.400    24996155.094 1 102355076.76011
        28.400
  22004876.070 9 115636404.636 9        49.300                    90106306.18649
        36.500    22004879.09849
  23207679.203 7 121957160.166 7        44.300    23207684.563 7  95031600.67348
        32.200    23207683.93448
  25096304.156 1                        28.000

  20872476.914 9 109685636.480 9        54.100    20872483.664 9  85469364.75049
        45.400    20872482.92249  20872480.250 6  81908135.994 6        40.900
  20888924.172 9 109772067.769 9        53.500                    85536705.85749
        43.600    20888927.77749
 15  8 23  1 34  0.0000000  0  9G05G07G21G28G08G20G15G30G13
  21037455.047 9 110552605.491 9        52.300    21037459.285 9  86144913.80749
        44.900    21037458.82849
  22941501.617 7 120558438.896 7        44.900    22941505.781 7  93941661.40448
        32.900    22941505.17248
  25593075.875 3 134492526.231 3        33.000                   104799361.54045
        17.400    25593078.77045
  21518945.711 9 113082842.987 9        49.500                    88116527.01849
        40.000    21518949.50049
  24992002.180 3 131333905.50913        32.300    24992009.410 1 102338107.49711
        26.900
  21994785.781 9 115583378.145 9        49.500                    90064986.85049
        36.500    21994788.50049
  23190434.625 8 121866537.411 8        45.000    23190438.969 7  94960985.57648
        31.000    23190438.41848
  20882385.031 9 109737703.207 9        53.700    20882391.922 9  85509936.22949
        45.800    20882391.18049  20882388.508 6  81947016.996 6        40.800
  20878763.016 9 109718669.533 9        53.500                    85495096.84349
        43.400    20878766.42249
 15  8 23  1 34 30.0000000  0  9G05G07G21G28G08G20G15G30G13
  21046181.305 9 110598460.415 9        52.400    21046185.555 9  86180644.91349
        44.900    21046185.18449
  22958126.227 7 120645800.541 7        44.900    22958130.094 7  94009735.42348
        33.300    22958129.09848
  25589516.211 4 134473816.519 4        34.300                   104784782.52645
        17.400    25589518.79345
  21510202.148 9 113036894.813 9        49.300                    88080723.25449
        39.600    21510205.86349
  24987956.367 3 131312629.40213        33.300    24987960.625 1 102321528.83111
        24.700
  21984792.891 9 115530866.939 9        49.700                    90024069.02249
        35.800    21984796.15249
  23173214.641 8 121776047.258 8        45.500    23173219.105 7  94890473.76748
        32.600    23173218.07448
  20892358.969 9 109790117.234 9        53.500    20892365.813 9  85550778.32549
        45.100    20892365.05949  20892362.211 6  81986157.341 6        40.600
  20868657.828 9 109665565.979 9        54.000                    85453717.46149
        43.400    20868661.02749
 15  8 23  1 35  0.0000000  0  9G05G07G21G28G08G20G15G30G13
  21055008.430 9 110644849.209 9        51.900    21055012.984 9  86216792.02349
        45.000    21055012.54349
  22974775.992 8 120733297.521 8        45.100    22974780.258 7  94077914.88548
        33.800    22974779.54348
  25586040.188 3 134455555.283 3        32.600                   104770552.98244
        14.800    25586044.00044
  21501553.359 9 112991444.537 9        49.100                    88045307.45949
        40.600    21501556.81349
  24984000.148 1 131291855.61411        28.600    24984008.039 1 102305341.57511
        25.900
  21974899.266 9 115478873.200 9        49.600                    89983554.44449
        36.800    21974902.04749
  23156020.789 7 121685691.048 7        44.900    23156024.973 7  94820066.35148
        32.700    23156024.22348
  20902398.797 9 109842876.951 9        53.800    20902405.797 9  85591889.79049
        45.400    20902404.97749  20902402.480 6  82025555.825 6        40.700
  20858608.883 9 109612758.497 9        53.600                    85412568.78249
        43.700    20858612.10949
 15  8 23  1 35 30.0000000  0  9G05G07G21G28G08G20G15G30G13
  21063937.266 9 110691770.038 9        52.000    21063942.074 9  86253353.69149
        44.900    21063941.51649
  22991451.836 8 120820928.196 8        45.800    22991455.914 7  94146198.50548
        33.300    22991455.18848
  25582650.523 3 134437742.692 3        33.000                   104756673.04845
        16.900    25582654.73845
  21492999.391 9 112946493.181 9        49.600                    88010280.43749
        40.600    21493002.60249
  24980144.297 1 131271585.62311        30.300    24980150.813 1 102289546.70611
        27.900
  21965103.398 9 115427398.272 9        49.000                    89943444.12149
        36.500    21965107.19549
  23138852.070 8 121595470.041 8        45.100    23138856.547 7  94749764.26348
        32.600    23138856.50448
  20912504.086 9 109895980.344 9        53.700    20912510.926 9  85633269.06549
        45.400    20912509.77349  20912507.453 7  82065210.964 7        41.300
  20848616.320 9 109560247.960 9        53.800                    85371651.47849
        43.900    20848619.90649
 15  8 23  1 36  0.0000000  0  9G05G07G21G28G08G20G15G30G13
  21072967.234 9 110739222.545 9        52.300    21072971.902 9  86290329.66849
        44.600    21072971.14549
  23008152.047 8 120908691.185 8        45.000    23008156.262 7  94214585.25648
        32.400    23008155.62148
  25579345.813 3 134420378.737 3        32.800                   104743142.75045
        17.800    25579350.88345
  21484540.930 9 112902042.112 9        50.500                    87975643.25649
        41.100    21484544.02349
  24976384.375 1                        28.900

  21955407.125 9 115376443.904 9        49.600                    89903739.41949
        36.500    21955410.39849
  23121709.875 8 121505385.416 8        46.400    23121713.785 7  94679568.46948
        33.100    23121713.70348
  20922674.352 9 109949425.748 9        54.600    20922681.332 9  85674914.83249
        45.100    20922680.54749  20922678.168 7  82105121.483 7        41.300
  20838680.617 9 109508035.655 9        54.300                    85330966.56649
        44.100    20838683.78549
 15  8 23  1 36 30.0000000  0  9G05G07G21G28G08G20G15G30G13
  21082098.008 9 110787204.621 9        52.100    21082102.430 9  86327718.28749
        44.600    21082101.77749
  23024877.789 7 120996584.788 7        44.000    23024882.012 7  94283073.76248
        32.300    23024881.93048
  25576127.945 5 134403463.871 5        35.700                   104729962.32245
        18.300    25576131.76245
  21476177.313 9 112858092.891 9        49.100                    87941397.11749
        40.800    21476181.10949
  24972718.977 1                        30.300

  21945810.289 9 115326012.127 9        49.500                    89864441.93649
        36.500    21945813.06349
  23104593.063 8 121415438.790 8        45.400    23104597.652 7  94609480.21248
        33.000    23104596.98448
  20932909.398 9 110003211.593 9        54.100    20932916.719 9  85716825.88249
        44.900    20932915.66049  20932913.281 7  82145286.245 7        41.400
  20828802.133 9 109456123.129 9        53.500                    85290515.25049
        43.900    20828805.37149
 15  8 23  1 37  0.0000000  0 10G05G07G21G28G08G20G15G19G30G13
  21091329.313 9 110835715.069 9        53.000    21091333.797 9  86365518.63149
        44.700    21091332.88749
  23041628.320 7 121084607.743 7        44.200    23041632.191 7  94351663.06148
        32.400    23041631.64548
  25572995.344 4 134386998.433 4        34.600                   104717132.10645
        17.800    25572998.48045
  21467909.688 9 112814646.909 9        50.800                    87907543.11849
        41.000    21467913.39849
  24969149.898 1 131213810.16711        28.300    24969156.063 1 102244526.83611
        29.900
  21936313.320 9 115276104.796 9        49.700                    89825553.10349
        37.000    21936316.57049
  23087503.648 8 121325631.357 8        46.000    23087508.016 7  94539500.39348
        33.100    23087506.82448
  25055527.914 3 131667662.40013        32.900

  20943209.000 9 110057336.187 9        53.400    20943216.090 9  85759000.88949
        45.400    20943215.16449  20943212.438 7  82185703.961 7        41.600
  20818980.750 9 109404511.560 9        54.100                    85250298.44949
        43.900    20818984.10549
 15  8 23  1 37 30.0000000  0 10G05G07G21G28G08G20G15G19G30G13
  21100660.766 9 110884752.634 9        52.800    21100665.129 9  86403729.71249
        45.100    21100664.28949
  23058402.617 7 121172758.774 7        44.800    23058406.641 7  94420352.17348
        32.200    23058406.21148
  25569947.414 5 134370982.390 5        35.400                   104704652.08945
        17.400    25569951.04345
  21459738.516 9 112771705.690 9        50.700                    87874082.43849
        41.100    21459741.96549
  24965678.438 1 131195567.68311        29.400    24965684.309 2 102230311.91312
        31.900
  21926916.516 9 115226723.788 9        50.300                    89787074.39949
        36.900    21926919.54749
  23070440.328 7 121235964.819 7        44.700    23070445.164 7  94469630.38648
        32.800    23070444.69148
  25050103.172 3 131639156.747 3        33.600

  20953572.906 9 110111798.020 9        53.700    20953579.707 9  85801438.68249
        45.300    20953578.73049  20953576.234 7  82226373.514 7        41.300
  20809216.523 9 109353202.341 9        54.300                    85210317.24549
        44.100    20809220.31649
 15  8 23  1 38  0.0000000  0 10G05G07G21G28G08G20G15G19G30G13
  21110092.055 9 110934315.608 9        52.700    21110096.355 9  86442350.20449
        44.500    21110095.76649
  23075201.008 7 121261036.421 7        44.100    23075205.246 7  94489139.93848
        31.500    23075204.78148
  25566985.000 5 134355416.190 5        35.900                   104692522.57045
        17.400    25566988.66845
  21451663.523 9 112729270.239 9        50.900                    87841015.86449
        40.600    21451666.86749
  24962305.016 1 131177834.78211        30.800    24962310.246 3 102216494.09513
        33.300                    24962306.965 1  97957454.92811        26.000
  21917620.125 9 115177870.807 9        50.100                    89749007.14849
        37.300    21917623.23849
  23053404.492 7 121146440.519 7        44.300    23053409.109 7  94399871.18748
        33.100    23053408.13348
  25044779.875 3 131611183.145 3        33.200

  20964000.258 9 110166595.384 9        53.500    20964007.324 9  85844137.93049
        44.900    20964006.29349  20964003.801 6  82267293.627 6        40.800
  20799510.688 9 109302196.832 9        54.100                    85170572.69449
        44.600    20799514.10249
 15  8 23  1 38 30.0000000  0 10G05G07G21G28G08G20G15G19G30G13
  21119623.547 9 110984402.938 9        52.200    21119627.523 9  86481379.28449
        44.200    21119626.87549
  23092023.898 7 121349439.192 7        43.800    23092027.945 7  94558025.21948
        32.500    23092027.18448
  25564108.219 5 134340300.348 5        36.100                   104680743.97345
        18.300    25564112.00845
  21443684.609 9 112687342.128 9        50.300                    87808344.62649
        40.500    21443687.79349
  24959028.188 2 131160613.084 2        31.300    24959033.211 4 102203074.606 4
        34.200                    24959029.410 1  97944594.594 1        24.500
  21908424.578 9 115129548.027 9        49.800                    89711353.03749
        36.900    21908427.59849
  23036396.273 8 121057059.907 8        45.400    23036400.703 7  94330223.99149
        34.100    23036400.71149
  25039558.141 4 131583743.212 4        34.300

  20974491.492 9 110221726.839 9        53.300    20974498.531 9  85887097.50949
        44.900    20974497.91449  20974495.246 7  82308463.217 7        41.300
  20789862.852 9 109251496.551 9        54.100                    85131065.98849
        43.900    20789866.54349
 15  8 23  1 39  0.0000000  0 10G05G07G21G28G08G20G15G19G30G13
  21129253.914 9 111035012.509 9        51.400    21129258.691 9  86520815.30849
        44.400    21129258.00449
  23108869.750 7 121437965.517 7        43.700    23108874.168 7  94627006.77448
        32.600    23108873.73848
  25561318.188 5 134325634.233 5        36.100                   104669315.84745
        18.300    25561320.92245
  21435802.563 9 112645922.363 9        49.900                    87776069.49149
        41.300    21435806.00049
  24955848.578 4 131143903.52214        34.200    24955854.008 5 102190054.18215
        35.500                    24955849.465 1  97932116.68411        26.200
  21899329.891 8 115081756.532 8        47.800                    89674112.91449
        36.800    21899333.64549
  23019414.492 7 120967823.967 7        44.400    23019419.637 7  94260689.49948
        33.300    23019418.98848
  25034437.641 5 131556838.135 5        35.100

  20985045.695 9 110277190.105 9        53.900    20985052.852 9  85930315.63749
        45.400    20985051.89149  20985049.277 6  82349880.589 6        40.900
  20780272.898 9 109201101.894 9        52.000                    85091797.42649
        44.600    20780276.72349
 15  8 23  1 39 30.0000000  0 10G05G07G21G28G08G20G15G19G30G13
  21138983.852 9 111086143.113 9        51.800    21138988.633 9  86560657.32549
        44.300    21138988.00449
  23125738.773 7 121526613.903 7        42.500    23125743.426 7  94696083.39748
        32.300    23125742.75448
  25558613.477 5 134311418.295 5        37.500                   104658238.49045
        19.000    25558616.15645
  21428018.039 9 112605012.055 9        50.000                    87744191.34149
        41.300    21428021.56649
  24952764.930 4 131127707.063 4        34.400    24952772.508 5 102177425.48855
        17.400    24952771.63745  24952768.832 1  97920021.907 1        24.400
  21890336.969 9 115034497.892 9        50.000                    89637288.00549
        37.600    21890340.44949
  23002462.008 8 120878734.215 8        46.000    23002466.254 7  94191268.93749
        34.500    23002465.77049
  25029420.734 5 131530469.603 5        36.100

  20995663.055 9 110332983.544 9        53.000    20995669.867 9  85973791.04649
        44.400    20995668.92249  20995666.309 6  82391544.523 6        40.700
  20770741.570 9 109151014.513 9        54.400                    85052768.30749
        45.000    20770745.44549
 15  8 23  1 40  0.0000000  0 10G05G07G21G28G08G20G15G19G30G13
  21148812.945 9 111137793.832 9        52.700    21148817.465 9  86600904.62949
        44.600    21148816.66449
  23142631.086 7 121615383.542 7        42.600    23142635.285 7  94765254.53848
        31.700    23142634.87148
  25555993.719 5 134297653.054 5        37.900                   104647512.30445
        19.000    25555996.42645
  21420330.438 9 112564612.921 9        51.300                    87712711.50749
        41.000    21420333.68849
  24949780.914 5 131112024.749 5        35.500    24949788.188 6 102165205.55445
        16.900    24949787.61745  24949782.996 1  97908311.120 1        25.500
  21881446.055 9 114987774.682 9        50.200                    89600880.31249
        37.000    21881449.60249
  22985536.844 8 120789792.695 8        46.300    22985541.547 7  94121963.85949
        34.400    22985540.55549
  25024505.820 5 131504639.751 5        37.700                   102471158.32855
        16.300    25024505.14545
  21006342.656 9 110389106.146 9        52.900    21006349.848 9  86017522.94749
        44.700    21006349.05949  21006346.035 6  82433454.258 6        40.800
  20761269.461 9 109101236.590 9        54.600                    85013980.31149
        44.600    20761272.94549
 15  8 23  1 40 30.0000000  0 10G05G07G21G28G08G20G15G19G30G13
  21158739.977 9 111189962.050 9        52.400    21158744.484 9  86641555.18049
        44.400    21158743.84449
  23159546.117 7 121704272.115 7        43.300    23159550.797 7  94834518.36648
        32.400    23159550.00048
  25553459.922 5 134284338.261 5        35.400                   104637137.10345
        19.000    25553463.98045
  21412739.617 9 112524725.660 9        50.900                    87681630.53049
        41.300    21412742.90649
  24946895.375 4 131096857.652 4        34.500    24946902.219 5 102153387.04145
        16.900    24946901.74245  24946896.535 1  97896985.045 1        24.100
  21872657.008 9 114941587.910 9        51.000                    89564890.61449
        37.100    21872659.93849
  22968640.516 8 120700999.962 8        46.900    22968644.574 7  94052774.71848
        33.600    22968643.86748
  25019693.672 5 131479349.341 5        36.800                   102451451.51145
        16.300    25019694.00445
  21017084.570 9 110445555.214 9        52.600    21017091.578 9  86061509.23149
        44.500    21017090.82049  21017087.859 6  82475607.787 6        40.600
  20751855.641 9 109051768.079 9        54.400                    84975433.42149
        44.300    20751859.05549
 15  8 23  1 41  0.0000000  0 10G05G07G21G28G08G20G15G19G30G13
  21168765.438 9 111242646.563 9        52.100    21168770.133 9  86682608.04449
        44.400    21168769.57449
  23176483.992 7 121793278.683 7        42.100    23176488.016 7  94903874.11748
        31.400    23176487.46548
  25551012.109 5 134271473.977 5        36.500                   104627112.97445
        19.600    25551014.81345
  21405246.930 9 112485351.806 9        51.200                    87650949.61749
        41.000    21405250.39149
  24944107.227 4 131082207.22114        34.600    24944114.184 6 102141971.08055
        16.300    24944113.64845  24944109.086 1  97886044.78211        24.100
  21863970.398 9 114895939.373 9        50.100                    89529320.32749
        37.100    21863973.70749
  22951771.828 7 120612358.043 7        44.900    22951776.129 7  93983703.11649
        34.200    22951775.70749
  25014983.063 4 131454600.500 4        34.200                   102432166.81044
        14.800    25014985.03544
  21027888.438 9 110502329.724 9        52.900    21027895.395 9  86105749.10749
        44.700    21027894.60249  21027891.988 6  82518004.333 6        40.500
  20742501.375 9 109002610.877 9        54.100                    84937129.11349
        44.900    20742505.05149
 15  8 23  1 41 30.0000000  0 10G05G07G21G28G08G20G15G19G30G13
  21178889.078 9 111295846.174 9        51.800    21178893.984 9  86724062.28049
        44.300    21178893.06649
  23193443.383 7 121882402.054 7        42.500    23193447.660 7  94973320.86948
        31.500    23193447.24648
  25548650.273 5 134259060.530 5        37.500                   104617440.12545
        19.600    25548652.70745
  21397852.625 9 112446492.551 9        50.900                    87620669.68949
        41.600    21397855.98049
  24941417.641 3 131068074.64913        33.200    24941424.891 5 102130958.72855
        15.600    24941423.51245  24941419.598 1  97875491.23211        24.000
  21855386.305 9 114850830.801 9        50.500                    89494170.79449
        37.100    21855389.72749
  22934933.531 8 120523868.469 8        46.200    22934937.551 7  93914750.22449
        34.300    22934937.10249
  25010375.508 1 131430394.882 1        29.600                   102413305.17843
        13.900    25010379.32443
  21038753.805 9 110559428.090 9        52.500    21038760.922 9  86150241.34449
        44.200    21038759.91049  21038757.414 6  82560642.723 6        40.700
  20733206.789 9 108953766.699 9        53.600                    84899068.71649
        44.100    20733210.08249
 15  8 23  1 42  0.0000000  0 10G05G07G21G28G08G20G15G19G30G13
  21189110.188 9 111349558.900 9        51.500    21189114.898 9  86765916.34149
        44.300    21189114.12949
  23210425.180 7 121971640.655 7        43.500    23210429.184 7  95042857.42948
        31.200    23210428.75848
  25546373.063 5 134247097.907 5        37.000                   104608118.54945
        19.600    25546376.42645
  21390555.594 9 112408148.932 9        49.900                    87590791.55649
        40.900    21390559.39849
  24938826.688 3 131054460.08813        33.300    24938834.156 5 102120350.11455
        16.300    24938833.17245  24938828.961 1  97865324.54911        22.600
  21846905.641 9 114806263.817 9        50.800                    89459443.27949
        37.100    21846907.97749
  22918122.797 8 120435532.395 8        46.100    22918126.953 7  93845916.93449
        34.700    22918126.89549
  25005874.391 1 131406733.552 1        25.900

  21049680.688 9 110616848.368 9        53.200    21049687.816 9  86194984.41849
        44.300    21049686.79349  21049684.359 6  82603521.503 6        40.900
  20723971.688 9 108905236.222 9        54.700                    84861252.75649
        44.600    20723975.39149
 15  8 23  1 42 30.0000000  0  9G05G07G21G28G08G20G15G30G13
  21199429.242 9 111403783.878 9        51.800    21199433.324 9  86808169.56349
        44.500    21199432.91849
  23227427.492 7 122060993.379 7        43.500    23227432.402 7  95112482.92848
        31.000    23227432.12948
  25544182.625 5 134235586.464 5        36.900                   104599148.57145
        19.000    25544185.93845
  21383357.688 9 112370322.324 9        50.000                    87561316.28649
        41.600    21383360.86349
  24936336.594 3 131041365.528 3        33.300    24936342.668 5 102110146.44745
        16.300    24936341.38345  24936336.883 1  97855546.124 1        22.500
  21838528.094 9 114762240.517 9        48.900                    89425139.40649
        36.600    21838530.96949
  22901342.547 8 120347351.254 8        46.300    22901347.043 7  93777204.38349
        34.400    22901346.65649
  21060668.375 9 110674589.231 9        52.800    21060675.547 9  86239977.29749
        44.200    21060674.73049  21060672.234 6  82646639.671 6        40.900
  20714796.586 9 108857021.354 9        53.700                    84823682.73649
        44.600    20714799.96149
 15  8 23  1 43  0.0000000  0  9G05G07G21G28G08G20G15G30G13
  21209844.797 9 111458518.387 9        50.300    21209849.164 9  86850819.82449
        44.600    21209848.71949
  23244452.758 7 122150458.039 7        44.200    23244456.988 7  95182195.62448
        31.500    23244456.66048
  25542077.906 5 134224525.451 5        37.900                   104590529.62145
        19.300    25542081.78545
  21376257.695 9 112333013.414 9        49.600                    87532244.41849
        41.300    21376261.60549
  24933942.445 4 131028790.974 4        34.000    24933949.520 6 102100348.14345
        16.300    24933948.59045  24933943.207 1  97846156.057 1        22.500
  21830254.367 9 114718761.237 9        50.200                    89391259.44649
        36.900    21830257.34849
  22884591.766 8 120259326.269 8        45.000    22884596.734 7  93708613.49349
        34.400    22884595.98049
  21071716.961 9 110732648.212 9        50.400    21071723.688 9  86285218.06349
        44.300    21071722.98849  21071720.023 6  82689995.411 6        40.100
  20705681.953 9 108809122.423 9        54.400                    84786358.89649
        44.800    20705685.51649
 15  8 23  1 43 30.0000000  0  9G05G07G21G28G08G20G15G30G13
  21220357.070 9 111513761.404 9        50.900    21220361.191 9  86893866.32249
        44.100    21220361.01649
  23261499.000 7 122240033.866 7        44.600    23261502.816 7  95251994.96148
        31.900    23261502.00448
  25540058.094 5 134213915.107 5        36.200                   104582261.82645
        18.600    25540062.49245
  21369257.375 9 112296223.616 9        49.200                    87503577.05849
        41.900    21369260.46149
  24931648.430 4 131016737.680 4        34.600    24931655.680 6 102090955.98545
        17.400    24931655.03945  24931650.070 1  97837155.228 1        25.100
  21822084.711 9 114675828.279 9        50.700                    89357805.19249
        36.900    21822087.67649
  22867871.906 8 120171459.208 8        45.900    22867875.926 7  93640145.66949
        34.900    22867875.62149
  21082825.195 9 110791024.154 9        52.200    21082832.328 9  86330705.80949
        44.600    21082831.64149  21082828.734 6  82733587.838 6        40.400
  20696627.602 9 108761541.466 9        54.800                    84749282.82849
        44.700    20696631.35249
 15  8 23  1 44  0.0000000  0 10G05G07G21G28G08G20G15G19G30G13
  21230966.070 9 111569511.046 9        50.000    21230970.410 9  86937307.59749
        44.400    21230969.73849
  23278564.703 7 122329719.488 7        43.600    23278569.246 7  95321879.85848
        32.000    23278568.62148
  25538124.844 5 134203755.544 5        36.200                   104574345.28245
        18.600    25538128.98045
  21362355.414 9 112259953.646 9        50.700                    87475314.75949
        41.200    21362358.52749
  24929453.938 5 131005206.70915        36.700    24929461.242 6 102081970.80455
        18.300    24929460.21145  24929455.887 1  97828544.43211        26.000
  21814019.047 9 114633443.358 9        50.000                    89324777.97649
        36.900    21814022.03949
  22851181.617 8 120083751.535 8        45.800    22851186.000 7  93571802.04749
        35.000    22851185.21949
  24988905.766 3 131317549.93213        33.700

  21093993.883 9 110849715.317 9        50.200    21094000.813 9  86376439.18649
        44.500    21094000.16849  21093997.320 6  82777415.653 6        40.900
  20687633.945 9 108714279.821 9        54.600                    84712455.57249
        45.000    20687637.76249
 15  8 23  1 44 30.0000000  0 10G05G07G21G28G08G20G15G19G30G13
  21241671.047 9 111625765.806 9        51.000    21241675.281 9  86981142.47249
        43.900    21241674.75449
  23295652.188 7 122419513.621 7        43.000    23295656.340 7  95391849.30248
        31.200    23295655.91048
  25536276.984 3 134194046.576 3        33.700                   104566779.85945
        16.900    25536281.58245
  21355552.570 9 112224204.859 9        49.600                    87447458.57549
        41.800    21355555.66049
  24927360.109 5 130994199.016 5        37.300    24927366.145 6 102073393.44045
        18.600    24927365.66045  24927361.156 1  97820324.430 1        27.400
  21806057.945 9 114591608.049 9        49.900                    89292179.03649
        36.700    21806061.52749
  22834521.922 8 119996204.761 8        45.600    22834526.188 7  93503583.78749
        35.500    22834525.77749
  24984925.070 3 131296631.935 3        32.900                   102309091.49355
        16.900    24984925.64145
  21105222.125 9 110908720.147 9        52.200    21105228.875 9  86422416.97249
        44.100    21105227.89149  21105225.277 6  82821477.698 6        40.400
  20678701.234 9 108667338.504 9        54.400                    84675877.91849
        45.200    20678704.84049
 15  8 23  1 45  0.0000000  0 10G05G07G21G28G08G20G15G19G30G13
  21252471.555 9 111682523.569 9        50.300    21252476.383 9  87025369.28249
        43.900    21252475.65649
  23312760.344 7 122509414.504 7        43.400    23312764.785 7  95461901.93148
        31.600    23312763.93848
  25534515.852 5 134184788.573 5        37.600                   104559565.80645
        18.600    25534519.10945
  21348849.031 9 112188978.304 9        49.700                    87420009.31149
        41.400    21348852.50049
  24925364.617 5 130983714.933 5        36.500    24925371.648 6 102065224.03845
        18.600    24925370.77345  24925366.563 1  97812495.404 1        26.700
  21798201.586 9 114550323.545 9        49.600                    89260009.29249
        37.000    21798205.17649
  22817893.156 8 119908820.034 8        45.900    22817897.539 7  93435491.80049
        35.200    22817896.98449
  24981046.711 1 131276266.546 1        30.100                   102293222.38944
        14.800    24981051.22744
  21116509.570 9 110968036.680 9        51.900    21116516.555 9  86468637.65249
        43.800    21116515.78149  21116513.168 6  82865772.515 6        40.600
  20669829.734 9 108620718.345 9        54.100                    84639550.52849
        45.100    20669833.07449
 15  8 23  1 45 30.0000000  0 10G05G07G21G28G08G20G15G19G30G13
  21263367.719 9 111739783.233 9        51.000    21263372.145 9  87069987.19749
        44.200    21263371.57049
  23329887.789 7 122599421.246 7        42.200    23329892.180 7  95532037.05448
        31.100    23329891.45748
  25532840.516 5 134175981.318 5        37.700                   104552703.03745
        17.800    25532843.14845
  21342245.305 9 112154275.051 9        50.000                    87392967.82849
        41.700    21342249.00049
  24923468.344 5 130973755.814 5        35.900    24923476.676 6 102057463.70745
        16.900    24923474.99645  24923471.664 1  97805058.415 1        26.100
  21790450.922 9 114509591.864 9        50.100                    89228270.31249
        37.400    21790453.96949
  22801295.359 8 119821599.303 8        46.100    22801299.664 7  93367527.61549
        35.000    22801299.03949
  24977278.180 3 131256455.315 3        33.200                   102277785.09945
        16.300    24977281.76645
  21127856.070 9 111027663.551 9        52.000    21127862.816 9  86515100.15049
        44.100    21127861.94549  21127859.098 6  82910299.075 6        40.300
  20661019.992 9 108574421.728 9        54.600                    84603475.24549
        44.900    20661023.73849
 15  8 23  1 46  0.0000000  0 10G05G07G21G28G08G20G15G19G30G13
  21274359.063 9 111797542.904 9        51.200    21274363.301 9  87114994.72849
        44.500    21274362.62549
  23347034.383 7 122689532.432 7        42.000    23347038.773 7  95602253.53547
        29.400    23347038.44147
  25531249.953 6 134167624.867 6        38.000                   104546191.51646
        20.100    25531253.47746
  21335741.266 9 112120096.048 9        50.400                    87366334.85549
        41.500    21335744.55149
  24921673.422 5 130964322.720 5        35.700    24921681.555 6 102050113.21845
        17.400    24921680.14845  24921676.352 1  97798014.229 1        27.200
  21782805.414 9 114469414.339 9        50.700                    89196963.14949
        37.100    21782808.33249
  22784729.570 8 119734543.909 8        46.500    22784733.418 7  93299692.26849
        35.600    22784733.08649
  24973614.977 3 131237199.524 3        33.100                   102262780.56245
        15.600    24973616.53545
  21139261.492 9 111087599.055 9        51.500    21139268.313 9  86561803.14249
        43.500    21139267.35249  21139264.738 6  82955056.099 6        40.000
  20652271.711 9 108528449.786 9        54.900                    84567652.95249
        45.600    20652275.21149
 15  8 23  1 46 30.0000000  0 10G05G07G21G28G08G20G15G19G30G13
  21285444.969 9 111855800.590 9        51.900    21285449.656 9  87160390.32049
        43.900    21285449.03149
  23364202.578 7 122779746.525 7        42.700    23364206.484 7  95672550.22548
        30.200    23364205.83248
  25529745.508 5 134159718.808 5        36.600                   104540030.96645
        19.000    25529748.73445
  21329336.828 9 112086442.183 9        49.700                    87340111.06749
        42.100    21329340.30149
  24919978.664 5 130955416.054 5        35.200    24919986.164 6 102043172.96245
        17.800    24919984.80545  24919981.238 1  97791363.158 1        27.900
  21775265.617 9 114429792.307 9        50.200                    89166088.84449
        37.100    21775268.80549
  22768195.063 8 119647655.167 8        46.000    22768199.203 7  93231986.76249
        35.500    22768199.10949
  24970055.453 5 131218500.480 5        35.200                   102248209.87743
        13.900    24970058.26643
  21150725.406 9 111147841.281 9        50.700    21150732.223 9  86608745.13149
        44.700    21150731.32849  21150728.539 6  83000042.188 6        40.900
  20643585.469 9 108482803.415 9        54.800                    84532084.34849
        45.200    20643588.79749
 15  8 23  1 47  0.0000000  0 10G05G07G21G28G08G20G15G19G30G13
  21296625.359 9 111914554.296 9        50.100    21296630.031 9  87206172.41249
        44.100    21296629.49249
  23381388.922 7 122870061.994 7        42.800    23381393.145 6  95742925.91948
        30.600    23381392.41848
  25528327.703 6 134152263.020 6        38.400                   104534221.25645
        19.300    25528329.96545
  21323032.984 9 112053314.430 9        49.300                    87314297.24049
        41.800    21323036.24649
  24918384.297 5 130947036.399 5        35.600    24918391.965 6 102036643.40745
        18.300    24918390.45745  24918387.301 1  97785105.665 1        27.500
  21767831.492 9 114390726.783 9        51.000                    89135648.17649
        37.200    21767834.93849
  22751692.625 8 119560934.276 8        45.500    22751696.883 7  93164412.05149
        36.100    22751696.39549
  24966604.203 5 131200358.886 5        36.400                   102234073.55945
        15.600    24966604.46945
  21162246.984 9 111208388.305 9        50.000    21162254.008 9  86655924.63549
        44.100    21162253.03149  21162250.418 6  83045255.872 6        40.500
  20634961.180 9 108437483.526 9        54.800                    84496770.15249
        45.500    20634964.85249
 15  8 23  1 47 30.0000000  0 10G05G07G21G28G08G20G15G19G30G13
  21307900.086 9 111973802.460 9        50.200    21307904.621 9  87252339.80449
        44.100    21307903.84049
  23398594.117 7 122960478.037 7        41.700    23398598.957 6  95813379.97547
        29.100    23398598.27747
  25526993.625 5 134145257.341 5        36.700                   104528762.29345
        16.900    25526996.64145
  21316829.438 9 112020713.725 9        50.200                    87288894.10649
        42.000    21316832.55949
  24916889.750 4 130939184.89514        34.300    24916897.879 6 102030525.35955
        17.400    24916896.26645  24916892.820 1  97779242.51311        27.100
  21760503.586 9 114352219.846 9        50.200                    89105642.76649
        37.600    21760506.90249
  22735222.063 8 119474383.196 8        45.000    22735226.305 7  93096969.67449
        35.300    22735225.66449
  24963258.406 6 131182776.722 6        38.700                   102220373.17245
        17.800    24963258.77345
  21173826.547 9 111269238.913 9        50.000    21173833.355 9  86703340.69249
        44.300    21173832.82849  21173830.098 6  83090696.254 6        40.400
  20626399.828 9 108392491.823 9        54.500                    84461711.69249
        45.000    20626403.07849
 15  8 23  1 48  0.0000000  0 10G05G07G21G28G08G20G15G19G30G13
  21319268.508 9 112033543.657 9        50.200    21319272.965 9  87298891.37849
        43.400    21319272.27349
  23415818.875 7 123050992.893 7        42.800    23415823.180 6  95883911.01547
        29.400    23415822.49647
  25525745.211 5 134138701.098 5        37.000                   104523653.49545
        19.000    25525749.45745
  21310725.844 9 111988640.662 9        49.300                    87263902.11849
        41.600    21310729.13749
  24915497.727 5 130931862.054 5        35.200    24915503.828 6 102024819.28345
        18.300    24915502.93845  24915500.133 1  97773774.207 1        28.700
  21753282.852 9 114314272.686 9        50.600                    89076073.55649
        37.400    21753286.00049
  22718784.172 8 119388003.344 8        45.700    22718789.266 7  93029660.70549
        36.000    22718789.05949
  24960018.813 5 131165754.780 5        37.000                   102207109.27045
        18.300    24960019.84445
  21185463.273 9 111330391.127 9        49.900    21185470.031 9  86750991.77049
        43.400    21185469.49249  21185466.707 6  83136361.871 6        40.300
  20617900.594 9 108347829.679 9        54.400                    84426910.01849
        45.300    20617904.09049
 15  8 23  1 48 30.0000000  0 10G05G07G21G28G08G20G15G19G30G13
  21330730.766 9 112093775.659 9        51.000    21330735.141 9  87345825.41049
        44.100    21330734.06649
  23433062.813 7 123141605.563 7        42.700    23433065.566 7  95954518.29147
        29.500    23433065.08247
  25524584.078 5 134132595.028 5        36.900                   104518895.51945
        17.400    25524588.05945
  21304723.633 9 111957096.597 9        50.000                    87239322.33949
        41.700    21304726.68449
  24914204.023 4 130925068.786 4        34.400    24914211.617 5 102019525.86645
        16.900    24914210.62545  24914207.586 1  97768701.321 1        28.600
  21746168.172 9 114276886.769 9        50.500                    89046941.68149
        37.300    21746171.76249
  22702380.281 8 119301796.282 8        46.300    22702384.219 7  92962486.38849
        35.500    22702383.60249
  24956885.977 5 131149294.466 5        37.500                   102194283.04645
        17.800    24956888.21145
  21197157.281 9 111391843.559 9        50.500    21197164.031 9  86798876.77849
        44.100    21197163.48049  21197160.516 6  83182251.670 6        40.400
  20609464.719 9 108303498.513 9        54.400                    84392366.25749
        44.900    20609468.44949
 15  8 23  1 49  0.0000000  0 10G05G07G21G28G08G20G15G19G30G13
  21342285.289 9 112154496.764 9        50.000    21342290.223 9  87393140.54849
        44.100    21342289.43449
  23450323.281 7 123232314.305 7        42.300    23450327.465 7  96025200.41247
        29.400    23450327.01247
  25523508.242 5 134126938.487 5        35.700                   104514487.87245
        16.300    25523510.70345
  21298821.391 9 111926081.725 9        49.400                    87215154.92249
        41.800    21298824.67649
  24913012.844 5 130918805.390 5        35.800    24913019.859 5 102014645.30345
        16.300    24913018.98445  24913014.891 1  97764024.130 1        27.100
  21739161.508 9 114240063.336 9        50.500                    89018248.09549
        37.900    21739164.80949
  22686008.109 8 119215763.247 8        45.500    22686013.000 7  92895447.66949
        36.200    22686012.39549
  24953861.039 5 131133396.470 5        36.500                   102181895.03145
        18.600    24953863.69145
  21208908.070 9 111453594.158 9        49.800    21208915.016 9  86846994.12749
        43.700    21208914.14849  21208911.242 6  83228364.132 6        39.800
  20601092.203 9 108259499.100 9        53.800                    84358081.00549
        45.400    20601095.66049
 15  8 23  1 49 30.0000000  0 10G05G07G21G28G08G20G15G19G30G13
  21353932.531 9 112215704.947 9        50.200    21353937.301 9  87440835.22349
        43.400    21353936.40249
  23467602.578 7 123323118.266 7        42.100    23467606.609 7  96095956.74347
        27.800    23467606.72347
  25522515.828 5 134121731.759 5        35.800                   104510430.59145
        17.400    25522520.42645
  21293020.586 9 111895597.862 9        49.600                    87191401.27149
        41.600    21293023.91849
  24911920.672 5 130913073.100 5        35.200    24911928.563 5 102010178.56545
        17.400    24911928.00445  24911924.145 1  97759743.549 1        27.700
  21732261.344 9 114203803.761 9        49.700                    88989993.87449
        37.700    21732264.75449
  22669670.586 8 119129906.048 8        45.600    22669675.129 7  92828545.96949
        36.100    22669674.46949
  24950943.406 5 131118062.394 5        36.700                   102169946.42745
        19.000    24950944.57845
  21220715.336 9 111515641.624 9        49.600    21220722.469 9  86895342.79949
        43.000    21220721.84449  21220718.996 6  83274698.281 6        39.800
  20592782.813 9 108215833.306 9        55.000                    84324055.70949
        45.500    20592786.54349
 15  8 23  1 50  0.0000000  0 10G05G07G21G28G08G20G15G19G30G13
  21365672.352 9 112277398.417 9        50.200    21365677.355 9  87488908.05249
        43.300    21365676.48449
  23484900.297 7 123414016.008 7        41.100    23484904.391 6  96166786.15347
        29.600    23484903.71147
  25521611.047 5 134116974.009 5        36.500                   104506723.23645
        17.800    25521615.19945
  21287320.664 9 111865645.102 9        49.100                    87168061.47149
        42.000    21287323.87149
  24910932.375 5 130907872.124 5        35.400    24910939.105 4 102006125.94345
        15.600    24910937.77745  24910934.563 1  97755859.741 1        25.500
  21725468.930 9 114168109.017 9        50.500                    88962179.79949
        38.200    21725472.00049
  22653366.000 8 119044226.302 8        45.800    22653370.887 7  92761782.55149
        36.900    22653370.71149
  24948132.438 5 131103293.108 5        36.000                   102158437.91145
        18.300    24948135.04745
  21232578.742 9 111577984.021 9        49.800    21232585.848 9  86943921.29149
        43.400    21232584.74249  21232582.422 6  83321252.668 6        40.100
  20584537.102 9 108172502.121 9        54.800                    84290291.15449
        45.200    20584540.59849
 15  8 23  1 50 30.0000000  0 10G05G07G21G28G08G20G15G19G30G13
  21377504.500 9 112339575.396 9        50.700    21377508.473 9  87537357.63449
        43.600    21377507.98049
  23502215.164 6 123505006.546 6        40.200    23502218.988 7  96237687.85447
        28.700    23502218.54747
  25520791.133 5 134112665.309 5        35.500                   104503365.81245
        16.900    25520794.64145
  21281722.000 9 111836223.989 9        49.200                    87145135.93649
        41.700    21281725.38349
  24910043.844 3 130903203.345 3        33.900    24910049.680 3 102002487.77144
        14.800    24910048.72344  24910045.977 1  97752373.304 1        25.300
  21718784.352 9 114132981.086 9        50.700                    88934807.39949
        37.700    21718787.24249
  22637095.961 8 118958725.155 8        46.000    22637100.066 7  92695158.28249
        36.600    22637099.35549
  24945429.703 5 131089090.011 5        36.600                   102147370.55045
        19.300    24945431.41445
  21244497.891 9 111640619.907 9        49.800    21244504.730 9  86992728.47849
        43.200    21244503.68049  21244501.418 6  83368026.213 6        39.900
  20576355.484 9 108129507.043 9        54.500                    84256788.49949
        45.800    20576359.10249
 15  8 23  1 51  0.0000000  0 10G05G07G21G28G08G20G15G19G30G13
  21389427.984 9 112402234.032 9        51.000    21389432.422 9  87586182.54749
        43.500    21389431.85949
  23519547.297 6 123596088.312 6        40.900    23519551.656 7  96308660.61847
        28.800    23519551.29747
  25520058.273 5 134108805.422 5        37.600                   104500358.14845
        18.600    25520060.12145
  21276224.750 9 111807336.233 9        49.300                    87122626.01149
        42.100    21276228.05949
  24909255.367 5 130899067.14015        35.400    24909262.563 3 101999264.83154
        14.800    24909261.11744  24909258.195 1  97749284.58811        25.600
  21712207.883 9 114098421.172 9        50.200                    88907877.59449
        37.700    21712210.09049
  22620859.820 8 118873404.329 8        46.000    22620864.434 8  92628674.53049
        36.500    22620864.03549
  24942836.313 6 131075453.817 6        39.400                   102136744.98645
        18.600    24942837.20345
  21256472.547 9 111703547.506 9        50.700    21256479.852 9  87041762.96749
        43.700    21256478.95349  21256476.457 6  83415017.597 6        39.600
  20568237.969 9 108086849.403 9        54.600                    84223548.77949
        45.200    20568241.38749
 15  8 23  1 51 30.0000000  0 10G05G07G21G28G08G20G15G19G30G13
  21401442.828 9 112465372.101 9        49.600    21401446.875 9  87635381.03149
        43.600    21401446.45749
  23536896.484 7 123687259.793 7        41.400    23536900.488 7  96379703.31747
        29.600    23536900.26247
  25519408.828 6 134105393.619 6        38.300                   104497699.61845
        17.400    25519410.11345
  21270829.242 9 111778982.090 9        49.600                    87100531.88149
        42.100    21270832.30149
  24908570.391 5 130895463.972 5        37.900    24908576.324 5 101996457.09945
        16.300    24908575.61345  24908573.047 1  97746593.886 1        24.300
  21705739.109 9 114064429.936 9        49.900                    88881390.91449
        38.600    21705742.67649
  22604658.086 8 118788265.041 8        45.600    22604662.492 7  92562332.23349
        35.400    22604662.02049
  24940348.172 4 131062385.16914        34.700                   102126561.63055
        18.600    24940349.59045
  21268502.633 9 111766764.845 9        50.100    21268509.398 9  87091023.22549
        43.100    21268508.46549  21268506.086 6  83462225.352 6        40.200
  20560184.742 9 108044529.841 9        54.600                    84190572.50249
        46.000    20560188.11749
 15  8 23  1 52  0.0000000  0 10G05G07G21G28G08G20G15G19G30G13
  21413548.516 9 112528987.876 9        50.600    21413553.027 9  87684951.75449
        43.800    21413552.27049
  23554262.984 7 123778519.931 7        41.100    23554266.734 7  96450815.10547
        29.700    23554266.63747
  25518844.344 6 134102430.305 6        38.600                   104495390.50545
        19.000    25518847.35545
  21265535.320 9 111751162.095 9        49.800                    87078853.97149
        42.300    21265538.70749
  24907985.570 5 130892394.876 5        37.200    24907993.770 5 101994065.62245
        16.300    24907992.58245  24907989.367 1  97744302.020 1        25.400
  21699379.813 9 114031008.907 9        49.800                    88855348.56449
        37.700    21699382.43849
  22588491.719 8 118703309.346 8        45.800    22588495.840 7  92496133.01049
        36.000    22588495.77749
  24937969.836 5 131049885.752 5        37.700                   102116821.83645
        19.300    24937971.57845
  21280587.148 9 111830270.685 9        51.000    21280594.242 9  87140508.30449
        42.800    21280593.19949  21280590.820 6  83509648.544 6        39.900
  20552196.047 9 108002550.385 9        53.400                    84157861.23049
        45.800    20552199.58649
 15  8 23  1 52 30.0000000  0 10G05G07G21G28G08G20G15G19G30G13
  21425744.422 9 112593079.272 9        51.100    21425749.004 9  87734893.09849
        43.300    21425748.30149
  23571645.641 6 123869867.952 6        40.500    23571649.961 7  96521995.36647
        29.300    23571649.18447
  25518365.773 6 134099914.964 6        39.400                   104493430.51545
        17.800    25518367.65645
  21260343.148 9 111723877.711 9        49.300                    87057593.42849
        42.100    21260346.49249
  24907505.453 6 130889860.234 6        38.100    24907511.164 5 101992090.59345
        17.800    24907509.76645  24907506.379 1  97742409.268 1        25.300
  21693128.344 9 113998159.699 9        50.900                    88829751.78349
        38.400    21693131.35949
  22572360.734 8 118618538.874 8        45.900    22572364.793 8  92430078.10949
        37.500    22572364.33249
  24935699.484 5 131037956.509 5        37.300                   102107526.32845
        19.300    24935700.84845
  21292726.688 9 111894063.445 9        50.500    21292733.887 9  87190216.93649
        43.400    21292732.99649  21292730.441 6  83557285.985 6        40.000
  20544272.688 9 107960912.437 9        54.100                    84125416.09249
        45.700    20544276.49249
 15  8 23  1 53  0.0000000  0 10G05G07G21G28G08G20G15G19G30G13
  21438030.820 9 112657644.580 9        50.800    21438035.363 9  87785203.71949
        43.500    21438034.94949
  23589045.063 6 123961302.118 6        40.600    23589049.230 7  96593242.72147
        29.600    23589048.74647
  25517971.742 5 134097846.607 5        37.400                   104491818.82445
        17.400    25517974.90645
  21255253.203 9 111697128.769 9        50.200                    87036750.10849
        41.800    21255256.13749
  24907122.906 5 130887860.437 5        36.900    24907130.707 5 101990532.33545
        17.800    24907129.28545  24907125.605 1  97740915.892 1        25.600
  21686986.461 9 113965883.355 9        50.800                    88804601.38449
        38.100    21686989.74649
  22556265.086 8 118533954.550 8        46.300    22556268.875 7  92364168.25249
        36.900    22556268.33249
  24933539.258 6 131026597.957 6        40.400                   102098675.54545
        19.600    24933539.76245
  21304920.039 9 111958141.057 9        51.000    21304926.523 9  87240147.54349
        42.900    21304925.51249  21304923.426 6  83605136.149 6        40.000
  20536414.695 9 107919616.850 9        53.800                    84093237.70649
        45.800    20536417.90649
 15  8 23  1 53 30.0000000  0 10G05G07G21G28G08G20G15G19G30G13
  21450407.289 9 112722681.878 9        49.900    21450411.930 9  87835882.12549
        43.700    21450411.35249
  23606460.922 7 124052821.126 7        41.100    23606465.121 7  96664556.24548
        30.200    23606464.64548
  25517661.977 3 134096225.518 3        32.600                   104490555.57845
        17.800    25517667.46945
  21250264.914 9 111670916.637 9        49.900                    87016325.07149
        42.600    21250268.19149
  24906845.359 6 130886395.956 6        38.200    24906852.238 5 101989391.17545
        19.000    24906850.98045  24906847.238 1  97739822.316 1        26.400
  21680953.852 9 113934180.884 9        50.100                    88779898.16449
        38.200    21680956.87549
  22540205.258 8 118449558.294 8        46.400    22540209.184 7  92298404.94449
        36.800    22540208.54349
  24931485.773 6 131015811.433 6        38.700                   102090270.44145
        19.300    24931487.94145
  21317167.672 9 112022502.109 9        49.500    21317174.125 9  87290299.00649
        43.100    21317173.16449  21317171.371 6  83653197.964 6        40.000
  20528621.586 9 107878665.370 9        53.900                    84061327.47349
        45.800    20528624.97749
 15  8 23  1 54  0.0000000  0 10G05G07G21G28G08G20G15G19G30G13
  21462872.813 9 112788189.012 9        49.300    21462877.762 9  87886926.64649
        43.200    21462877.18849
  23623891.875 7 124144423.673 7        41.100    23623896.379 7  96735934.83347
        28.600    23623896.02047
  25517439.313 5 134095051.149 5        35.800                   104489640.49245
        16.300    25517442.98045
  21245379.320 9 111645241.730 9        50.200                    86996318.66249
        41.800    21245382.71549
  24906667.406 5 130885467.266 5        37.800    24906674.945 5 101988667.52345
        18.300    24906673.47745  24906670.617 1  97739128.807 1        28.200
  21675030.469 9 113903053.473 9        49.600                    88755643.05349
        38.400    21675033.72749
  22524180.523 8 118365351.788 8        46.600    22524185.027 8  92232789.49949
        37.900    22524184.77349
  24929542.164 6 131005597.679 6        38.900                   102082311.62645
        19.900    24929543.32845
  21329468.844 9 112087144.825 9        49.600    21329475.777 9  87340669.95249
        42.400    21329474.96549  21329472.410 6  83701470.122 6        39.600
  20520894.242 9 107838058.819 9        54.800                    84029686.00849
        45.800    20520898.00849
 15  8 23  1 54 30.0000000  0 10G05G07G21G28G08G20G15G19G30G13
  21475427.148 9 112854163.793 9        51.400    21475431.836 9  87938335.55049
        43.600    21475431.25049
  23641339.023 7 124236108.618 7        41.300    23641343.297 7  96807377.63047
        29.000    23641342.97347
  25517302.328 5 134094322.975 5        37.800                   104489073.13945
        19.300    25517304.66445
  21240595.766 9 111620104.344 9        50.100                    86976731.10049
        42.200    21240599.25849
  24906593.586 5 130885074.706 5        37.600    24906600.598 5 101988361.63445
        16.900    24906599.26245  24906595.988 1  97738835.662 1        28.300
  21669216.641 9 113872502.345 9        50.200                    88731836.97949
        38.100    21669220.20749
  22508193.242 8 118281336.311 8        47.500    22508197.234 8  92167322.91049
        36.900    22508197.17249
  24927707.656 5 130995957.668 5        37.900                   102074799.90345
        19.300    24927709.22745
  21341823.344 9 112152067.559 9        51.300    21341830.184 9  87391259.09049
        42.800    21341829.27349  21341826.719 6  83749951.379 6        40.100
  20513233.250 9 107797798.551 9        54.900                    83998314.37149
        45.800    20513236.78549
 15  8 23  1 55  0.0000000  0 10G05G07G21G28G08G20G15G19G30G13
  21488070.633 9 112920604.484 9        49.300    21488074.742 9  87990107.50649
        43.200    21488074.61349
  23658801.805 6 124327875.088 6        40.400    23658805.988 7  96878883.95247
        27.800    23658805.41047
  25517248.055 5 134094040.71615        36.500                   104488853.12955
        19.300    25517250.94945
  21235914.758 9 111595505.437 9        50.800                    86957563.13449
        42.100    21235918.28549
  24906621.164 5 130885219.158 5        37.600    24906628.125 5 101988474.16945
        17.800    24906627.29745  24906624.199 1  97738943.545 1        29.300
  21663512.867 9 113842528.782 9        49.300                    88708480.95949
        38.000    21663516.00449
  22492242.227 8 118197513.992 8        46.900    22492246.391 7  92102006.82849
        37.300    22492246.02049
  24925982.734 5 130986892.231 5        35.800                   102067735.98246
        20.600    24925985.13746
  21354230.602 9 112217268.956 9        49.400    21354237.570 9  87442065.37149
        43.100    21354236.80149  21354234.188 6  83798640.728 6        39.900
  20505638.219 9 107757886.386 9        54.400                    83967213.98849
        46.200    20505642.05949
 15  8 23  1 55 30.0000000  0 10G05G07G21G28G08G20G15G19G30G13
  21500801.797 9 112987508.357 9        49.700    21500806.035 9  88042240.39449
        42.900    21500805.79349
  23676278.938 7 124419721.286 7        41.000    23676283.426 7  96950452.42547
        28.400    23676283.34847
  25517279.680 5 134094203.371 5        37.700                   104488979.84345
        18.300    25517282.01245
  21231336.328 9 111571444.972 9        51.100                    86938814.73049
        42.700    21231339.78949
  24906750.188 5 130885900.344 5        37.900    24906757.375 5 101989004.91645
        16.900    24906756.72345  24906753.098 1  97739452.216 1        28.100
  21657919.117 9 113813133.112 9        50.400                    88685575.24949
        38.400    21657922.44149
  22476328.203 8 118113885.581 8        47.300    22476332.289 7  92036841.84249
        37.700    22476331.61749
  24924366.391 5 130978401.424 5        37.100                   102061119.75346
        20.100    24924368.81646
  21366690.453 9 112282746.510 9        49.900    21366697.375 9  87493086.83549
        43.400    21366696.54749  21366693.996 6  83847536.299 6        39.900
  20498109.469 9 107718322.106 9        54.100                    83936384.68449
        46.100    20498112.78949
 15  8 23  1 56  0.0000000  0 10G05G07G21G28G08G20G15G19G30G13
  21513621.266 9 113054874.277 9        49.400    21513625.922 9  88094733.30949
        43.100    21513625.10549
  23693772.352 7 124511646.684 7        42.600    23693776.676 7  97022082.59747
        28.900    23693776.27347
  25517394.727 5 134094811.519 5        37.300                   104489453.75545
        18.300    25517397.94545
  21226860.164 9 111547924.455 9        51.200                    86920487.06549
        42.100    21226864.01649
  24906982.102 5 130887119.063 5        37.300    24906989.258 6 101989954.58845
        17.400    24906988.77345  24906985.090 1  97740362.331 1        27.200
  21652435.852 9 113784317.573 9        50.000                    88663121.58549
        38.400    21652439.02349
  22460451.813 8 118030453.369 8        47.500    22460456.516 8  91971829.75249
        37.200    22460455.75449
  24922860.586 5 130970487.148 5        36.300                   102054952.82046
        20.400    24922862.07446
  21379202.789 9 112348499.591 9        49.300    21379209.563 9  87544323.00049
        42.500    21379208.63349  21379206.371 6  83896637.623 6        39.400
  20490647.523 9 107679108.972 9        54.500                    83905829.00249
        46.000    20490651.07049
 15  8 23  1 56 30.0000000  0 10G05G07G21G28G08G20G15G19G30G13
  21526528.055 9 113122699.931 9        51.100    21526532.840 9  88147584.46349
        43.400    21526531.96949
  23711279.125 7 124603649.547 7        42.500    23711283.672 6  97093773.12348
        30.000    23711283.48048
  25517593.852 5 134095864.438 5        37.300                   104490274.24245
        17.800    25517599.33645
  21222487.406 9 111524944.299 9        51.100                    86902580.46049
        42.700    21222490.90249
  24907316.336 5 130888875.478 5        37.900    24907323.504 5 101991323.26345
        17.800    24907322.45345  24907319.184 1  97741673.928 1        26.700
  21647062.938 9 113756082.559 9        50.400                    88641120.27449
        38.700    21647065.73049
  22444612.508 8 117947218.603 8        47.300    22444616.754 7  91906971.49549
        37.200    22444616.06649
  24921464.711 5 130963149.662 5        37.800                   102049235.31446
        22.300    24921465.68046
  21391767.313 9 112414526.156 9        50.000    21391774.523 9  87595772.27149
        43.000    21391773.52049  21391771.082 6  83945943.172 6        39.800
  20483252.328 9 107640247.371 9        54.800                    83875547.23749
        46.200    20483255.84049
 15  8 23  1 57  0.0000000  0 10G05G07G21G28G08G20G15G19G30G13
  21539521.664 9 113190983.060 9        50.800    21539526.293 9  88200792.08849
        44.000    21539525.71949
  23728801.969 7 124695728.874 7        43.000    23728805.953 6  97165523.23647
        28.300    23728805.60547
  25517880.078 5 134097361.350 5        36.800                   104491440.67345
        19.000    25517882.39845
  21218217.133 9 111502504.750 9        50.300                    86885095.10749
        42.300    21218220.60549
  24907753.148 6 130891170.015 6        39.100    24907760.191 6 101993111.19145
        19.000    24907759.04745  24907755.539 1  97743387.360 1        26.600
  21641800.680 9 113728429.280 9        49.800                    88619572.26149
        38.500    21641803.46549
  22428811.141 8 117864182.923 8        47.000    22428815.648 7  91842268.38149
        37.600    22428814.41849
  24920176.898 5 130956389.876 5        35.800                   102043967.95146
        21.700    24920180.48446
  21404383.484 9 112480824.493 9        49.600    21404390.129 9  87647433.30849
        42.700    21404389.34449  21404386.793 6  83995451.661 6        40.200
  20475924.266 9 107601738.717 9        55.200                    83845540.49349
        46.000    20475927.65649
 15  8 23  1 57 30.0000000  0 10G05G07G21G28G08G20G15G19G30G13
  21552602.336 9 113259721.603 9        51.200    21552606.930 9  88254354.58049
        43.700    21552606.32849
  23746338.305 7 124787883.465 7        41.700    23746342.711 6  97237331.99447
        29.100    23746341.50447
  25518248.898 5 134099301.648 5        36.200                   104492952.55445
        17.800    25518251.58645
  21214050.047 9 111480606.352 9        50.700                    86868031.42349
        42.300    21214053.57849
  24908292.391 5 130894003.181 5        36.000    24908299.746 6 101995318.83745
        19.300    24908298.77745  24908294.449 1  97745503.025 1        25.600
  21636649.508 9 113701358.889 9        50.300                    88598478.45249
        38.500    21636652.42649
  22413048.313 8 117781348.081 8        46.400    22413053.188 8  91777721.75649
        38.300    22413052.69949
  24919001.438 5 130950208.373 5        35.800                   102039151.15146
        21.100    24919003.54346
  21417050.773 9 112547393.031 9        50.000    21417058.074 9  87699304.89349
        42.600    21417057.22749  21417054.730 6  84045161.922 6        39.700
  20468663.875 9 107563584.257 9        54.700                    83815809.74249
        45.700    20468667.35549
 15  8 23  1 58  0.0000000  0 10G05G07G21G28G08G20G15G19G30G13
  21565769.516 9 113328913.437 9        51.800    21565774.168 9  88308270.29149
        43.200    21565773.63349
  23763888.742 7 124880112.337 7        42.400    23763893.500 7  97309198.63147
        29.600    23763893.08247
  25518703.000 5 134101684.887 5        37.000                   104494809.61245
        19.000    25518705.70345
  21209986.094 9 111459249.638 9        49.900                    86851389.83949
        42.200    21209989.52349
  24908934.430 6 130897375.328 6        38.000    24908941.457 6 101997946.49146
        20.600    24908941.30946  24908936.688 1  97748021.149 1        27.900
  21631609.047 9 113674872.205 9        49.200                    88577839.47549
        38.800    21631611.57049
  22397323.398 8 117698715.520 8        46.600    22397328.395 7  91713332.76249
        37.400    22397327.87949
  24917935.844 5 130944605.971 5        35.900                   102034785.64645
        19.900    24917937.73445
  21429769.664 9 112614230.215 9        50.000    21429776.633 9  87751385.81049
        42.700    21429775.75849  21429773.145 6  84095072.812 6        39.500
  20461471.070 9 107525785.389 9        54.100                    83786356.08949
        46.200    20461474.18449
 15  8 23  1 58 30.0000000  0 10G05G07G21G28G08G20G15G19G30G13
  21579022.070 9 113398556.625 9        51.700    21579026.465 9  88362537.69149
        43.200    21579025.98849
  23781453.117 7 124972413.972 7        42.100    23781457.750 7  97381121.97447
        27.900    23781457.03147
  25519239.836 3 134104510.619 3        33.800                   104497011.41545
        17.800    25519243.16845
  21206025.109 9 111438435.428 9        50.100                    86835170.97949
        42.400    21206028.54749
  24909677.844 5 130901286.276 5        37.400    24909685.508 6 102000993.97946
        21.500    24909685.02346  24909680.695 1  97750941.662 1        28.900
  21626679.656 8 113648970.180 8        47.900                    88557656.08549
        38.600    21626683.42249
  22381638.156 8 117616286.933 8        46.600    22381642.578 8  91649102.71349
        37.700    22381642.11749
  24916979.664 5 130939583.320 5        35.500                   102030871.92646
        21.300    24916982.23046
  21442539.164 9 112681334.259 9        49.000    21442546.051 9  87803674.67449
        42.600    21442544.96549  21442542.703 6  84145182.971 6        40.400
  20454345.711 9 107488343.357 9        54.600                    83757180.48549
        46.000    20454349.31349
 15  8 23  1 59  0.0000000  0 10G05G07G21G28G08G20G15G19G30G13
  21592360.109 9 113468648.990 9        49.300    21592364.480 9  88417155.11549
        42.600    21592364.01649
  23799031.203 6 125064786.997 6        40.900    23799035.449 6  97453100.93347
        27.900    23799034.85247
  25519861.930 5 134107778.177 5        35.800                   104499557.54645
        18.300    25519864.85545
  21202167.844 9 111418163.501 9        49.900                    86819374.68349
        42.100    21202171.09449
  24910525.320 6 130905736.132 6        38.300    24910532.469 6 102004461.39546
        20.600    24910532.35546  24910528.617 1  97754264.593 1        29.400
  21621862.625 9 113623653.837 9        49.100                    88537929.07049
        38.300    21621865.57849
  22365991.719 8 117534063.545 8        47.400    22365995.461 8  91585032.55049
        38.200    22365995.26649
  24916135.625 5 130935140.697 5        36.500                   102027410.16945
        19.300    24916135.67245
  21455359.375 9 112748703.340 9        48.900    21455366.203 9  87856170.04849
        42.200    21455365.31649  21455363.117 6  84195491.033 6        39.800
  20447288.969 9 107451259.093 9        53.900                    83728283.65649
        46.300    20447292.28949
 15  8 23  1 59 30.0000000  0 10G05G07G21G28G08G20G15G19G30G13
  21605783.008 9 113539187.953 9        52.100    21605787.516 9  88472120.53449
        42.300    21605786.98049
  23816623.109 7 125157230.756 7        41.600    23816627.215 6  97525135.00247
        29.300    23816626.83247
  25520567.805 4 134111486.874 4        34.600                   104502447.37245
        16.900    25520571.02045
  21198413.109 9 111398434.200 9        50.700                    86804001.21449
        42.300    21198416.66049
  24911475.969 6 130910725.211 6        38.700    24911481.133 6 102008348.95546
        20.900    24911481.88746  24911477.621 1  97757990.198 1        28.500
  21617156.453 8 113598923.795 8        47.600                    88518658.90949
        38.800    21617159.38349
  22350384.797 8 117452047.040 8        47.200    22350388.656 8  91521123.60149
        38.800    22350388.73849
  24915399.969 5 130931278.904 5        37.000                   102024400.95845
        18.600    24915402.00445
  21468229.180 9 112816335.958 9        49.100    21468236.188 9  87908870.79049
        42.800    21468235.31649  21468232.762 6  84245995.907 6        39.600
  20440300.500 9 107414533.786 9        54.300                    83699666.53049
        46.400    20440303.95749
 15  8 23  2  0  0.0000000  0 10G05G07G21G28G08G20G15G19G30G13
  21619291.352 9 113610171.833 9        49.500    21619295.840 9  88527432.63749
        42.500    21619295.18449
  23834227.633 6 125249743.946 6        40.900    23834231.828 6  97597223.22247
        28.500    23834231.69147
  25521357.164 5 134115636.679 5        36.100                   104505680.98545
        17.400    25521360.98445
  21194762.367 9 111379248.487 9        51.200                    86789051.31449
        42.300    21194765.31349
  24912527.555 6 130916254.305 6        39.400    24912534.203 6 102012657.29046
        21.100    24912533.95346  24912529.801 1  97762119.040 1        27.500
  21612562.250 9 113574781.210 9        48.700                    88499846.50149
        38.700    21612565.29749
  22334817.063 8 117370239.607 8        46.700    22334821.156 8  91457377.56349
        38.400    22334820.85549
  24914775.977 5 130927999.096 5        36.200                   102021845.20745
        17.800    24914777.09445
  21481149.102 9 112884230.829 9        48.900    21481155.969 9  87961775.88349
        42.100    21481155.39549  21481152.957 6  84296696.617 6        39.600
  20433380.680 9 107378169.593 9        54.600                    83671330.80049
        46.000    20433384.20349
 15  8 23  2  0 30.0000000  0 10G05G07G21G28G08G20G15G19G30G13
  21632882.914 9 113681598.519 9        51.000    21632887.121 9  88583089.78549
        42.700    21632886.60249
  23851844.836 7 125342325.527 7        41.400    23851849.855 7  97669364.69247
        28.100    23851849.59447
  25522231.164 5 134120226.781 5        36.300                   104509257.69945
        17.800    25522234.31345
  21191215.375 9 111360606.996 9        49.800                    86774525.48749
        42.300    21191218.77049
  24913681.922 5 130922323.046 5        37.300    24913688.754 5 102017386.19246
        20.600    24913688.39146  24913684.707 1  97766650.880 1        26.300
  21608079.992 9 113551227.329 9        48.600                    88481492.82549
        38.800    21608083.53549
  22319289.219 8 117288642.713 8        47.000    22319293.742 8  91393795.57949
        38.300    22319293.29749
  24914263.297 5 130925301.570 5        36.500                   102019743.21245
        16.900    24914262.40645
  21494118.602 9 112952386.352 9        48.700    21494125.836 9  88014884.07949
        42.300    21494124.87149  21494122.023 6  84347591.974 6        39.100
  20426529.734 9 107342167.611 9        54.200                    83643277.31349
        46.600    20426533.18049
 15  8 23  2  1  0.0000000  0 10G05G07G21G28G08G20G15G19G30G13
  21646558.383 9 113753465.470 9        52.100    21646563.340 9  88639089.99449
        43.000    21646562.78149
  23869476.289 7 125434974.368 7        41.800    23869480.199 7  97741558.54947
        27.500    23869479.52047
  25523187.547 4 134125256.544 4        34.800                   104513176.98145
        16.900    25523190.98045
  21187771.453 9 111342509.641 9        50.700                    86760423.65749
        43.400    21187774.87549
  24914939.328 6 130928932.282 6        38.600    24914946.563 6 102022536.22745
        19.900    24914945.77045  24914941.793 1  97771586.339 1        28.400
  21603709.992 9 113528263.149 9        49.600                    88463598.65849
        38.900    21603713.32449
  22303802.391 8 117207258.144 8        47.000    22303806.797 8  91330379.05149
        38.700    22303806.05549
  24913860.805 5 130923186.942 5        36.400                   102018095.43745
        17.800    24913861.56345
  21507137.461 9 113020800.922 9        49.600    21507144.512 9  88068194.11749
        42.900    21507143.87949  21507141.035 6  84398680.760 6        40.100
  20419747.875 9 107306528.978 9        54.300                    83615506.94949
        46.500    20419751.10549
 15  8 23  2  1 30.0000000  0 10G05G07G21G28G08G20G15G19G30G13
  21660317.930 9 113825770.509 9        52.100    21660322.512 9  88695431.57449
        42.300    21660321.96149
  23887118.313 7 125527688.779 7        41.400    23887122.754 6  97813803.52647
        27.100    23887121.66447
  25524227.859 4 134130725.103 4        34.400                   104517438.18945
        16.900    25524231.75845
  21184430.844 9 111324956.275 9        52.700                    86746745.72349
        42.400    21184434.27749
  24916299.977 6 130936080.979 6        39.200    24916306.090 6 102028106.66245
        19.900    24916304.75445  24916301.773 1  97776924.659 1        26.800
  21599452.539 9 113505888.508 9        50.000                    88446163.87249
        38.700    21599455.48449
  22288355.945 8 117126086.884 8        47.300    22288360.289 8  91267128.72949
        37.900    22288359.72349
  24913568.086 3 130921655.087 3        33.200                   102016901.76545
        16.300    24913571.58245
  21520205.344 9 113089472.232 9        50.800    21520212.160 9  88121704.22649
        41.800    21520211.41049  21520208.855 6  84449961.273 6        39.200
  20413035.313 9 107271254.276 9        54.900                    83588020.16949
        46.000    20413038.67249
 15  8 23  2  2  0.0000000  0 10G05G07G21G28G08G20G15G19G30G13
  21674160.109 9 113898511.587 9        51.300    21674164.672 9  88752112.93549
        42.900    21674164.19149
  23904773.266 7 125620467.943 7        42.700    23904778.434 6  97886098.96547
        27.700    23904777.66047
  25525352.305 2 134136631.750 2        31.500                   104522040.82845
        15.600    25525355.84045
  21181194.445 9 111307947.812 9        51.900                    86733492.37949
        42.600    21181197.52749
  24917763.109 6 130943769.537 6        40.400    24917769.223 5 102034097.78846
        21.300    24917768.32046  24917765.047 1  97782666.131 1        28.500
  21595307.109 9 113484104.653 9        50.500                    88429189.44449
        39.200    21595309.90649
  22272950.836 8 117045130.714 8        47.700    22272954.766 8  91204046.01049
        38.800    22272954.29349
  24913387.719 5 130920706.627 5        37.600                   102016162.80145
        19.000    24913391.29345
  21533321.820 9 113158398.963 9        51.000    21533329.035 9  88175413.36749
        41.500    21533327.99649  21533325.441 6  84501432.533 6        39.500
  20406392.383 9 107236345.105 9        53.900                    83560818.21549
        46.100    20406395.57449
 15  8 23  2  2 30.0000000  0 10G05G07G21G28G08G20G15G19G30G13
  21688084.742 9 113971686.475 9        51.500    21688089.750 9  88809132.31649
        42.500    21688089.27049
  23922441.672 7 125713310.949 7        43.300    23922445.977 6  97958444.13847
        27.500    23922445.69547
  25526559.563 2 134142976.209 2        31.900                   104526984.43845
        17.400    25526562.87945
  21178061.273 9 111291484.297 9        52.200                    86720663.68249
        42.700    21178064.61749
  24919328.641 6 130951998.611 6        39.800    24919335.707 5 102040510.02345
        19.900    24919334.60545  24919331.508 1  97788811.212 1        28.900
  21591274.375 9 113462912.455 9        50.600                    88412676.04149
        38.700    21591277.51249
  22257586.594 9 116964391.755 9        48.900    22257590.727 8  91141132.55249
        38.800    22257589.84449
  24913319.023 5 130920342.549 5        37.900                   102015879.01745
        16.900    24913320.35545
  21546486.547 9 113227579.828 9        51.700    21546493.563 9  88229320.52549
        41.800    21546492.77049  21546489.980 6  84553093.556 6        39.800
  20399819.086 9 107201803.327 9        54.100                    83533902.55249
        46.000    20399822.67649
 15  8 23  2  3  0.0000000  0 10G05G07G21G28G08G20G15G19G30G13
  21702091.922 9 114045292.833 9        51.900    21702096.332 9  88866487.91349
        42.500    21702095.93449
  23940120.875 7 125806216.389 7        43.700    23940125.445 7  98030837.96547
        27.900    23940124.90247
  25527850.664 4 134149757.427 4        34.100                   104532268.49045
        19.000    25527853.55945
  21175032.336 9 111275565.892 9        51.800                    86708259.73249
        42.400    21175035.58249
  24920998.328 6 130960767.752 6        40.800    24921003.891 5 102047343.08346
        20.600    24921003.23846  24921000.320 1  97795359.593 1        29.500
  21587354.422 9 113442312.694 9        49.300                    88396624.27149
        38.600    21587357.59849
  22242264.281 9 116883871.404 9        49.400    22242268.324 8  91078389.43949
        38.600    22242268.01649
  24913360.719 6 130920562.998 6        39.000                   102016050.80745
        16.900    24913362.29745
  21559698.945 9 113297012.910 9        51.300    21559706.289 9  88283424.21049
        41.800    21559705.63349  21559702.844 6  84604942.919 6        39.100
  20393316.227 9 107167629.803 9        54.200                    83507273.83049
        46.200    20393319.45749
 15  8 23  2  3 30.0000000  0 10G05G07G21G28G08G20G15G19G30G13
  21716180.258 9 114119328.359 9        51.100    21716184.813 9  88924177.91849
        42.000    21716184.14849
  23957811.414 7 125899183.062 7        42.900    23957815.898 6  98103279.49747
        28.300    23957815.26247
  25529222.516 4 134156974.651 4        34.600                   104537892.29245
        19.300    25529226.63345
  21172106.633 9 111260193.096 9        52.500                    86696280.93749
        42.500    21172110.03149
  24922768.945 6 130970077.301 6        39.600    24922776.453 6 102054597.27546
        20.900    24922774.59046  24922771.727 1  97802311.520 1        26.500
  21583547.117 9 113422306.166 9        49.500                    88381034.76749
        38.700    21583550.28549
  22226983.484 9 116803570.979 9        49.600    22226987.859 8  91015817.68049
        38.500    22226987.49249
  24913513.227 6 130921368.068 6        38.300                   102016678.12545
        19.600    24913515.25045
  21572959.414 9 113366696.566 9        51.700    21572966.594 9  88337723.15449
        41.800    21572965.61749  21572963.242 6  84656979.409 6        39.500
  20386883.398 9 107133825.624 9        53.900                    83480932.91149
        46.200    20386886.47749
 15  8 23  2  4  0.0000000  0 10G05G07G21G28G08G20G15G19G30G13
  21730350.133 9 114193790.960 9        51.200    21730354.875 9  88982200.71449
        42.100    21730354.01649
  23975514.500 7 125992210.084 7        44.000    23975518.930 6  98175768.08447
        27.200    23975518.19147
  25530680.305 5 134164627.057 5        37.300                   104543855.20745
        18.600    25530682.94145
  21169285.484 9 111245365.948 9        52.900                    86684727.32749
        42.500    21169288.87149
  24924643.523 6 130979926.785 6        40.600    24924650.324 6 102062272.20946
        21.700    24924649.69546  24924646.543 1  97809666.654 1        28.500
  21579852.875 9 113402893.596 9        49.900                    88365908.08849
        38.700    21579855.82849
  22211745.242 9 116723492.372 9        50.000    22211749.484 8  90953418.78049
        39.000    22211748.53949
  24913778.000 6 130922758.457 6        39.400                   102017761.54745
        19.600    24913779.77345
  21586267.164 9 113436629.299 9        51.700    21586273.766 9  88392216.19549
        42.000    21586272.71149  21586270.625 6  84709201.900 6        39.400
  20380521.188 9 107100392.303 9        54.500                    83454880.97349
        46.000    20380524.62549
