     2.11           OBSERVATION DATA    G (GPS)             RINEX VERSION / TYPE
teqc  2019Feb12                         20210104 00:30:13UTCPGM / RUN BY / DATE
ZIMM                                                        MARKER NAME
14001M004                                                   MARKER NUMBER
TRIMBLE NETR9       SWISSTOPO                               OBSERVER / AGENCY
5429R49141          TRIMBLE NETR9       5.45                REC # / TYPE / VERS
99390               TRM29659.00     NONE                    ANT # / TYPE
  4331297.3480   567555.6390  4633133.7280                  APPROX POSITION XYZ
        0.0000        0.0000        0.0000                  ANTENNA: DELTA H/E/N
     1     1                                                WAVELENGTH FACT L1/2
    10    C1    L1    S1    C2    L2    S2    P2    C5    L5# / TYPES OF OBSERV
          S5                                                # / TYPES OF OBSERV
    30.0000                                                 INTERVAL
Linux 2.4.21-27.ELsmp|Opteron|gcc -static|Linux 64|=+       COMMENT
     2.11           OBSERVATION DATA    M (MIXED)           COMMENT
NetR9 5.45          Receiver Operator   20210103 000000 UTC COMMENT
L2C CARRIER PHASE MEASUREMENTS: PHASE SHIFTS REMOVED        COMMENT
L2C PHASE MATCHES L2 P PHASE                                COMMENT
GLONASS C/A & P PHASE MATCH: PHASE SHIFTS REMOVED           COMMENT
Forced Modulo Decimation to 30 seconds                      COMMENT
teqc edited: all GLONASS satellites excluded                COMMENT
teqc edited: all Galileo satellites excluded                COMMENT
  2021     1     3     0     0    0.0000000     GPS         TIME OF FIRST OBS
                                                            END OF HEADER
 21  1  3  0  0  0.0000000  0 11G21G23G16G07G15G08G26G18G20G10G27
  23471608.281 7 123344148.239 7        42.500                    96112331.39447
        25.400    23471611.66047
  21500088.508 9 112983736.444 9        48.000    21500092.902 9  88039298.71749
        38.700    21500092.83249  21500093.500 6  84370976.295 6        39.200
  21647300.836 9 113757343.751 9        48.700                    88642092.68249
        39.500    21647304.28149
  24681937.859 6 129704452.614 6        39.700    24681942.094 5 101068404.02446
        21.100    24681941.05546
  24533654.102 6 128925242.176 6        38.300    24533657.949 5 100461226.50948
        30.400    24533658.05148
  21964969.609 8 115426715.736 8        46.400    21964976.727 8  89942910.79849
        49.300    21964975.52749  21964971.574 6  86195300.152 6        38.300
  23735645.289 6 124731658.800 6        39.900    23735653.160 7  97193532.29949
        38.400    23735652.66049  23735648.012 2  93143778.647 2        31.600
  23588174.734 6 123956700.903 6        39.200    23588179.320 7  96589655.45347
        26.400    23588178.35247  23588179.820 4  92565076.818 4        34.100
  21475842.797 8 112856319.788 8        46.700                    87940012.43249
        37.700    21475846.03149
  21052155.227 9 110629835.433 9        53.300    21052161.484 9  86205141.18849
        55.200    21052161.34849  21052156.660 6  82613157.253 6        40.500
  20210590.609 9 106207383.545 9        50.800    20210597.043 9  82759030.36849
        55.100    20210596.27049  20210592.734 7  79310691.488 7        43.400
 21  1  3  0  0 30.0000000  0 11G21G23G16G07G15G08G26G18G20G10G27
  23457079.414 7 123267801.439 7        41.300                    96052840.38047
        25.700    23457083.18447
  21507604.328 8 113023231.757 8        47.700    21507608.840 9  88070074.28649
        38.900    21507608.78549  21507609.039 6  84400469.545 6        39.700
  21662513.242 8 113837284.390 8        47.900                    88704384.07949
        39.000    21662516.27049
  24685930.539 5 129725437.682 5        37.800    24685934.883 5 101084755.99446
        20.900    24685934.48846
  24537118.070 5 128943448.762 5        36.000    24537122.750 5 100475413.50147
        29.900    24537121.86347
  21950683.914 8 115351644.195 8        46.700    21950691.121 8  89884413.50049
        49.400    21950690.00049  21950685.914 6  86139240.217 6        38.400
  23756443.898 6 124840955.298 6        40.100    23756450.793 6  97278698.40349
        37.400    23756450.27049  23756446.582 2  93225396.159 2        31.700
  23606233.023 6 124051599.925 6        38.600    23606238.352 7  96663602.71947
        26.100    23606237.64147  23606238.164 3  92635942.947 3        33.300
  21484874.828 8 112903784.457 8        46.200                    87976997.89449
        36.900    21484878.33249
  21046792.805 9 110601654.405 9        53.000    21046798.883 9  86183181.95449
        55.100    21046798.78549  21046794.074 7  82592113.008 7        41.300
  20208389.742 9 106195816.529 9        50.500    20208395.926 9  82750017.10449
        56.100    20208395.12949  20208391.719 7  79302053.796 7        43.700
 21  1  3  0  1  0.0000000  0 11G21G23G16G07G15G08G26G18G20G10G27
  23442588.555 7 123191649.474 7        42.400                    95993501.20947
        25.300    23442591.84447
  21515226.125 9 113063284.914 9        48.200    21515230.664 9  88101284.54149
        38.800    21515230.18849  21515230.930 6  84430379.390 6        39.400
  21677805.125 9 113917642.916 9        48.000                    88767001.10749
        39.400    21677807.98049
  24690016.516 6 129746903.174 6        39.500    24690019.859 5 101101482.33246
        21.500    24690019.34846
  24540694.391 5 128962234.403 5        37.500    24540697.480 5 100490051.68948
        30.100    24540697.53948
  21936440.125 8 115276792.598 8        47.300    21936447.344 8  89826087.58349
        49.600    21936446.22349  21936442.551 6  86083344.555 6        38.700
  23777264.313 6 124950368.594 6        39.600    23777271.871 7  97363955.53549
        37.300    23777271.93049  23777267.344 2  93307100.884 2        31.900
  23624305.742 6 124146573.095 6        38.800    23624310.621 7  96737607.77247
        26.200    23624309.87547  23624311.418 3  92706864.464 3        33.500
  21494002.992 8 112951752.022 8        46.500                    88014375.21449
        37.100    21494005.95749
  21041537.273 9 110574037.564 9        52.600    21041543.594 9  86161662.34649
        54.900    21041543.33249  21041538.730 7  82571490.057 7        41.600
  20206267.281 9 106184662.619 9        50.800    20206273.207 9  82741325.74749
        55.500    20206272.50849  20206268.961 7  79293724.561 7        43.100
 21  1  3  0  1 30.0000000  0 11G21G23G16G07G15G08G26G18G20G10G27
  23428135.133 7 123115692.872 7        41.400                    95934314.29447
        26.600    23428137.69547
  21522953.930 8 113103894.375 8        47.600    21522958.344 9  88132928.28749
        38.400    21522957.70349  21522958.070 6  84460704.637 6        39.900
  21693175.813 8 113998417.762 8        47.900                    88829942.54849
        39.500    21693179.08649
  24694191.500 5 129768847.753 5        37.900    24694195.891 5 101118581.99946
        21.100    24694195.56646
  24544376.656 5 128981598.931 5        36.700    24544382.008 4 100505140.93447
        28.400    24544381.18047
  21922238.188 8 115202162.230 8        46.600    21922245.387 9  89767934.05549
        49.400    21922244.51249  21922240.563 6  86027614.092 6        38.900
  23798107.461 6 125059896.342 6        40.100    23798114.703 7  97449301.81449
        37.500    23798114.03949  23798109.824 2  93388891.073 2        31.600
  23642392.805 6 124241619.200 6        38.800    23642397.246 7  96811669.66047
        25.800    23642396.14547  23642397.809 3  92777840.457 3        33.800
  21503226.711 8 113000220.712 8        47.000                    88052143.03149
        37.400    21503229.32849
  21036389.563 9 110546985.699 9        53.500    21036395.785 9  86140582.98249
        55.300    21036395.50449  21036391.078 7  82551289.016 7        42.000
  20204223.352 9 106173922.668 9        51.100    20204229.516 9  82732956.94649
        55.900    20204228.78949  20204225.203 7  79285704.458 7        43.700
 21  1  3  0  2  0.0000000  0 11G21G23G16G07G15G08G26G18G20G10G27
  23413717.906 7 123039931.453 7        41.800                    95875279.43847
        26.100    23413721.18047
  21530787.227 8 113145058.181 8        47.500    21530791.535 9  88165003.98049
        38.800    21530790.75049  21530791.559 6  84491443.855 6        38.800
  21708625.227 9 114079606.185 9        48.100                    88893206.24449
        39.400    21708628.85949
  24698458.000 5 129791269.681 5        37.700    24698462.117 5 101136053.62346
        20.100    24698461.52746
  24548173.047 5 129001541.591 5        37.900    24548176.426 4 100520680.66747
        28.300    24548176.26247
  21908079.484 8 115127754.456 8        47.900    21908086.188 8  89709953.97749
        49.600    21908085.18049  21908081.457 6  85972049.891 6        39.000
  23818970.250 6 125169535.646 6        39.200    23818977.672 6  97534735.02149
        36.600    23818977.35249  23818972.703 2  93470764.590 2        31.000
  23660492.875 6 124336736.629 6        38.800    23660497.746 7  96885787.13747
        25.400    23660496.33647  23660497.984 4  92848869.695 4        34.300
  21512544.461 8 113049187.681 8        46.900                    88090299.11849
        37.800    21512547.80549
  21031349.453 9 110520499.209 9        52.100    21031355.402 9  86119944.18049
        54.900    21031355.34849  21031350.605 7  82531510.148 7        41.300
  20202258.531 9 106163597.195 9        51.600    20202264.594 9  82724911.12149
        55.400    20202264.03149  20202260.480 7  79277993.864 7        43.200
 21  1  3  0  2 30.0000000  0 11G21G23G16G07G15G08G26G18G20G10G27
  23399337.922 7 122964366.309 7        41.800                    95816397.52447
        26.000    23399341.15647
  21538725.320 8 113186775.820 8        47.800    21538730.289 9  88197511.23749
        38.400    21538729.36749  21538730.266 6  84522596.653 6        39.400
  21724153.242 8 114161206.921 8        47.300                    88956791.21849
        38.900    21724156.93849
  24702815.719 6 129814168.761 6        38.100    24702820.449 5 101153897.03146
        21.700    24702818.74246
  24552078.164 6 129022063.502 6        38.900    24552081.875 4 100536671.76647
        29.800    24552081.94147
  21893962.695 8 115053572.091 8        47.200    21893969.723 8  89652149.54049
        49.800    21893968.66849  21893964.762 6  85916653.946 6        38.800
  23839855.523 6 125279285.226 6        40.200    23839862.422 6  97620254.17249
        37.100    23839861.97749  23839857.375 2  93552720.478 2        31.100
  23678606.883 6 124431925.284 6        39.000    23678611.617 7  96959960.07647
        26.400    23678611.26247  23678612.176 4  92919952.070 4        34.300
  21521957.227 8 113098653.020 8        46.500                    88128843.53849
        37.300    21521960.73049
  21026417.078 9 110494579.919 9        53.100    21026423.207 9  86099747.33649
        55.100    21026422.95349  21026418.406 7  82512154.846 7        41.300
  20200372.469 9 106153688.134 9        51.000    20200379.176 9  82717189.76949
        55.600    20200378.43049  20200374.734 7  79270594.256 7        43.700
 21  1  3  0  3  0.0000000  0 11G21G23G16G07G15G08G26G18G20G10G27
  23384995.242 7 122888996.679 7        41.400                    95757667.95646
        24.400    23384998.28546
  21546768.766 8 113229043.856 8        47.900    21546773.332 9  88230447.37549
        38.700    21546772.90249  21546773.727 6  84554160.437 6        39.400
  21739759.469 9 114243215.587 9        48.100                    89020694.06849
        39.700    21739762.39149
  24707263.938 5 129837541.775 5        37.600    24707267.996 5 101172109.74246
        20.600    24707266.91846
  24556092.680 5 129043162.081 5        37.100    24556096.938 5 100553112.22548
        30.200    24556097.00448
  21879888.898 8 114979614.869 8        47.300    21879896.090 8  89594520.54249
        50.200    21879895.19949  21879891.516 6  85861426.182 6        38.900
  23860759.852 6 125389140.853 6        39.500    23860767.449 7  97705855.95149
        37.900    23860767.07449  23860762.691 2  93634755.45412        31.500
  23696733.664 6 124527182.061 6        40.800    23696737.793 7  97034186.12447
        25.200    23696737.51247  23696738.855 4  92991085.408 4        34.600
  21531464.430 8 113148613.058 8        46.500                    88167773.43649
        37.500    21531467.67649
  21021592.547 9 110469226.796 9        52.800    21021598.641 9  86079991.66249
        55.100    21021598.46149  21021593.496 7  82493222.323 7        41.100
  20198566.375 9 106144194.514 9        51.200    20198572.488 9  82709792.13649
        55.700    20198571.87149  20198568.395 7  79263504.856 7        43.600
 21  1  3  0  3 30.0000000  0 11G21G23G16G07G15G08G26G18G20G10G27
  23370690.961 7 122813824.378 7        41.000                    95699092.17347
        26.200    23370694.33247
  21554917.109 8 113271862.154 8        47.600    21554921.457 9  88263812.28549
        38.700    21554920.91449  21554921.672 6  84586135.135 6        39.200
  21755442.734 8 114325631.669 8        47.700                    89084914.39349
        39.200    21755445.94149
  24711800.719 5 129861388.911 5        36.900    24711806.082 5 101190691.88346
        20.900    24711805.39146
  24560216.680 5 129064838.488 5        36.200    24560221.586 4 100570002.94247
        28.300    24560221.62547
  21865858.859 8 114905885.806 8        47.200    21865865.984 8  89537069.34549
        49.900    21865864.79749  21865861.129 6  85806368.768 6        38.200
  23881684.797 6 125499101.500 6        39.800    23881692.473 7  97791539.58849
        37.300    23881691.95349  23881687.594 3  93716868.928 3        32.000
  23714873.852 6 124622507.353 6        39.600    23714878.203 7  97108465.54947
        26.400    23714876.74647  23714878.582 4  93062269.847 4        34.000
  21541065.883 8 113199067.546 8        46.200                    88207088.63249
        37.200    21541068.64549
  21016875.930 9 110444441.993 9        52.900    21016882.250 9  86060678.84049
        55.500    21016881.93049  21016877.188 7  82474714.220 7        41.100
  20196839.234 9 106135118.692 9        50.700    20196845.293 9  82702720.06849
        56.100    20196844.67649  20196841.297 7  79256727.439 7        43.300
 21  1  3  0  4  0.0000000  0 11G21G23G16G07G15G08G26G18G20G10G27
  23356423.906 7 122738848.520 7        42.800                    95640669.44747
        27.300    23356426.86747
  21563169.352 8 113315227.735 8        47.100    21563173.656 9  88297603.65949
        38.700    21563173.15249  21563173.891 6  84618518.550 6        39.400
  21771202.641 8 114408451.724 8        47.500                    89149449.48949
        38.400    21771206.25449
  24716429.172 5 129885707.721 5        35.100    24716433.156 5 101209641.52145
        18.600    24716432.71945
  24564451.969 5 129087090.954 5        35.200    24564455.875 5 100587342.57747
        28.100    24564455.78947
  21851872.469 8 114832385.361 8        46.700    21851879.367 8  89479796.26549
        49.900    21851877.98049  21851874.363 6  85751482.065 6        39.200
  23902628.469 6 125609163.404 6        39.100    23902636.816 7  97877302.08849
        36.800    23902636.19949  23902631.383 2  93799057.968 2        31.500
  23733026.125 6 124717898.552 6        39.800    23733030.586 7  97182796.34547
        25.600    23733029.28147  23733030.828 3  93133503.531 3        33.500
  21550760.266 8 113250013.636 8        45.900                    88246786.88949
        36.900    21550763.32849
  21012267.945 9 110420224.849 9        53.000    21012273.855 9  86041808.34149
        55.200    21012273.50049  21012268.902 7  82456629.981 7        42.000
  20195191.672 9 106126460.147 9        50.300    20195197.766 9  82695973.15249
        55.300    20195196.99649  20195193.500 7  79250261.653 7        43.100
 21  1  3  0  4 30.0000000  0 11G21G23G16G07G15G08G26G18G20G10G27
  23342193.734 7 122664069.897 7        41.600                    95582400.39647
        28.700    23342196.62947
  21571525.492 8 113359139.501 8        46.700    21571530.063 9  88331820.62449
        39.200    21571529.55549  21571530.168 6  84651309.786 6        39.200
  21787039.273 8 114491673.661 8        47.500                    89214297.74249
        38.700    21787042.80949
  24721146.523 5 129910496.719 5        37.200    24721151.328 5 101228957.63345
        19.900    24721150.44545
  24568796.703 5 129109919.863 5        36.200    24568800.570 5 100605131.35848
        30.000    24568799.81648
  21837929.273 8 114759115.463 8        47.000    21837936.383 8  89422702.84249
        50.000    21837935.18849  21837931.859 6  85696767.532 6        38.900
  23923591.727 6 125719324.719 6        38.900    23923599.688 7  97963142.05649
        36.700    23923599.12549  23923594.348 1  93881321.302 1        30.900
  23751190.797 6 124813355.070 6        39.400    23751194.855 7  97257178.01847
        26.000    23751194.49647  23751195.348 3  93204785.929 3        33.700
  21560548.156 8 113301449.630 8        46.500                    88286866.88649
        38.300    21560551.30549
  21007767.461 9 110396576.633 9        53.200    21007773.336 9  86023381.17549
        55.000    21007773.51649  21007768.969 6  82438970.616 6        40.900
  20193623.766 9 106118220.314 9        50.800    20193629.711 9  82689552.48949
        56.300    20193628.96949  20193625.504 7  79244108.514 7        42.900
 21  1  3  0  5  0.0000000  0 11G21G23G16G07G15G08G26G18G20G10G27
  23328001.539 7 122589488.949 7        42.900                    95524285.41147
        27.800    23328004.45347
  21579985.047 8 113403595.629 8        47.000    21579989.523 9  88366461.76149
        38.600    21579989.07049  21579989.898 6  84684507.547 6        39.200
  21802952.320 8 114575295.678 8        47.600                    89279457.74249
        39.000    21802955.60949
  24725953.305 5 129935754.481 5        37.800    24725957.137 6 101248638.99046
        21.500    24725956.52046
  24573250.602 5 129133324.546 5        36.800    24573254.492 5 100623368.80448
        30.100    24573253.56348
  21824031.188 8 114686078.157 8        47.100    21824038.020 8  89365790.66549
        50.100    21824036.69949  21824033.352 6  85642226.715 6        38.900
  23944574.000 6 125829582.908 6        39.200    23944581.098 7  98049057.53049
        35.900    23944580.43049  23944576.398 3  93963656.970 3        32.300
  23769367.234 6 124908875.555 6        39.000    23769372.121 7  97331609.54946
        24.800    23769371.07846  23769372.738 3  93276116.163 3        32.400
  21570429.359 8 113353373.876 8        47.200                    88327327.33449
        36.800    21570432.03949
  21003375.719 9 110373497.839 9        53.200    21003382.102 9  86005397.70749
        55.000    21003381.82449  21003376.820 7  82421736.447 7        41.100
  20192135.281 9 106110399.846 9        50.700    20192141.320 9  82683458.61749
        55.400    20192140.87549  20192137.309 7  79238268.572 7        42.600
 21  1  3  0  5 30.0000000  0 11G21G23G16G07G15G08G26G18G20G10G27
  23313846.125 7 122515105.945 7        41.700                    95466324.62547
        26.600    23313849.35247
  21588548.000 8 113448594.404 8        47.100    21588552.535 9  88401525.75349
        38.600    21588551.84849  21588552.777 6  84718110.526 6        39.200
  21818940.508 8 114659315.288 8        47.600                    89344927.57349
        38.800    21818943.82049
  24730848.133 5 129961479.576 5        36.600    24730851.809 5 101268684.50445
        19.000    24730851.73045
  24577813.523 5 129157304.470 5        37.800    24577817.082 5 100642054.45848
        30.300    24577817.38348
  21810177.023 8 114613274.925 8        47.600    21810184.203 9  89309060.88249
        50.100    21810182.86349  21810179.035 6  85587860.679 6        39.000
  23965572.750 6 125939935.518 6        39.400    23965580.934 7  98135046.54349
        36.500    23965580.34449  23965575.688 2  94046063.083 2        31.600
  23787556.695 6 125004458.899 6        39.900    23787560.875 7  97406090.08046
        24.700    23787560.29346  23787562.055 3  93347493.274 3        32.300
  21580402.352 8 113405784.562 8        46.400                    88368166.84249
        36.800    21580405.63749
  20999092.477 9 110350989.096 9        53.400    20999098.828 9  85987858.44149
        55.000    20999098.57449  20999093.473 7  82404928.002 7        41.000
  20190727.117 9 106102999.589 9        50.500    20190733.320 9  82677692.19049
        55.700    20190732.67249  20190729.035 7  79232742.388 7        43.900
 21  1  3  0  6  0.0000000  0 11G21G23G16G07G15G08G26G18G20G10G27
  23299729.836 7 122440920.545 7        41.900                    95408517.85147
        27.900    23299732.78947
  21597213.906 8 113494133.613 8        47.000    21597218.285 9  88437010.86049
        38.400    21597217.48049  21597218.602 6  84752117.117 6        39.200
  21835004.250 8 114743729.579 8        47.500                    89410704.93449
        38.400    21835007.32049
  24735831.750 5 129987670.371 5        36.400    24735835.660 5 101289092.89145
        19.900    24735835.83245
  24582486.055 5 129181858.412 5        37.800    24582489.516 5 100661187.42748
        30.700    24582489.00848
  21796367.781 8 114540706.801 8        46.600    21796374.676 9  89252514.30349
        50.300    21796373.60549  21796370.188 6  85533670.200 6        39.400
  23986589.828 6 126050379.592 6        39.500    23986597.012 7  98221106.86249
        36.900    23986596.46949  23986592.621 2  94128537.575 2        31.500
  23805757.734 6 125100103.396 6        39.700    23805761.805 7  97480618.23747
        25.300    23805761.10547  23805762.477 3  93418916.163 3        32.000
  21590468.352 8 113458678.933 8        46.400                    88409383.23149
        37.300    21590471.41049
  20994917.727 9 110329050.472 9        53.300    20994923.816 9  85970763.42249
        55.600    20994923.81349  20994918.895 7  82388545.258 7        41.000
  20189398.875 9 106096019.859 9        50.300    20189405.191 9  82672253.42949
        55.500    20189404.55149  20189400.910 7  79227530.259 7        43.300
 21  1  3  0  6 30.0000000  0 11G21G23G16G07G15G08G26G18G20G10G27
  23285650.688 7 122366934.695 7        43.200                    95350866.54047
        29.000    23285653.73847
  21605982.266 8 113540212.656 8        47.600    21605987.063 9  88472916.60649
        38.400    21605986.41049  21605987.660 6  84786526.778 6        39.400
  21851142.172 8 114828537.231 8        47.600                    89476788.80749
        38.400    21851145.79349
  24740905.250 6 130014326.224 6        39.300    24740907.934 5 101309863.64746
        21.800    24740908.77746
  24587267.859 5 129206987.030 5        37.500    24587271.301 5 100680768.17247
        29.700    24587272.10247
  21782603.648 8 114468376.329 8        47.300    21782610.629 8  89196152.91049
        50.300    21782609.41049  21782606.094 6  85479657.207 6        39.200
  24007623.594 6 126160913.840 6        40.100    24007631.098 7  98307237.44849
        37.300    24007630.41049  24007626.465 1  94211079.347 1        30.700
  23823968.953 6 125195809.021 6        38.400    23823973.855 7  97555194.02246
        24.500    23823973.14846  23823974.629 3  93490384.628 3        32.900
  21600625.313 8 113512056.653 8        46.000                    88450976.25649
        36.800    21600628.53949
  20990851.703 9 110307683.654 9        53.500    20990857.938 9  85954113.95449
        54.900    20990857.65649  20990852.840 7  82372589.549 7        41.600
  20188151.328 9 106089462.512 9        50.500    20188157.531 9  82667143.80949
        56.000    20188156.83649  20188153.297 7  79222633.542 7        43.700
 21  1  3  0  7  0.0000000  0 11G21G23G16G07G15G08G26G18G20G10G27
  23271609.531 7 122293147.423 7        42.500                    95293369.98747
        26.900    23271611.88347
  21614852.508 8 113586828.559 8        47.800    21614857.594 9  88509240.68949
        37.700    21614856.97749  21614858.109 6  84821337.380 6        38.800
  21867355.023 8 114913734.592 8        47.600                    89543176.35349
        38.000    21867358.48849
  24746064.930 6 130041444.217 6        38.500    24746068.625 5 101330994.56846
        21.800    24746068.94146
  24592158.852 6 129232688.690 6        38.300    24592162.387 5 100700795.44147
        29.400    24592161.63747
  21768885.367 8 114396284.194 8        47.900    21768891.930 8  89139977.22349
        50.500    21768890.63349  21768887.367 6  85425822.163 6        39.500
  24028673.906 6 126271534.637 6        40.100    24028681.473 6  98393435.47149
        37.300    24028681.03149  24028676.820 2  94293685.795 2        31.100
  23842192.578 6 125291573.438 6        39.400    23842197.129 7  97629815.62846
        23.000    23842196.07446  23842197.387 3  93561896.998 3        32.600
  21610874.148 8 113565914.690 8        46.400                    88492943.56349
        37.500    21610877.55949
  20986894.250 9 110286888.051 9        53.300    20986900.625 9  85937909.59449
        55.400    20986900.32449  20986895.570 7  82357060.368 7        41.200
  20186983.664 9 106083327.207 9        50.800    20186989.809 9  82662363.04949
        55.600    20186989.33649  20186985.895 7  79218051.987 7        43.200
 21  1  3  0  7 30.0000000  0 11G21G23G16G07G15G08G26G18G20G10G27
  23257605.711 7 122219558.983 7        41.500                    95236028.36847
        26.800    23257609.10247
  21623825.883 8 113633979.693 8        47.300    21623830.180 9  88545981.83749
        39.000    21623829.73849  21623830.109 6  84856547.610 6        39.500
  21883641.523 8 114999319.534 8        47.500                    89609865.90349
        38.400    21883644.55149
  24751313.039 5 130069023.426 5        36.500    24751317.137 3 101352484.84145
        19.300    24751316.44945
  24597157.594 6 129258962.876 6        38.000    24597162.289 5 100721268.85347
        29.700    24597161.71147
  21755212.008 8 114324431.881 8        47.400    21755218.984 9  89083988.41049
        50.700    21755217.67649  21755213.984 6  85372166.222 6        39.300
  24049740.367 6 126382239.697 6        38.400    24049748.074 6  98479699.15149
        36.300    24049747.25449  24049743.590 2  94376355.152 2        31.800
  23860427.328 7 125387395.594 7        41.600    23860431.461 7  97704482.25447
        26.000    23860431.00047  23860432.023 2  93633452.471 2        31.900
  21621214.227 8 113620251.223 8        47.400                    88535283.72349
        36.300    21621217.15649
  20983046.023 9 110266664.275 9        53.400    20983052.305 9  85922150.82749
        55.000    20983051.96549  20983047.320 7  82341958.215 7        41.500
  20185896.383 9 106077614.853 9        51.200    20185902.859 9  82657911.86849
        55.200    20185902.33649  20185898.648 7  79213786.267 7        43.500
 21  1  3  0  8  0.0000000  0 11G21G23G16G07G15G08G26G18G20G10G27
  23243640.938 7 122146170.172 7        43.100                    95178842.30347
        27.400    23243643.62947
  21632899.555 9 113681664.442 9        48.200    21632904.262 9  88583138.79149
        38.700    21632903.80149  21632904.215 6  84892156.377 6        39.200
  21900000.797 8 115085290.001 8        47.200                    89676855.86649
        38.400    21900004.22349
  24756649.039 6 130097062.189 6        38.200    24756651.918 4 101374333.22845
        19.600    24756652.07845
  24602266.891 5 129285809.330 5        36.800    24602270.590 5 100742188.19247
        29.600    24602270.33647
  21741584.828 9 114252821.615 9        48.200    21741591.984 8  89028188.21349
        50.800    21741590.87549  21741586.793 6  85318691.025 6        39.200
  24070822.656 6 126493026.756 6        38.200    24070830.152 6  98566026.72449
        35.400    24070829.44949  24070824.898 2  94459085.725 2        31.400
  23878672.039 6 125483274.501 6        40.200    23878676.625 7  97779193.07647
        26.200    23878676.53947  23878676.910 3  93705050.293 3        33.100
  21631645.125 8 113675064.431 8        46.600                    88577995.32049
        36.600    21631647.86349
  20979306.344 9 110247013.131 9        53.500    20979312.672 9  85906838.26249
        55.000    20979312.27749  20979307.598 7  82327283.692 7        41.300
  20184890.063 9 106072326.385 9        51.800    20184896.359 9  82653790.97449
        55.600    20184895.95349  20184892.398 7  79209837.073 7        43.100
 21  1  3  0  8 30.0000000  0 11G21G23G16G07G15G08G26G18G20G10G27
  23229712.898 7 122072981.320 7        43.200                    95121812.05047
        28.600    23229716.39147
  21642075.367 8 113729880.856 8        47.400    21642079.680 9  88620710.02649
        38.300    21642079.15249  21642079.324 6  84928162.163 6        39.300
  21916433.664 8 115171643.844 8        47.600                    89744144.57649
        38.600    21916436.68049
  24762071.492 5 130125558.966 5        37.300    24762075.555 4 101396538.53245
        19.900    24762075.12145
  24607483.758 5 129313227.219 5        35.500    24607488.379 5 100763552.79547
        29.500    24607487.98047
  21728004.430 9 114181454.985 9        49.100    21728011.449 8  88972577.86149
        50.900    21728010.30549  21728006.340 6  85265397.792 6        39.000
  24091919.477 6 126603893.233 6        38.800    24091926.656 6  98652416.17549
        35.100    24091926.74649  24091922.645 2  94541875.621 2        31.200
  23896927.813 6 125579208.921 6        40.600    23896932.605 7  97853947.14047
        25.000    23896931.86747  23896932.703 3  93776689.647 3        32.700
  21642165.570 8 113730352.252 8        46.300                    88621076.74449
        37.000    21642168.84049
  20975675.836 9 110227934.708 9        53.000    20975682.340 9  85891971.96149
        55.400    20975681.87949  20975677.168 6  82313036.800 6        40.900
  20183964.695 9 106067462.461 9        51.300    20183970.891 9  82650000.90449
        55.200    20183970.28549  20183966.508 7  79206204.921 7        43.500
 21  1  3  0  9  0.0000000  0 11G21G23G16G07G15G08G26G18G20G10G27
  23215823.609 7 121999992.778 7        42.300                    95064937.86547
        27.900    23215827.48447
  21651351.313 8 113778627.193 8        47.200    21651355.453 9  88658694.18549
        38.600    21651355.23049  21651355.742 6  84964563.635 6        39.500
  21932938.820 9 115258378.483 9        48.000                    89811730.00449
        37.900    21932941.73049
  24767581.281 5 130154512.126 5        37.000    24767585.145 4 101419099.34945
        18.600    24767584.77345
  24612809.805 5 129341215.708 5        35.300    24612814.371 5 100785362.05847
        28.600    24612813.56347
  21714470.180 8 114110333.236 8        47.000    21714477.250 9  88917158.32349
        51.000    21714476.29749  21714472.297 6  85212287.404 6        39.700
  24113031.813 6 126714836.749 6        39.400    24113039.551 7  98738865.63749
        36.400    24113038.75049  24113034.539 2  94624723.040 2        31.800
  23915194.289 7 125675197.784 7        41.500    23915198.484 7  97928743.62747
        25.600    23915197.78547  23915198.293 2  93848369.623 2        31.400
  21652776.609 8 113786113.210 8        46.700                    88664526.83849
        36.600    21652780.10949
  20972154.695 9 110209429.658 9        53.800    20972160.590 9  85877552.45649
        56.100    20972160.57449  20972155.723 7  82299218.115 7        41.200
  20183119.781 9 106063023.889 9        50.900    20183126.121 9  82646542.27249
        55.100    20183125.59849  20183121.949 7  79202890.395 7        43.100
 21  1  3  0  9 30.0000000  0 11G21G23G16G07G15G08G26G18G20G10G27
  23201972.984 7 121927205.034 7        43.000                    95008220.16847
        28.200    23201976.09447
  21660727.578 8 113827901.584 8        47.200    21660732.383 9  88697089.82549
        37.800    21660731.66849  21660732.301 6  85001359.473 6        38.900
  21949515.477 8 115345491.538 8        47.300                    89879610.29649
        37.800    21949518.68049
  24773178.000 5 130183919.808 5        37.400    24773181.625 5 101442014.44645
        19.900    24773180.68445
  24618244.688 5 129369774.137 5        37.100    24618248.906 5 100807615.38147
        29.400    24618248.44147
  21700983.297 9 114039458.583 9        48.900    21700990.102 9  88861931.32049
        50.900    21700989.28549  21700985.484 6  85159361.504 6        39.200
  24134158.195 6 126825854.888 6        39.600    24134165.344 6  98825373.27949
        36.400    24134164.65249  24134160.871 2  94707626.21712        31.400
  23933470.367 6 125771239.892 6        40.400    23933474.836 7  98003581.62646
        23.800    23933474.37946  23933474.926 3  93920089.35813        32.100
  21663477.383 8 113842344.991 8        46.900                    88708343.80949
        36.900    21663480.63749
  20968742.406 9 110191498.397 9        53.700    20968748.488 9  85863580.05249
        55.300    20968748.08649  20968743.469 7  82285827.896 7        41.200
  20182356.555 9 106059011.428 9        50.900    20182362.738 9  82643415.68149
        55.800    20182362.14549  20182358.566 7  79199894.102 7        43.500
 21  1  3  0 10  0.0000000  0 11G21G23G16G07G15G08G26G18G20G10G27
  23188160.016 7 121854617.825 7        43.400                    94951658.73047
        29.100    23188162.98847
  21670204.523 9 113877701.839 9        48.000    21670208.828 9  88735895.21749
        37.800    21670208.21949  21670209.133 6  85038547.979 6        39.400
  21966163.789 8 115432979.913 8        47.000                    89947783.03249
        38.100    21966167.51649
  24778860.461 5 130213780.156 5        35.500    24778863.355 5 101465282.19445
        19.300    24778863.22345
  24623787.609 6 129398901.734 6        38.200    24623791.406 4 100830312.19648
        30.200    24623791.18848
  21687543.523 9 113968831.775 9        48.500    21687550.211 8  88806897.44349
        50.800    21687549.28149  21687545.832 6  85106620.734 6        39.500
  24155297.508 6 126936944.869 6        39.500    24155305.438 6  98911936.89649
        36.200    24155304.46949  24155299.711 2  94790582.96812        31.000
  23951755.945 6 125867333.905 6        39.300    23951761.090 7  98078460.03846
        24.100    23951760.64146  23951761.680 2  93991847.877 2        31.600
  21674267.078 8 113899045.622 8        46.200                    88752526.13249
        36.100    21674270.17249
  20965439.430 9 110174140.986 9        53.800    20965445.680 9  85850054.80649
        55.000    20965445.02049  20965440.727 7  82272866.209 7        41.000
  20181674.375 9 106055425.443 9        50.500    20181680.270 9  82640621.41149
        55.700    20181679.82049  20181676.230 7  79197216.252 7        43.900
 21  1  3  0 10 30.0000000  0 11G21G23G16G07G15G08G26G18G20G10G27
  23174385.414 7 121782231.648 7        43.000                    94895253.92847
        28.300    23174388.31347
  21679781.031 8 113928026.238 8        47.800    21679785.336 9  88775109.03349
        38.400    21679784.56349  21679785.504 6  85076127.867 6        39.200
  21982883.625 8 115520841.445 8        47.300                    90016246.56549
        38.300    21982886.91849
  24784627.547 5 130244092.287 5        35.800    24784631.832 4 101488901.97645
        17.800    24784632.10245
  24629438.172 5 129428597.802 5        37.800    24629442.398 3 100853451.97848
        30.200    24629441.62548
  21674151.000 9 113898454.880 9        48.100    21674158.301 8  88752058.30849
        50.700    21674157.11349  21674153.410 6  85054066.566 6        40.100
  24176450.531 6 127048104.385 6        39.900    24176458.035 6  98998554.69949
        36.700    24176457.68849  24176452.988 2  94873591.707 2        31.200
  23970052.758 6 125963478.741 6        40.300    23970056.984 7  98153378.05446
        24.500    23970056.30946  23970057.910 2  94063644.357 2        31.800
  21685145.719 8 113956213.050 8        46.300                    88797072.17149
        36.400    21685148.58649
  20962245.570 9 110157357.954 9        54.500    20962251.910 9  85836977.12449
        55.000    20962251.49649  20962246.871 7  82260333.426 7        41.100
  20181072.953 9 106052266.817 9        50.600    20181079.227 9  82638160.13949
        55.500    20181078.92249  20181075.152 7  79194857.537 7        43.600
 21  1  3  0 11  0.0000000  0 11G21G23G16G07G15G08G26G18G20G10G27
  23160649.133 7 121710046.845 7        43.200                    94839006.05647
        29.600    23160652.14147
  21689456.703 8 113978872.759 8        47.800    21689461.105 9  88814729.70449
        38.300    21689460.21149  21689461.359 6  85114097.689 6        39.500
  21999673.766 8 115609074.383 8        46.800                    90084999.49649
        37.800    21999677.12949
  24790482.109 5 130274853.658 5        37.900    24790484.930 3 101512871.93545
        17.800    24790484.97745
  24635198.063 5 129458861.392 5        37.600    24635202.113 5 100877034.00847
        29.300    24635201.37547
  21660807.188 9 113828329.082 9        48.000    21660813.621 9  88697414.84349
        51.000    21660812.64849  21660808.605 6  85001699.918 6        39.200
  24197615.133 6 127159330.945 6        39.000    24197624.117 6  99085224.75249
        35.500    24197623.54349  24197618.980 1  94956650.49311        29.900
  23988357.344 6 126059673.211 6        39.600    23988361.359 6  98228334.77446
        24.000    23988360.98046  23988362.707 3  94135477.741 3        32.700
  21696112.477 8 114013845.252 8        47.200                    88841980.38949
        37.100    21696115.63349
  20959161.484 9 110141149.548 9        53.900    20959167.496 9  85824347.21649
        55.300    20959167.27749  20959162.426 7  82248229.753 7        41.400
  20180553.336 9 106049536.180 9        50.400    20180559.727 9  82636032.36549
        55.400    20180559.14549  20180555.387 7  79192818.423 7        43.500
 21  1  3  0 11 30.0000000  0 11G21G23G16G07G15G08G26G18G20G10G27
  23146951.297 7 121638063.778 7        43.400                    94782915.36648
        30.200    23146954.19948
  21699231.383 8 114030239.423 8        46.800    21699235.926 9  88854755.67449
        37.900    21699235.32049  21699235.871 6  85152455.888 6        39.200
  22016533.867 8 115697675.564 8        47.700                    90154039.35849
        38.000    22016537.22749
  24796420.750 5 130306062.858 5        37.500    24796425.262 5 101537190.72145
        17.800    24796423.20345
  24641064.609 5 129489691.557 5        36.700    24641068.188 5 100901057.49747
        29.300    24641068.24247
  21647510.508 8 113758456.782 8        47.800    21647517.367 9  88642968.89449
        51.300    21647516.46549  21647512.121 6  84949522.539 6        39.100
  24218794.742 6 127270622.045 6        40.300    24218801.840 6  99171945.05249
        35.500    24218801.08249  24218797.379 1  95039757.49411        30.900
  24006671.672 6 126155916.129 6        39.000    24006676.297 6  98303329.28446
        22.800    24006675.74246  24006676.766 2  94207347.490 2        31.500
  21707167.750 8 114071940.417 8        46.600                    88887249.35549
        36.700    21707170.96549
  20956186.547 9 110125516.048 9        54.300    20956192.480 9  85812165.27749
        55.200    20956192.16049  20956187.477 6  82236555.394 6        40.900
  20180115.375 9 106047234.179 9        51.500    20180121.641 9  82634238.60249
        55.400    20180121.10249  20180117.352 7  79191099.390 7        43.000
 21  1  3  0 12  0.0000000  0 11G21G23G16G07G15G08G26G18G20G10G27
  23133291.805 7 121566282.794 7        43.200                    94726982.14547
        28.900    23133294.45347
  21709104.633 8 114082124.317 8        47.300    21709109.359 9  88895185.46749
        38.600    21709108.65249  21709109.363 6  85191201.113 6        39.300
  22033463.570 8 115786642.408 8        47.000                    90223364.17649
        37.300    22033466.68849
  24802444.211 5 130337718.219 5        35.400    24802448.102 5 101561857.18045
        18.300    24802447.30145
  24647039.117 4 129521087.638 4        34.500    24647043.020 5 100925522.00347
        27.700    24647041.94547
  21634262.563 9 113688839.169 9        48.600    21634269.492 9  88588721.40149
        51.300    21634268.51249  21634264.445 6  84897535.351 6        39.600
  24239983.766 6 127381975.228 6        38.600    24239991.926 6  99258713.74749
        35.400    24239991.32049  24239986.215 1  95122910.828 1        30.500
  24024994.594 5 126252206.489 5        37.400    24025000.328 7  98378360.66546
        21.800    24024999.44946  24025001.016 3  94279252.648 3        32.600
  21718310.555 8 114130496.237 8        46.400                    88932877.26349
        36.600    21718313.77349
  20953320.852 9 110110457.782 9        53.900    20953326.969 9  85800431.57249
        55.000    20953326.55949  20953321.578 7  82225310.627 7        41.300
  20179759.203 9 106045361.539 9        51.100    20179765.207 9  82632779.39849
        55.700    20179764.65249  20179761.035 7  79189700.969 7        43.400
 21  1  3  0 12 30.0000000  0 11G21G23G16G07G15G08G26G18G20G10G27
  23119670.539 7 121494704.050 7        42.400                    94671206.52147
        28.300    23119673.08647
  21719076.203 8 114134525.703 8        47.100    21719080.918 9  88936017.71749
        38.000    21719080.17249  21719080.969 6  85230332.032 6        39.200
  22050463.141 8 115875973.263 8        47.500                    90292972.62049
        37.900    22050466.12549
  24808552.211 5 130369817.647 5        37.000    24808556.492 5 101586869.68645
        18.300    24808556.22745
  24653120.578 5 129553048.878 5        35.000    24653124.848 4 100950426.94147
        27.300    24653124.04347
  21621063.734 8 113619478.456 8        47.900    21621070.695 9  88534674.09049
        51.300    21621069.52349  21621065.934 6  84845740.027 6        39.800
  24261185.063 6 127493388.290 6        38.600    24261192.582 7  99345529.11249
        35.400    24261191.89549  24261187.434 1  95206108.806 1        29.800
  24043327.648 6 126348543.255 6        39.200    24043331.551 7  98453428.28646
        22.800    24043331.81346  24043333.078 3  94351192.429 3        32.600
  21729540.859 8 114189510.886 8        47.000                    88978862.70649
        37.300    21729543.88349
  20950565.055 9 110095975.174 9        53.700    20950570.824 9  85789146.43249
        55.600    20950570.53149  20950565.906 7  82214495.680 7        41.100
  20179484.125 9 106043919.076 9        51.500    20179490.738 9  82631655.40049
        55.700    20179490.24249  20179486.688 7  79188623.820 7        43.400
 21  1  3  0 13  0.0000000  0 11G21G23G16G07G15G08G26G18G20G10G27
  23106088.336 7 121423327.848 7        43.200                    94615588.69947
        28.400    23106091.10947
  21729146.055 8 114187441.319 8        46.800    21729150.258 9  88977250.66749
        37.800    21729149.62149  21729150.531 6  85269846.958 6        38.600
  22067530.789 8 115965664.954 8        47.800                    90362862.25949
        37.900    22067533.98449
  24814745.156 5 130402359.694 5        35.800    24814749.402 5 101612227.04445
        17.400    24814748.53945
  24659309.336 5 129585574.423 5        35.800    24659313.969 4 100975771.54347
        28.500    24659313.77047
  21607913.969 9 113550376.024 9        48.400    21607921.176 9  88480828.04849
        51.200    21607919.61349  21607916.539 6  84794137.537 6        39.900
  24282396.953 6 127604858.464 6        38.600    24282404.273 6  99432388.97449
        35.200    24282404.40249  24282400.039 1  95289349.55011        29.900
  24061667.500 6 126444925.128 6        38.900    24061672.801 7  98528531.03646
        22.500    24061672.59446  24061673.727 3  94423165.898 3        32.700
  21740857.938 8 114248982.467 8        47.000                    89025204.19549
        36.700    21740861.12549
  20947918.570 9 110082068.221 9        54.300    20947924.609 9  85778309.85249
        55.500    20947924.44949  20947919.695 6  82204110.637 6        40.800
  20179291.617 9 106042907.227 9        51.100    20179298.258 9  82630866.93849
        56.100    20179297.68849  20179293.875 7  79187868.216 7        43.700
 21  1  3  0 13 30.0000000  0 11G21G23G16G07G15G08G26G18G20G10G27
  23092543.961 7 121352154.282 7        43.200                    94560128.79047
        29.300    23092547.52047
  21739313.141 8 114240869.153 8        47.000    21739317.273 8  89018882.75249
        38.100    21739316.57049  21739317.750 6  85309744.342 6        39.500
  22084666.438 8 116055714.936 8        47.500                    90433031.07049
        37.400    22084670.34849
  24821022.219 5 130435342.594 5        37.800    24821026.227 5 101637927.98545
        19.000    24821025.58245
  24665606.391 6 129618663.044 6        38.700    24665610.875 4 101001554.89347
        29.800    24665609.67647
  21594813.633 8 113481532.795 8        47.300    21594820.609 9  88427183.97949
        51.400    21594819.14149  21594816.125 6  84742728.674 6        40.100
  24303620.211 6 127716383.294 6        40.200    24303627.828 6  99519291.43649
        36.700    24303627.28949  24303622.855 1  95372631.06611        30.100
  24080017.578 6 126541350.924 6        39.200    24080021.945 6  98603668.01846
        22.800    24080021.23846  24080022.527 3  94495172.052 3        32.600
  21752261.141 8 114308908.682 8        46.300                    89071899.96049
        36.600    21752264.35249
  20945381.852 9 110068737.105 9        53.000    20945387.781 9  85767921.98649
        54.900    20945387.54749  20945383.090 7  82194155.607 7        41.500
  20179181.773 9 106042326.636 9        50.900    20179187.695 9  82630414.52749
        56.100    20179187.19149  20179183.445 7  79187434.670 7        43.600
 21  1  3  0 14  0.0000000  0 11G21G23G16G07G15G08G26G18G20G10G27
  23079039.234 7 121281183.795 7        44.100                    94504827.12647
        29.300    23079041.70747
  21749576.789 8 114294806.991 8        46.700    21749581.406 9  89060912.23549
        37.600    21749580.74249  21749581.402 6  85350022.606 6        38.900
  22101870.328 8 116146120.966 8        47.400                    90503477.31149
        37.000    22101873.91449
  24827381.766 5 130468763.951 5        37.800    24827386.410 4 101663970.63245
        19.000    24827385.37545
  24672010.563 6 129652313.557 6        39.100    24672014.406 5 101027776.08048
        31.800    24672014.36748
  21581762.859 8 113412950.522 8        47.500    21581769.512 9  88373743.25849
        51.500    21581768.55149  21581765.270 6  84691514.641 6        39.600
  24324853.023 6 127827960.118 6        38.600    24324859.387 6  99606234.41849
        34.900    24324858.92649  24324854.719 1  95455951.421 1        29.800
  24098374.531 6 126637819.396 6        39.600    24098379.793 7  98678838.25046
        22.800    24098378.93046  24098379.348 3  94567210.264 3        32.500
  21763751.125 8 114369287.403 8        45.800                    89118948.30949
        35.900    21763754.16849
  20942954.484 9 110055981.848 9        53.200    20942960.406 9  85757982.83049
        55.100    20942960.28949  20942955.535 7  82184630.586 7        41.100
  20179152.875 9 106042177.721 9        51.600    20179159.281 9  82630298.48649
        55.200    20179158.77749  20179155.141 7  79187323.451 7        43.800
 21  1  3  0 14 30.0000000  0 11G21G23G16G07G15G08G26G18G20G10G27
  23065572.445 7 121210416.642 7        43.800                    94449683.90547
        29.600    23065575.31347
  21759937.570 8 114349253.174 8        46.600    21759942.277 8  89103337.84049
        37.900    21759941.49249  21759942.516 6  85390680.498 6        38.300
  22119140.961 8 116236880.250 8        47.300                    90574198.81849
        37.700    22119144.42649
  24833825.633 5 130502622.622 5        37.100    24833828.777 4 101690353.96645
        18.600    24833828.27045
  24678521.391 6 129686525.364 6        39.300    24678524.973 5 101054434.67948
        32.100    24678524.37948
  21568761.930 8 113344631.476 8        47.800    21568768.988 9  88320507.64149
        51.700    21568767.80149  21568764.215 6  84640497.199 6        40.000
  24346094.461 6 127939586.979 6        38.900    24346101.543 6  99693216.36949
        34.700    24346101.15249  24346096.195 1  95539309.15311        29.800
  24116740.125 6 126734329.791 6        40.600    24116745.168 7  98754041.13146
        24.500    24116744.93046  24116745.105 3  94639279.702 3        32.900
  21775326.453 8 114430116.656 8        46.900                    89166347.73449
        36.700    21775329.42249
  20940636.844 9 110043802.962 9        53.100    20940642.930 9  85748492.79949
        55.000    20940642.77749  20940637.945 7  82175535.975 7        41.700
  20179207.031 9 106042461.499 9        50.900    20179213.344 9  82630519.61249
        55.000    20179212.96149  20179209.039 7  79187535.354 7        43.400
 21  1  3  0 15  0.0000000  0 11G21G23G16G07G15G08G26G18G20G10G27
  23052144.227 7 121139852.903 7        43.800                    94394699.18347
        29.700    23052147.62147
  21770394.508 8 114404205.539 8        46.500    21770399.023 9  89146157.87249
        38.400    21770398.66449  21770399.832 6  85431716.352 6        38.900
  22136479.133 8 116327990.380 8        47.200                    90645193.72849
        37.000    22136481.94949
  24840350.391 4 130536916.551 4        34.800    24840354.863 3 101717076.48945
        16.300    24840354.71145
  24685136.477 5 129721297.569 5        37.300    24685141.027 5 101081529.92948
        30.500    24685140.68448
  21555811.711 8 113276577.222 8        47.900    21555818.699 9  88267478.35349
        51.800    21555817.41849  21555813.617 6  84589677.469 6        40.100
  24367346.297 6 128051261.171 6        39.200    24367352.961 6  99780235.20249
        35.700    24367352.46549  24367348.125 1  95622702.15911        30.600
  24135113.430 6 126830880.909 6        39.800    24135118.684 7  98829275.75246
        24.500    24135117.52046  24135119.234 3  94711379.550 3        32.800
  21786987.469 8 114491394.241 8        46.300                    89214096.50749
        36.100    21786990.14849
  20938428.867 9 110032200.450 9        53.000    20938434.887 9  85739451.89149
        54.900    20938434.64849  20938430.035 7  82166871.779 7        41.600
  20179343.539 9 106043178.475 9        51.600    20179349.852 9  82631078.28949
        55.900    20179349.32049  20179345.641 7  79188070.758 7        43.200
 21  1  3  0 15 30.0000000  0 11G21G23G16G07G15G08G26G18G20G10G27
  23038755.781 7 121069492.912 7        44.500                    94339873.21948
        31.000    23038758.73048
  21780947.742 8 114459661.767 8        46.800    21780952.531 9  89189370.51349
        37.900    21780951.68849  21780952.500 6  85473128.461 6        39.200
  22153883.102 8 116419448.963 8        47.300                    90716460.15949
        37.700    22153886.11349
  24846960.594 5 130571643.525 5        35.600    24846963.531 4 101744136.43645
        17.800    24846962.94945
  24691860.109 5 129756628.662 5        36.600    24691864.633 5 101109060.71147
        29.000    24691863.93847
  21542911.938 8 113208789.002 8        47.800    21542919.121 9  88214656.36549
        51.800    21542917.68849  21542914.301 6  84539056.388 6        39.700
  24388603.148 5 128162980.002 5        35.500    24388611.164 6  99867288.81748
        31.800    24388610.84848  24388606.926 1  95706128.517 1        30.300
  24153493.688 6 126927471.367 6        38.800    24153498.746 6  98904541.03446
        22.000    24153497.21546  24153499.313 3  94783508.760 3        32.600
  21798732.805 8 114553118.114 8        46.400                    89262193.03249
        36.200    21798736.14849
  20936330.672 9 110021174.169 9        53.100    20936336.578 9  85730859.99249
        55.100    20936336.56349  20936331.832 7  82158637.866 7        41.700
  20179562.305 9 106044328.949 9        51.300    20179568.816 9  82631974.75749
        55.800    20179568.11749  20179564.625 7  79188929.876 7        43.300
 21  1  3  0 16  0.0000000  0 11G21G23G16G07G15G08G26G18G20G10G27
  23025405.875 8 120999337.342 8        45.300                    94285206.53548
        30.400    23025409.37548
  21791596.344 8 114515620.182 8        47.500    21791600.777 8  89232974.47549
        37.900    21791600.14549  21791600.621 6  85514915.616 6        38.600
  22171353.000 8 116511253.982 8        47.300                    90787996.53249
        36.900    22171356.10249
  24853650.148 5 130606802.154 5        35.200    24853654.129 5 101771532.77545
        17.800    24853653.39545
  24698690.992 5 129792518.258 5        37.700    24698693.875 5 101137026.69647
        28.900    24698694.06647
  21530063.414 9 113141269.043 9        48.100    21530070.594 9  88162043.41449
        51.900    21530069.28949  21530065.531 6  84488635.631 6        39.700
  24409871.852 5 128274741.488 5        37.600    24409879.559 6  99954375.68349
        34.300    24409878.63749  24409874.223 1  95789586.79111        29.400
  24171882.031 6 127024100.556 6        38.400    24171886.313 6  98979836.47646
        22.500    24171885.39546  24171887.160 3  94855666.883 3        32.600
  21810563.172 8 114615286.511 8        46.900                    89310635.92849
        35.700    21810566.11349
  20934342.148 9 110010724.656 9        52.800    20934348.242 9  85722717.51649
        55.100    20934348.25449  20934343.063 7  82150834.660 7        41.200
  20179864.000 9 106045913.983 9        51.400    20179870.602 9  82633209.83949
        55.800    20179869.60249  20179866.148 7  79190113.494 7        43.700
 21  1  3  0 16 30.0000000  0 11G21G23G16G07G15G08G26G18G20G10G27
  23012093.930 7 120929385.941 7        44.300                    94230698.96948
        30.200    23012097.71148
  21802340.078 8 114572078.439 8        46.700    21802344.137 9  89276967.92849
        37.500    21802343.76249  21802344.199 6  85557075.985 6        39.000
  22188888.148 8 116603402.397 8        47.100                    90859800.48149
        37.200    22188891.77749
  24860420.789 3 130642390.227 3        33.800    24860426.152 5 101799263.72045
        17.800    24860426.27745
  24705626.461 6 129828964.781 6        38.000    24705630.059 4 101165426.67447
        28.900    24705628.51647
  21517266.375 9 113074018.538 9        48.100    21517272.887 9  88109640.42249
        51.800    21517272.09849  21517268.480 6  84438416.119 6        40.300
  24431148.164 6 128386542.866 6        39.200    24431154.813 6 100041493.59849
        35.800    24431154.64149  24431149.992 2  95873074.86012        31.800
  24190277.422 6 127120767.076 6        38.600    24190281.789 7  99055161.05646
        23.000    24190280.77046  24190282.445 3  94927852.952 3        32.400
  21822477.805 8 114677897.023 8        46.800                    89359423.35049
        35.800    21822480.25849
  20932463.180 9 110000851.696 9        53.000    20932469.492 9  85715024.32049
        55.100    20932469.58649  20932464.879 7  82143462.015 7        41.600
  20180248.680 9 106047933.890 9        51.600    20180254.781 9  82634783.78949
        55.300    20180254.00449  20180250.445 7  79191621.875 7        43.000
 21  1  3  0 17  0.0000000  0 11G21G23G16G07G15G08G26G18G20G10G27
  22998821.023 7 120859639.058 7        42.400                    94176350.78047
        29.700    22998825.00447
  21813178.180 8 114629034.579 8        46.900    21813182.742 8  89321349.34249
        37.500    21813181.95749  21813182.672 6  85599608.161 6        38.600
  22206488.953 8 116695891.435 8        47.800                    90931869.83849
        37.100    22206491.43449
  24867274.484 3 130678406.040 3        33.700    24867279.781 3 101827327.92745
        16.300    24867278.76645
  24712667.414 6 129865967.669 6        38.300    24712670.613 3 101194260.03747
        27.900    24712669.20747
  21504520.633 9 113007039.468 9        48.100    21504527.184 9  88057448.94049
        51.900    21504526.53549  21504522.520 6  84388399.286 6        40.400
  24452429.102 5 128498381.844 5        37.500    24452436.625 6 100128640.83248
        33.600    24452436.30548  24452431.941 1  95956590.88011        30.400
  24208678.867 6 127217470.018 6        38.100    24208683.809 7  99130513.94446
        23.000    24208683.77046  24208684.047 2  95000066.14212        31.800
  21834475.805 8 114740947.365 8        46.200                    89408553.50149
        35.800    21834478.63349
  20930694.242 9 109991555.441 9        52.700    20930700.496 9  85707780.49549
        56.100    20930700.50049  20930695.891 7  82136520.022 7        41.300
  20180715.586 9 106050389.400 9        51.400    20180722.215 9  82636697.17449
        55.600    20180721.36749  20180717.902 7  79193455.535 7        43.900
 21  1  3  0 17 30.0000000  0 11G21G23G16G07G15G08G26G18G20G10G27
  22985587.898 7 120790096.991 7        43.000                    94122162.17448
        30.300    22985590.93448
  21824111.219 8 114686486.620 8        47.200    21824115.555 8  89366117.16949
        37.500    21824114.71949  21824115.574 6  85642510.698 6        38.700
  22224152.836 8 116788719.085 8        47.900                    91004203.07949
        36.300    22224156.14149
  24874210.617 5 130714847.771 5        36.300    24874213.570 3 101855724.12045
        16.300    24874212.53145
  24719813.945 5 129903525.276 5        37.900    24719817.313 3 101223525.71347
        27.500    24719816.87547
  21491826.320 8 112940333.288 8        47.600    21491833.605 9  88005470.10349
        51.900    21491832.55149  21491828.750 6  84338586.224 6        40.100
  24473717.813 6 128610256.095 6        39.400    24473725.586 6 100215815.58249
        34.300    24473724.50049  24473720.473 1  96040133.39011        30.100
  24227086.938 5 127314208.411 5        36.800    24227092.906 7  99205894.47346
        22.300    24227092.04346  24227092.797 3  95072305.844 3        32.600
  21846557.094 8 114804436.142 8        45.700                    89458025.27849
        35.700    21846560.40249
  20929035.109 9 109982836.105 9        52.200    20929041.305 9  85700986.21149
        55.200    20929041.03549  20929036.488 7  82130008.837 7        41.200
  20181266.203 9 106053281.197 9        51.300    20181272.309 9  82638950.51349
        56.000    20181271.67649  20181268.219 7  79195614.978 7        44.000
 21  1  3  0 18  0.0000000  0 11G21G23G16G07G15G08G26G18G20G10G27
  22972393.352 7 120720759.980 7        43.500                    94068133.35747
        29.600    22972396.94947
  21835137.875 8 114744432.155 8        47.900    21835142.324 9  89411269.54249
        38.000    21835141.73049  21835142.297 6  85685781.704 6        38.900
  22241881.172 8 116881881.856 8        47.000                    91076797.44449
        36.700    22241884.14149
  24881225.188 5 130751713.226 5        37.100    24881229.313 3 101884450.42245
        19.600    24881228.70345
  24727065.859 5 129941636.901 5        36.400    24727069.715 4 101253223.05547
        28.600    24727069.72747
  21479185.117 8 112873901.565 8        47.600    21479192.066 9  87953705.13349
        52.000    21479190.96549  21479187.254 6  84288978.130 6        40.200
  24495013.820 6 128722162.897 6        39.900    24495021.125 6 100303015.71949
        35.500    24495020.37149  24495016.270 1  96123700.16211        29.500
  24245502.680 6 127410981.026 6        38.100    24245507.023 6  99281301.69846
        21.100    24245506.62146  24245508.348 3  95144571.059 3        32.700
  21858720.953 8 114868360.602 8        45.500                    89507836.54349
        35.500    21858724.48049
  20927485.602 9 109974693.363 9        52.500    20927491.813 9  85694641.22649
        55.200    20927491.58649  20927486.688 7  82123928.217 7        41.200
  20181899.461 9 106056609.580 9        51.100    20181905.785 9  82641544.05149
        55.500    20181905.07449  20181901.633 7  79198100.447 7        43.100
 21  1  3  0 18 30.0000000  0 11G21G23G16G07G15G08G26G18G20G10G27
  22959237.969 7 120651627.957 7        43.500                    94014264.25648
        30.400    22959241.68848
  21846258.008 8 114802868.927 8        47.200    21846262.125 8  89456804.68249
        37.900    21846261.71149  21846262.699 6  85729419.546 6        38.800
  22259672.930 8 116975377.801 8        47.500                    91149651.42649
        36.500    22259675.89149
  24888320.797 5 130789000.191 5        37.500    24888324.996 5 101913505.14046
        20.600    24888325.25046
  24734423.742 5 129980300.891 5        36.200    24734428.008 5 101283350.91647
        28.900    24734427.43047
  21466596.305 8 112807746.299 8        47.600    21466603.352 9  87902155.58349
        52.200    21466602.04749  21466598.523 6  84239576.486 6        40.500
  24516313.961 5 128834099.777 5        37.000    24516322.047 6 100390239.20848
        33.800    24516321.19548  24516317.320 1  96207289.321 1        29.700
  24263924.672 5 127507786.583 5        37.700    24263928.441 6  99356734.59146
        21.500    24263927.19546  24263929.496 3  95216860.892 3        32.100
  21870968.430 8 114932718.402 8        46.100                    89557985.48049
        35.600    21870971.35949
  20926045.695 9 109967127.101 9        51.900    20926051.926 9  85688745.43549
        55.000    20926051.93849  20926047.207 7  82118278.089 7        42.100
  20182616.141 9 106060375.009 9        50.600    20182622.199 9  82644478.15049
        55.900    20182621.48849  20182618.125 7  79200912.305 7        43.700
 21  1  3  0 19  0.0000000  0 11G21G23G16G07G15G08G26G18G20G10G27
  22946122.289 7 120582701.596 7        44.300                    93960555.43448
        30.400    22946124.97748
  21857471.242 9 114861795.374 9        48.200    21857475.664 8  89502721.39949
        37.900    21857474.96949  21857475.895 6  85773423.095 6        38.100
  22277527.453 8 117069204.711 8        47.200                    91222763.29049
        36.700    22277530.78149
  24895495.594 4 130826707.241 4        34.600    24895500.445 4 101942887.20945
        15.600    24895499.82045
  24741886.328 5 130019516.709 5        37.600    24741890.777 5 101313908.77347
        28.600    24741890.08647
  21454060.359 9 112741869.200 9        48.300    21454067.246 9  87850822.78349
        52.300    21454065.96149  21454062.441 6  84190382.555 6        40.600
  24537620.992 6 128946064.871 6        38.600    24537627.941 6 100477484.73449
        35.100    24537627.35549  24537623.777 1  96290899.576 1        29.900
  24282351.500 5 127604624.632 5        36.800    24282356.230 6  99432192.83146
        21.300    24282355.45346  24282356.914 1  95289175.043 1        30.800
  21883297.758 8 114997508.345 8        47.100                    89608471.16249
        35.800    21883300.48849
  20924715.828 9 109960137.861 9        52.400    20924721.824 9  85683299.28849
        55.400    20924722.10249  20924717.133 7  82113058.880 7        42.000
  20183416.023 9 106064578.588 9        52.100    20183422.191 9  82647753.66449
        55.500    20183421.37949  20183418.176 7  79204051.323 7        43.500
 21  1  3  0 19 30.0000000  0 11G21G23G16G07G15G08G26G18G20G10G27
  22933045.016 7 120513981.017 7        44.500                    93907006.94247
        29.900    22933047.71147
  21868777.164 8 114921208.543 8        47.200    21868781.465 8  89549017.37949
        37.900    21868780.67649  21868781.797 6  85817790.043 6        39.100
  22295445.125 8 117163359.517 8        47.100                    91296130.66649
        37.600    22295447.69949
  24902751.586 5 130864832.093 5        36.000    24902755.332 5 101972594.84145
        17.400    24902754.92245
  24749453.805 6 130059282.348 6        39.200    24749457.563 5 101344895.06048
        30.200    24749457.40248
  21441577.227 9 112676271.461 9        48.900    21441584.285 9  87799707.65649
        52.500    21441583.29349  21441579.578 6  84141397.248 6        40.400
  24558931.867 5 129058054.818 5        37.000    24558939.355 6 100564749.66548
        33.100    24558938.41848  24558934.391 1  96374528.50611        29.500
  24300785.086 5 127701493.469 5        36.500    24300789.676 6  99507675.01946
        21.800    24300790.55946  24300790.664 1  95361512.10711        30.500
  21895708.227 8 115062726.944 8        46.700                    89659290.84849
        35.000    21895711.04349
  20923495.297 9 109953724.758 9        52.400    20923501.676 9  85678302.07149
        55.000    20923501.46549  20923496.918 7  82108269.896 7        41.400
  20184299.219 9 106069220.049 9        51.700    20184305.348 9  82651370.38649
        55.900    20184304.75049  20184301.426 7  79207517.346 7        43.100
 21  1  3  0 20  0.0000000  0 11G21G23G16G07G15G08G26G18G20G10G27
  22920007.148 7 120445466.407 7        44.500                    93853618.94547
        29.800    22920009.47747
  21880175.633 8 114981106.664 8        47.600    21880179.594 8  89595691.24649
        37.000    21880178.96949  21880179.590 5  85862519.184 5        37.700
  22313423.828 8 117257839.820 8        47.300                    91369751.68849
        36.400    22313426.74249
  24910084.648 3 130903372.526 3        33.400    24910089.430 4 102002626.36345
        15.600    24910088.15245
  24757125.188 7 130099596.894 7        41.200    24757128.895 4 101376308.98648
        30.800    24757128.81348
  21429147.875 9 112610954.808 9        49.100    21429154.922 9  87748811.57149
        52.400    21429153.83249  21429150.313 6  84092621.809 6        40.400
  24580245.984 5 129170067.837 5        36.200    24580254.578 6 100652032.45648
        32.100    24580254.33248  24580249.750 1  96458174.45711        29.800
  24319224.703 5 127798392.324 5        37.400    24319229.367 6  99583180.60746
        21.300    24319229.04746  24319230.152 2  95433871.702 2        31.400
  21908199.898 8 115128372.644 8        46.300                    89710443.35249
        35.200    21908203.03549
  20922384.875 9 109947888.114 9        53.300    20922390.914 9  85673754.04549
        55.200    20922390.91449  20922386.051 7  82103911.360 7        41.700
  20185266.039 9 106074300.341 9        51.600    20185272.293 9  82655329.04749
        55.200    20185271.46149  20185268.047 7  79211311.072 7        43.300
 21  1  3  0 20 30.0000000  0 11G21G23G16G07G15G08G26G18G20G10G27
  22907008.344 7 120377158.087 7        43.900                    93800391.69448
        30.200    22907012.17248
  21891665.430 8 115041487.506 8        47.300    21891669.617 8  89642741.26149
        37.000    21891669.36749  21891669.660 6  85907608.782 6        38.100
  22331463.766 8 117352642.727 8        46.600                    91443624.08349
        36.100    22331467.20749
  24917498.961 4 130942326.998 4        34.400    24917502.363 5 102032980.44745
        16.900    24917502.55145
  24764901.102 6 130140459.345 6        40.100    24764904.711 3 101408149.83547
        29.300    24764904.12947
  21416772.313 9 112545921.384 9        48.000    21416779.285 9  87698136.17949
        52.400    21416778.34449  21416775.313 6  84044057.901 6        40.700
  24601566.039 6 129282101.184 6        38.300    24601573.918 6 100739331.19249
        34.700    24601572.98049  24601569.078 1  96541835.79111        30.400
  24337669.094 5 127895320.183 5        36.900    24337674.004 6  99658708.81446
        20.600    24337673.56646  24337675.527 3  95506252.840 3        32.200
  21920773.477 8 115194443.360 8        47.200                    89761927.04249
        35.400    21920776.36349
  20921383.563 9 109942627.802 9        52.800    20921389.980 9  85669655.10949
        55.100    20921389.80149  20921385.070 7  82099983.198 7        41.300
  20186316.398 9 106079819.965 9        51.200    20186322.559 9  82659630.05349
        55.500    20186321.82849  20186318.418 7  79215432.859 7        43.100
 21  1  3  0 21  0.0000000  0 11G21G23G16G07G15G08G26G18G20G10G27
  22894048.891 7 120309055.840 7        43.900                    93747325.04248
        30.600    22894052.22748
  21903247.344 8 115102348.630 8        47.600    21903251.262 8  89690165.51749
        37.600    21903250.55549  21903251.297 5  85953057.031 5        37.900
  22349565.180 8 117447765.985 8        46.200                    91517746.09049
        36.300    22349568.79349
  24924987.359 1 130981692.92911        30.100    24924993.344 4 102063655.15154
        14.800    24924993.41844
  24772780.953 6 130181867.937 6        39.100    24772784.223 3 101440416.30047
        28.200    24772783.08647
  21404451.445 9 112481172.378 9        48.200    21404458.129 9  87647682.40949
        52.500    21404457.03149  21404453.930 6  83995706.386 6        40.500
  24622888.625 5 129394152.379 5        35.800    24622895.750 6 100826643.77848
        31.600    24622895.93848  24622892.000 1  96625510.31511        30.300
  24356119.477 5 127992275.816 5        36.500    24356124.762 7  99734258.61546
        20.400    24356123.88746  24356125.215 1  95578654.690 1        30.600
  21933425.711 8 115260936.583 8        46.000                    89813739.93949
        36.100    21933429.57449
  20920492.453 9 109937943.435 9        53.300    20920498.270 9  85666004.96249
        55.000    20920498.26249  20920493.789 7  82096485.144 7        41.600
  20187450.297 9 106085779.142 9        51.600    20187456.543 9  82664273.56649
        55.400    20187455.77049  20187452.438 7  79219882.905 7        43.500
 21  1  3  0 21 30.0000000  0 11G21G23G16G07G15G08G26G18G20G10G27
  22881128.781 7 120241160.709 7        44.800                    93694419.75648
        30.400    22881131.50048
  21914919.367 8 115163688.640 8        47.200    21914924.066 8  89737962.93249
        37.000    21914923.15649  21914925.086 6  85998862.865 6        38.800
  22367727.406 8 117543207.207 8        46.400                    91592115.86549
        36.500    22367730.73849
  24932558.891 2 131021469.00812        31.300    24932562.305 3 102094649.53554
        14.800    24932561.28944
  24780763.789 5 130223821.903 5        36.200    24780768.094 5 101473107.77247
        28.600    24780767.39147
  21392184.461 9 112416709.931 9        49.100    21392191.246 9  87597451.94049
        52.800    21392190.31649  21392186.449 6  83947568.853 6        40.700
  24644215.289 6 129506219.770 6        38.000    24644221.895 5 100913969.00848
        33.000    24644221.34048  24644217.320 1  96709197.064 1        29.700
  24374573.703 5 128089258.993 5        36.700    24374579.480 6  99809829.94946
        21.500    24374578.87946  24374580.566 1  95651077.20611        30.000
  21946159.547 8 115327850.850 8        46.100                    89865880.91649
        34.700    21946162.73449
  20919710.547 9 109933835.672 9        52.400    20919716.652 9  85662804.10949
        55.100    20919716.77749  20919712.000 7  82093417.673 7        41.200
  20188668.180 9 106092179.249 9        51.600    20188674.395 9  82669260.64949
        55.700    20188673.68849  20188670.113 7  79224662.185 7        43.500
 21  1  3  0 22  0.0000000  0 11G21G23G16G07G15G08G26G18G20G10G27
  22868247.648 7 120173471.991 7        44.300                    93641675.30548
        30.500    22868251.12948
  21926682.742 8 115225504.575 8        46.800    21926687.098 8  89786131.19349
        37.600    21926686.48049  21926687.801 6  86045024.142 6        38.600
  22385949.344 8 117638963.247 8        46.800                    91666730.95949
        36.500    22385952.25049
  24940203.680 1 131061652.29211        29.600    24940208.664 5 102125961.25853
        13.900    24940209.45343
  24788850.438 5 130266319.877 5        36.500    24788855.984 5 101506223.13347
        29.600    24788855.09447
  21379972.289 9 112352535.186 9        49.100    21379979.203 9  87547445.65049
        52.800    21379978.35949  21379974.508 6  83899646.166 6        40.200
  24665543.031 5 129618300.156 5        37.500    24665550.078 6 101001304.40548
        32.800    24665549.57048  24665545.031 1  96792893.43411        29.700
  24393035.539 5 128186267.986 5        36.900    24393040.043 6  99885421.35846
        22.000    24393039.55946  24393039.488 1  95723519.01011        30.700
  21958972.023 8 115395183.417 8        46.000                    89918347.86149
        35.400    21958975.18849
  20919038.688 9 109930303.603 9        52.800    20919044.434 9  85660051.86049
        55.400    20919044.44949  20919039.605 7  82090780.106 7        41.800
  20189969.906 9 106099019.977 9        51.300    20189976.246 9  82674591.08249
        55.200    20189975.46949  20189971.734 7  79229770.518 7        43.600
 21  1  3  0 22 30.0000000  0 12G32G21G23G16G07G15G08G26G18G20G10G27
  25275859.664 5 132825500.23015        37.400    25275866.727 6 103500430.42858
        32.100    25275865.75048
  22855406.602 7 120105990.170 7        44.300                    93589092.09948
        30.400    22855410.43848
  21938536.039 8 115287794.505 8        47.200    21938540.746 8  89834668.79949
        37.700    21938540.11749  21938540.402 6  86091539.331 6        38.300
  22404230.141 8 117735031.806 8        46.700                    91741589.57849
        36.200    22404233.28149
  24947928.758 3 131102241.189 3        32.000    24947933.418 4 102157589.02945
        15.600    24947932.28545
  24797042.094 6 130309360.582 6        39.400    24797046.438 5 101539761.34348
        32.200    24797046.22348
  21367815.336 9 112288650.578 9        49.000    21367822.391 9  87497665.44749
        52.900    21367821.32449  21367817.543 6  83851940.137 6        40.400
  24686873.383 6 129730391.586 6        38.000    24686880.379 6 101088648.32348
        32.800    24686879.84048  24686875.598 1  96876598.05511        29.800
  24411499.508 5 128283302.098 5        37.900    24411505.320 7  99961032.33846
        21.500    24411504.53946  24411505.172 2  95795979.56512        31.400
  21971865.266 8 115462932.341 8        46.300                    89971139.23249
        34.900    21971867.74249
  20918475.898 9 109927347.311 9        53.700    20918481.914 9  85657748.26249
        55.200    20918481.95749  20918477.340 7  82088572.486 7        41.700
  20191355.758 9 106106302.157 9        51.100    20191361.895 9  82680265.50749
        55.000    20191361.27049  20191357.715 7  79235208.512 7        43.500
 21  1  3  0 23  0.0000000  0 13G01G32G21G23G16G07G15G08G26G18G20G10
                                G27
  24765885.500 4 130145604.41914        34.800    24765894.402 5 101412193.97555
        16.900    24765893.71945
  25258340.813 5 132733447.293 5        36.500    25258349.496 6 103428700.93048
        32.500    25258349.32448
  22842604.789 8 120038715.446 8        45.100                    93536670.27248
        31.600    22842608.56648
  21950479.320 8 115350555.881 8        47.500    21950483.426 8  89883573.77249
        37.100    21950482.68449  21950483.395 5  86138406.601 5        37.500
  22422570.188 8 117831410.322 8        46.100                    91816689.72049
        35.900    22422573.75049
  24955728.141 3 131143233.44013        32.900    24955733.457 3 102189531.17854
        14.800    24955732.80944
  24805335.641 6 130352942.319 6        40.600    24805339.066 5 101573721.15248
        30.900    24805339.53148
  21355714.148 9 112225057.127 9        48.300    21355721.047 9  87448112.12349
        52.800    21355720.02049  21355716.094 6  83804451.534 6        40.200
  24708204.836 5 129842491.097 5        37.600    24708212.195 6 101175998.59548
        32.200    24708211.27748  24708207.918 1  96960308.69211        30.500
  24429969.477 5 128380359.968 5        37.100    24429974.570 6 100036661.83746
        22.300    24429973.92646  24429975.352 2  95868457.82212        31.900
  21984835.828 8 115531095.061 8        45.600                    90024253.05049
        35.000    21984838.85949
  20918022.805 9 109924966.275 9        53.000    20918028.730 9  85655892.91349
        54.900    20918028.59449  20918024.344 7  82086794.438 7        41.400
  20192825.375 9 106114025.920 9        51.800    20192831.770 9  82686284.02349
        55.000    20192830.98449  20192827.332 7  79240976.262 7        43.900
 21  1  3  0 23 30.0000000  0 13G01G32G21G23G16G07G15G08G26G18G20G10
                                G27
  24746261.797 5 130042475.735 5        37.600    24746269.055 5 101331833.98445
        19.600    24746269.03545
  25240820.148 5 132641372.406 5        36.200    25240827.684 5 103356954.30648
        30.400    25240827.78548
  22829842.820 8 119971648.451 8        45.000                    93484410.30148
        31.600    22829846.13348
  21962511.523 8 115413786.881 8        46.700    21962515.957 9  89932844.69249
        37.000    21962515.59049  21962516.348 6  86185624.553 6        38.200
  22440968.914 8 117928096.231 8        45.800                    91892029.37749
        35.900    22440972.34049
  24963606.406 3 131184627.385 3        33.100    24963610.348 3 102221786.13044
        14.800    24963610.11744
  24813731.242 6 130397064.129 6        39.000    24813735.082 5 101608101.75347
        29.200    24813734.35547
  21343668.648 9 112161757.148 9        48.200    21343675.352 9  87398787.47149
        52.900    21343674.46149  21343670.426 6  83757182.085 6        40.500
  24729537.773 5 129954596.893 5        36.600    24729545.133 5 101263353.76148
        31.200    24729544.26248  24729539.703 1  97044024.03811        29.500
  24448442.961 5 128477441.224 5        36.700    24448448.246 6 100112309.59446
        20.600    24448447.89846  24448449.004 2  95940953.550 2        31.900
  21997885.102 8 115599669.809 8        46.600                    90077687.91249
        35.500    21997888.10549
  20917679.242 9 109923160.686 9        51.900    20917685.313 9  85654485.97049
        54.900    20917685.15649  20917680.586 7  82085446.121 7        41.800
  20194379.586 9 106122192.175 9        51.900    20194385.570 9  82692647.33549
        55.400    20194384.95749  20194381.449 7  79247074.435 7        43.800
 21  1  3  0 24  0.0000000  0 13G01G32G21G23G16G07G15G08G26G18G20G10
                                G27
  24726653.281 6 129939433.077 6        38.700    24726660.691 5 101251541.01346
        20.100    24726660.23046
  25223295.461 5 132549278.197 5        37.800    25223302.695 5 103285192.58848
        31.300    25223301.50848
  22817119.813 8 119904789.065 8        46.500                    93432312.09548
        31.500    22817122.79348
  21974633.102 8 115477485.121 8        46.800    21974637.598 8  89982479.68449
        37.600    21974637.00449  21974637.652 6  86233191.423 6        38.100
  22459425.961 8 118025086.703 8        46.100                    91967606.36849
        36.100    22459429.29749
  24971558.664 5 131226420.479 5        35.500    24971563.480 3 102254352.09645
        15.600    24971563.24245
  24822229.891 6 130441724.297 6        38.000    24822233.133 3 101642901.94147
        27.100    24822232.57847
  21331679.367 9 112098752.076 9        48.100    21331685.758 9  87349692.61649
        52.800    21331684.91849  21331680.570 6  83710132.843 6        40.600
  24750871.266 5 130066706.383 5        37.300    24750879.250 6 101350711.78648
        32.300    24750878.42248  24750873.262 1  97127742.20611        28.800
  24466921.195 5 128574544.582 5        37.600    24466926.379 6 100187974.52046
        21.800    24466925.80146  24466926.645 1  96013465.809 1        30.100
  22011012.359 8 115668654.125 8        46.900                    90131441.93949
        35.400    22011014.82049
  20917445.023 9 109921930.138 9        52.200    20917451.105 9  85653527.10249
        54.900    20917451.10949  20917445.984 7  82084527.199 7        41.400
  20196017.797 9 106130801.255 9        51.900    20196023.863 9  82699355.70649
        55.000    20196023.24249  20196019.773 7  79253503.305 7        43.400
 21  1  3  0 24 30.0000000  0 13G01G32G21G23G16G07G15G08G26G18G20G10
                                G27
  24707061.344 5 129836477.048 5        36.500    24707069.055 5 101171315.56945
        19.900    24707068.78945  24707065.496 2  96955838.95712        31.800
  25205768.383 6 132457167.332 6        38.100    25205773.648 3 103213417.87047
        29.400    25205771.37947
  22804436.023 8 119838136.998 8        46.300                    93380375.43248
        31.100    22804438.64848
  21986843.227 8 115541648.139 8        47.800    21986847.355 8  90032476.84749
        38.100    21986847.22749  21986847.313 6  86281105.402 6        38.300
  22477939.789 8 118122378.778 8        46.700                    92043418.37649
        35.900    22477943.37949
  24979588.297 4 131268610.516 4        34.900    24979592.516 3 102287227.44345
        17.400    24979591.52045
  24830830.102 5 130486921.340 5        37.400    24830833.988 4 101678120.51247
        28.200    24830832.79347
  21319745.930 9 112036043.363 9        48.300    21319752.809 9  87300828.69049
        53.000    21319751.87149  21319747.668 6  83663304.918 6        40.300
  24772205.672 6 130178816.987 6        38.100    24772213.734 6 101438070.68549
        34.000    24772212.70749  24772208.801 1  97211461.08911        29.000
  24485403.859 5 128671668.907 5        37.500    24485408.250 6 100263655.83246
        23.000    24485408.03946  24485408.836 2  96085993.763 2        31.200
  22024217.133 8 115738045.640 8        46.600                    90185513.25149
        34.600    22024219.85549
  20917320.188 9 109921274.190 9        51.900    20917326.141 9  85653015.98449
        55.000    20917326.04349  20917321.266 7  82084037.400 7        41.600
  20197740.359 9 106139853.430 9        52.000    20197746.535 9  82706409.34749
        55.000    20197745.80149  20197742.469 7  79260263.026 7        42.900
 21  1  3  0 25  0.0000000  0 13G01G32G21G23G16G07G15G08G26G18G20G10
                                G27
  24687484.875 4 129733608.368 4        34.800    24687493.699 5 101091158.27445
        17.400    24687493.35545  24687489.207 1  96879021.528 1        30.400
  25188235.969 5 132365042.469 5        36.900    25188243.762 5 103141632.24948
        32.200    25188242.65248
  22791792.188 8 119771692.715 8        46.000                    93328600.68348
        30.600    22791794.82848
  21999140.398 8 115606273.571 8        46.500    21999145.133 8  90082834.32849
        36.900    21999144.69149  21999145.332 6  86329364.643 6        38.100
  22496510.938 8 118219970.288 8        46.000                    92119463.70149
        35.100    22496514.21949
  24987690.391 1 131311195.090 1        30.500    24987695.930 3 102320410.19143
        13.900    24987695.04343
  24839533.102 6 130532653.754 6        39.200    24839536.746 4 101713756.18047
        29.900    24839535.03147
  21307869.766 9 111973632.749 9        48.800    21307876.375 9  87252197.05149
        53.100    21307875.26649  21307871.504 6  83616699.591 6        40.400
  24793539.188 5 130290926.233 5        36.000    24793546.957 5 101525428.54748
        30.700    24793545.62548  24793542.414 1  97295179.07011        30.000
  24503889.688 5 128768813.212 5        36.700    24503895.270 6 100339352.68646
        21.500    24503894.53146  24503895.512 1  96158536.533 1        30.500
  22037498.742 8 115807841.692 8        46.300                    90239899.78849
        34.700    22037501.81649
  20917304.633 9 109921192.430 9        52.300    20917310.766 9  85652952.28849
        55.200    20917310.54749  20917305.770 7  82083976.346 7        41.700
  20199547.164 9 106149349.035 9        52.100    20199553.523 9  82713808.51149
        55.000    20199552.90249  20199549.402 7  79267353.888 7        43.700
 21  1  3  0 25 30.0000000  0 13G01G32G21G23G16G07G15G08G26G18G20G10
                                G27
  24667927.383 5 129630828.158 5        37.400    24667935.266 5 101011069.73045
        17.800    24667935.41045  24667930.742 1  96802270.09611        30.700
  25170704.836 6 132272906.639 6        38.600    25170712.258 6 103069838.10448
        33.600    25170710.71948
  22779187.984 8 119705456.692 8        46.100                    93276988.22048
        30.700    22779190.18448
  22011526.172 8 115671359.305 8        47.100    22011530.250 8  90133550.48049
        37.400    22011529.52749  22011530.523 5  86377967.624 5        37.600
  22515138.203 8 118317858.331 8        45.600                    92195740.11149
        34.900    22515141.73049
  24995868.703 1 131354172.62711        28.000    24995873.980 4 102353899.03453
        13.900    24995872.85243
  24848337.156 6 130578920.499 6        39.000    24848340.918 5 101749808.21247
        29.400    24848340.23047
  21296050.461 9 111911522.281 9        49.000    21296057.273 9  87203799.28749
        53.300    21296055.97749  21296052.449 6  83570318.418 6        40.300
  24814871.313 5 130403031.936 5        36.300    24814879.547 5 101612783.63548
        30.400    24814878.70748  24814874.953 1  97378894.35011        29.200
  24522379.922 5 128865976.649 5        36.400    24522383.973 6 100415064.41746
        20.100    24522384.15646  24522385.285 2  96231093.636 2        31.200
  22050857.273 8 115878040.938 8        45.800                    90294600.50849
        34.800    22050860.29749
  20917398.273 9 109921684.691 9        52.100    20917404.375 9  85653335.88249
        55.200    20917404.19949  20917399.598 7  82084343.953 7        41.700
  20201438.531 9 106159288.665 9        51.000    20201444.824 9  82721553.67549
        55.000    20201444.18849  20201440.715 7  79274776.337 7        43.100
 21  1  3  0 26  0.0000000  0 13G01G32G21G23G16G07G15G08G26G18G20G10
                                G27
  24648386.375 5 129528137.277 5        36.200    24648394.082 6 100931050.90846
        20.100    24648394.22346  24648388.871 1  96725585.33111        29.200
  25153169.484 5 132180762.492 5        36.800    25153176.438 6 102998037.51048
        31.300    25153175.45348
  22766622.984 8 119639428.779 8        46.600                    93225537.90748
        31.200    22766625.07048
  22023998.734 8 115736902.953 8        46.800    22024002.859 8  90184623.46149
        36.800    22024001.84049  22024002.711 5  86426912.585 5        37.900
  22533822.039 8 118416040.485 8        45.600                    92272245.67349
        35.900    22533825.31649
  25004122.773 3 131397540.495 3        32.400    25004125.754 5 102387692.15843
        13.900    25004125.34043
  24857243.875 5 130625719.869 5        37.700    24857246.281 5 101786275.31047
        28.200    24857246.20747
  21284288.680 9 111849713.031 9        49.300    21284295.426 9  87155636.24449
        53.300    21284293.95749  21284290.633 6  83524162.169 6        40.900
  24836204.492 5 130515131.556 5        37.800    24836211.129 6 101700133.97248
        32.600    24836210.75448  24836207.086 1  97462605.10111        29.000
  24540872.414 5 128963158.254 5        35.800    24540877.121 6 100490790.29946
        20.100    24540877.33246  24540877.563 2  96303664.260 2        31.300
  22064292.039 8 115948640.988 8        45.600                    90349613.53949
        34.700    22064295.20749
  20917600.930 9 109922750.570 9        52.400    20917607.035 9  85654166.43949
        54.900    20917607.07449  20917602.344 7  82085139.904 7        41.400
  20203415.078 9 106169672.695 9        51.400    20203421.039 9  82729645.12049
        55.100    20203420.25849  20203416.727 7  79282530.652 7        43.800
 21  1  3  0 26 30.0000000  0 13G01G32G21G23G16G07G15G08G26G18G20G10
                                G27
  24628862.078 5 129425536.603 5        36.800    24628870.043 6 100851102.38545
        19.300    24628869.20345
  25135634.055 6 132088613.143 6        38.000    25135641.004 4 102926232.84848
        30.900    25135639.43848
  22754097.875 8 119573609.331 8        46.600                    93174250.02848
        30.900    22754100.53948
  22036557.586 8 115802902.379 8        47.500    22036561.969 8  90236051.59549
        36.600    22036561.47749  22036562.426 5  86476197.847 5        37.900
  22552560.719 8 118514514.459 8        46.000                    92348978.62849
        35.100    22552564.14549
  25012449.188 3 131441296.782 3        33.100    25012454.012 5 102421788.03245
        17.800    25012452.80145
  24866248.898 5 130673050.680 5        36.200    24866253.742 5 101823156.47447
        26.900    24866253.06347
  21272584.406 9 111788206.996 9        48.700    21272590.941 9  87107709.46849
        53.400    21272589.87149  21272586.297 7  83478232.340 7        41.000
  24857534.563 5 130627222.889 5        36.200    24857541.746 5 101787477.88848
        30.400    24857540.66848  24857537.500 1  97546309.69811        29.100
  24559369.000 5 129060357.162 5        37.500    24559372.754 5 100566529.72545
        19.000    24559372.34445  24559374.230 1  96376247.848 1        30.700
  22077802.898 8 116019639.211 8        46.600                    90404936.83649
        34.400    22077805.45749
  20917913.156 9 109924389.831 9        52.200    20917919.148 9  85655443.80149
        55.200    20917919.17649  20917914.391 7  82086364.070 7        41.600
  20205475.508 9 106180501.667 9        52.600    20205481.629 9  82738083.28149
        55.400    20205480.84449  20205477.438 7  79290617.211 7        43.500
 21  1  3  0 27  0.0000000  0 13G01G32G21G23G16G07G15G08G26G18G20G10
                                G27
  24609354.297 6 129323027.199 6        38.300    24609362.727 5 100771224.98646
        20.100    24609361.87146
  25118099.125 6 131996461.318 6        39.000    25118104.727 5 102854426.21248
        33.300    25118104.10548
  22741612.297 8 119507998.614 8        45.300                    93123124.82648
        30.400    22741615.57048
  22049203.664 8 115869355.275 8        46.800    22049207.961 8  90287833.07449
        36.700    22049207.69549  22049208.625 5  86525821.770 5        37.700
  22571354.828 8 118613277.232 8        45.500                    92425936.62649
        34.800    22571358.16049
  25020848.438 2 131485439.233 2        31.500    25020853.637 5 102456184.73145
        16.900    25020852.95745
  24875356.383 5 130720910.935 5        36.900    24875360.262 4 101860450.19447
        27.900    24875360.59447
  21260938.352 9 111727006.235 9        48.800    21260945.012 9  87060020.56849
        53.400    21260943.75849  21260940.078 7  83432530.479 7        41.100
  24878862.789 5 130739303.716 5        37.000    24878870.367 5 101874813.54048
        30.600    24878869.16448  24878866.328 1  97630006.34411        29.500
  24577867.977 6 129157572.626 6        38.200    24577872.398 6 100642282.00846
        20.400    24577872.15246  24577872.336 1  96448843.80811        29.200
  22091388.578 8 116091033.584 8        45.500                    90460568.81049
        34.300    22091391.18849
  20918333.930 9 109926602.101 9        52.700    20918340.238 9  85657167.64949
        55.000    20918340.14549  20918335.137 7  82088016.077 7        41.700
  20207620.930 9 106191775.977 9        51.400    20207627.051 9  82746868.44849
        55.200    20207626.49249  20207622.750 7  79299036.334 7        43.500
 21  1  3  0 27 30.0000000  0 13G01G32G21G23G16G07G15G08G26G18G20G10
                                G27
  24589864.570 5 129220609.525 5        36.400    24589873.480 5 100691418.97645
        18.600    24589872.85545
  25100561.672 5 131904309.772 5        37.300    25100569.742 6 102782619.77248
        31.900    25100569.65248
  22729166.867 8 119442596.702 8        45.700                    93072162.33148
        31.900    22729170.25448
  22061934.633 8 115936259.020 8        47.000    22061939.266 8  90339965.85249
        36.500    22061938.89549  22061939.480 5  86575782.371 5        37.500
  22590203.070 8 118712325.431 8        45.700                    92503117.04149
        35.200    22590206.33249
  25029321.969 3 131529965.236 3        32.300    25029325.805 4 102490880.37145
        16.300    25029325.52345
  24884565.281 6 130769299.078 6        39.100    24884567.914 3 101898155.26647
        28.100    24884567.14147
  21249350.539 9 111666111.930 9        49.700    21249357.008 9  87012570.46249
        53.500    21249356.05149  21249352.438 7  83387057.475 7        41.000
  24900187.445 5 130851371.150 5        37.400    24900195.605 5 101962138.79748
        30.900    24900195.18848  24900191.730 1  97713693.065 1        29.700
  24596370.727 5 129254803.280 5        37.600    24596375.473 6 100718046.15546
        21.300    24596374.75846  24596375.293 1  96521451.14411        29.100
  22105049.906 8 116162821.647 8        46.300                    90516507.56649
        34.300    22105051.96149
  20918863.875 9 109929386.693 9        53.200    20918870.059 9  85659337.46949
        55.000    20918870.02349  20918865.102 7  82090095.478 7        41.900
  20209850.961 9 106203495.739 9        51.700    20209857.227 9  82756000.73249
        55.100    20209856.60249  20209853.066 7  79307788.102 7        43.500
 21  1  3  0 28  0.0000000  0 13G01G32G21G23G16G07G15G08G26G18G20G10
                                G27
  24570393.508 5 129118284.673 5        37.100    24570401.777 6 100611685.41645
        19.900    24570400.95345
  25083027.164 5 131812161.308 5        37.300    25083034.539 5 102710815.82948
        32.200    25083033.64548
  22716761.164 8 119377403.783 8        45.700                    93021362.66148
        31.900    22716764.38748
  22074751.672 8 116003611.532 8        46.700    22074755.797 8  90392448.32349
        37.600    22074755.22349  22074755.984 5  86626078.086 5        37.200
  22609105.109 8 118811656.790 8        45.800                    92580518.10649
        35.100    22609108.63749
  25037868.273 5 131574873.233 5        36.400    25037871.457 3 102525873.52145
        17.400    25037870.51245
  24893873.289 6 130818213.578 6        39.400    24893875.586 3 101936270.43947
        29.200    24893875.07847
  21237821.164 9 111605525.947 9        49.100    21237828.156 9  86965360.60749
        53.500    21237827.13349  21237823.191 6  83341814.682 6        40.900
  24921510.477 5 130963423.181 5        35.000    24921517.945 5 102049452.06947
        29.700    24921518.23847  24921513.469 1  97797368.20311        28.800
  24614875.430 5 129352048.488 5        37.200    24614880.543 5 100793821.58745
        19.300    24614879.63345  24614880.770 1  96594069.26711        29.700
  22118785.102 8 116235001.294 8        46.000                    90572751.46249
        34.900    22118787.68049
  20919502.977 9 109932743.374 9        53.400    20919508.891 9  85661953.07249
        54.900    20919508.66449  20919503.797 7  82092602.104 7        41.700
  20212165.953 9 106215661.598 9        51.500    20212172.344 9  82765480.61249
        55.100    20212171.80949  20212168.059 7  79316872.979 7        43.300
 21  1  3  0 28 30.0000000  0 13G01G32G21G23G16G07G15G08G26G18G20G10
                                G27
  24550939.578 6 129016053.597 6        38.900    24550947.539 6 100532024.86846
        21.100    24550947.39146  24550942.973 1  96343189.45111        30.700
  25065492.938 6 131720018.867 6        38.300    25065499.418 5 102639016.56148
        31.400    25065498.42648
  22704395.773 8 119312420.061 8        46.500                    92970726.04748
        32.600    22704398.60948
  22087653.352 8 116071410.463 8        46.600    22087657.645 8  90445278.68249
        36.000    22087656.93449  22087658.137 6  86676707.155 6        38.000
  22628060.445 8 118911269.604 8        45.700                    92658138.46949
        35.100    22628064.38349
  25046486.430 5 131620160.732 5        35.800    25046489.996 3 102561162.44145
        16.300    25046489.59845
  24903281.109 6 130867653.406 6        38.600    24903284.457 4 101974795.00347
        29.600    24903284.35947
  21226350.906 9 111545249.889 9        49.300    21226357.980 9  86918392.24849
        53.600    21226356.94549  21226353.035 7  83296803.351 7        41.100
  24942829.945 5 131075457.466 5        35.400    24942838.363 5 102136751.48848
        30.000    24942837.71548  24942833.621 1  97881030.18811        29.500
  24633384.336 5 129449307.307 5        35.600    24633388.891 6 100869607.63745
        19.900    24633387.86745  24633387.883 1  96666697.652 1        29.800
  22132593.938 8 116307569.674 8        45.400                    90629298.23548
        33.600    22132596.98448
  20920250.430 9 109936671.732 9        53.000    20920256.285 9  85665014.13849
        55.000    20920256.22749  20920251.297 7  82095535.629 7        41.200
  20214566.508 9 106228273.879 9        51.600    20214572.441 9  82775308.35749
        55.500    20214571.78549  20214568.109 7  79326291.243 7        43.400
 21  1  3  0 29  0.0000000  0 13G01G32G21G23G16G07G15G08G26G18G20G10
                                G27
  24531503.641 5 128913916.820 5        37.400    24531511.430 5 100452437.76945
        19.900    24531510.82445  24531507.520 2  96266918.524 2        31.100
  25047960.188 6 131627885.109 6        38.300    25047967.121 5 102567224.04448
        32.200    25047966.23848
  22692069.414 8 119247645.309 8        46.600                    92920252.22948
        32.900    22692072.14148
  22100639.352 8 116139653.166 8        45.800    22100643.883 8  90498454.82049
        36.000    22100643.25849  22100644.137 5  86727667.623 5        37.500
  22647069.086 8 119011160.547 8        45.600                    92735975.56149
        34.800    22647072.64149
  25055175.453 5 131665824.908 5        35.900    25055180.145 5 102596744.83145
        17.400    25055179.15645
  24912789.414 6 130917616.367 6        38.600    24912793.191 5 102013727.24648
        30.700    24912793.67248
  21214940.313 9 111485286.006 9        49.200    21214946.996 9  86871667.14849
        53.700    21214946.10549  21214942.133 6  83252025.120 6        40.700
  24964146.672 5 131187471.245 5        37.400    24964154.441 6 102224034.96148
        32.300    24964153.92648  24964149.352 1  97964676.839 1        29.700
  24651894.039 5 129546578.563 5        36.700    24651898.414 6 100945403.46945
        19.900    24651897.64145  24651899.141 1  96739335.232 1        29.700
  22146477.117 8 116380525.361 8        46.400                    90686146.82149
        34.100    22146479.75849
  20921106.594 9 109941170.978 9        52.100    20921112.301 9  85668520.05249
        54.900    20921112.37549  20921107.395 7  82098895.455 7        41.100
  20217051.141 9 106241332.704 9        51.000    20217057.332 9  82785484.05349
        55.000    20217056.86349  20217053.207 7  79336042.943 7        43.600
 21  1  3  0 29 30.0000000  0 13G01G32G21G23G16G07G15G08G26G18G20G10
                                G27
  24512084.734 5 128811875.360 5        35.600    24512093.285 6 100372925.00845
        17.800    24512093.21145  24512089.465 2  96190718.794 2        31.400
  25030429.703 6 131535763.126 6        38.100    25030437.438 5 102495440.64048
        32.300    25030436.41448
  22679782.531 8 119183079.750 8        46.600                    92869941.41948
        33.400    22679786.00848
  22113709.805 8 116208337.440 8        45.500    22113714.039 8  90551975.03249
        36.000    22113713.39149  22113713.832 5  86778957.826 5        37.400
  22666130.375 8 119111326.948 8        45.300                    92814027.31049
        34.600    22666133.68449
  25063935.766 4 131711863.951 4        34.000    25063940.582 5 102632619.32345
        15.600    25063940.55945
  24922395.344 5 130968101.059 5        37.900    24922399.746 5 102053065.97448
        30.200    24922399.87948
  21203588.805 9 111425634.991 9        49.800    21203596.020 9  86825185.83849
        53.500    21203594.75449  21203590.781 6  83207480.555 6        40.700
  24985456.313 3 131299462.418 3        32.800    24985465.129 6 102311300.78847
        28.000    24985465.09047  24985460.668 1  98048306.57211        30.100
  24670406.586 5 129643861.540 5        36.100    24670411.273 6 101021208.38245
        19.900    24670410.61745  24670410.500 1  96811981.55311        29.800
  22160433.633 8 116453865.824 8        46.800                    90743295.25548
        33.700    22160436.03948
  20922071.414 9 109946240.771 9        52.600    20922077.125 9  85672470.54849
        55.100    20922077.27349  20922072.273 7  82102681.381 7        41.500
  20219621.156 9 106254838.538 9        51.800    20219627.574 9  82796008.07149
        54.900    20219626.97349  20219623.391 7  79346128.468 7        43.200
 21  1  3  0 30  0.0000000  0 13G01G32G21G23G16G07G15G08G26G18G20G10
                                G27
  24492686.570 6 128709930.155 6        39.200    24492693.871 6 100293487.26746
        22.900    24492693.74646  24492689.387 2  96114590.918 2        31.000
  25012903.359 6 131443655.524 6        38.300    25012909.305 6 102423668.50248
        32.500    25012908.55548
  22667536.203 8 119118723.791 8        47.300                    92819793.92348
        32.700    22667539.39148
  22126863.453 8 116277460.916 8        46.300    22126867.703 8  90605837.49449
        36.700    22126867.15649  22126867.723 5  86830576.033 5        36.800
  22685243.563 8 119211766.100 8        46.200                    92892291.57749
        34.000    22685246.28949
  25072767.586 3 131758275.73713        33.700    25072772.340 4 102668784.29855
        17.400    25072772.34045
  24932101.156 5 131019105.843 5        36.700    24932105.629 5 102092810.01147
        29.300    24932105.62947
  21192297.844 9 111366299.390 9        49.800    21192304.820 9  86778950.31449
        53.500    21192303.33249  21192299.805 7  83163171.492 7        41.000
  25006764.797 6 131411428.615 6        38.400    25006771.164 5 102398547.12448
        31.500    25006771.02348  25006766.680 1  98131917.64111        29.300
  24688919.727 5 129741155.293 5        35.400    24688925.641 6 101097021.68645
        19.600    24688924.63345  24688925.566 1  96884635.98911        29.500
  22174462.008 8 116527588.720 8        45.300                    90800741.67448
        33.300    22174464.96148
  20923144.148 9 109951880.570 9        52.800    20923150.387 9  85676865.20449
        55.000    20923150.37549  20923145.434 7  82106892.909 7        41.600
  20222276.484 9 106268791.741 9        51.400    20222282.613 9  82806880.70249
        55.200    20222282.00049  20222278.297 7  79356548.065 7        43.700
 21  1  3  0 30 30.0000000  0 13G01G32G21G23G16G07G15G08G26G18G20G10
                                G27
  24473305.734 6 128608082.066 6        38.400    24473313.246 6 100214125.11046
        21.700    24473312.75846  24473308.953 2  96038535.531 2        31.000
  24995379.523 6 131351565.464 6        39.200    24995384.750 6 102351910.01149
        34.000    24995384.98049
  22655329.609 8 119054577.369 8        46.300                    92769809.71548
        32.200    22655332.34048
  22140100.656 8 116347021.307 8        46.600    22140104.703 8  90660040.40149
        36.700    22140104.09049  22140105.141 5  86882520.472 5        37.500
  22704408.094 8 119312475.193 8        45.400                    92970766.20249
        34.000    22704410.80149
  25081670.852 5 131805057.779 5        37.100    25081675.023 5 102705237.80845
        19.300    25081674.22745
  24941905.430 5 131070629.138 5        35.100    24941909.383 5 102132958.06247
        26.500    24941909.17647
  21181066.773 9 111307280.784 9        49.500    21181073.746 9  86732961.79449
        53.600    21181072.61349  21181069.020 6  83119099.146 6        40.600
  25028064.578 4 131523367.506 4        34.800    25028072.664 5 102485772.30247
        29.500    25028072.21947  25028068.316 1  98215508.45911        29.400
  24707436.703 5 129838459.059 5        37.000    24707441.734 6 101172842.78545
        19.900    24707441.00445  24707440.945 1  96957297.97811        29.400
  22188562.961 8 116601691.694 8        45.100                    90858484.24949
        34.000    22188566.52049
  20924325.891 9 109958089.985 9        53.200    20924331.914 9  85681703.71449
        54.900    20924331.73849  20924327.188 7  82111529.818 7        41.600
  20225016.969 9 106283192.741 9        51.700    20225023.133 9  82818102.25849
        55.000    20225022.35249  20225018.984 7  79367302.056 7        43.700
 21  1  3  0 31  0.0000000  0 13G01G32G21G23G16G07G15G08G26G18G20G10
                                G27
  24453942.703 5 128506331.906 5        37.000    24453950.328 5 100134839.30446
        21.500    24453949.97346  24453946.313 2  95962553.29712        31.200
  24977858.477 6 131259495.684 6        39.200    24977865.297 6 102280167.33048
        33.600    24977864.18048
  22643162.594 8 118990640.963 8        47.100                    92719989.14048
        32.300    22643164.91848
  22153420.047 8 116417016.163 8        46.000    22153424.102 8  90714581.84249
        36.400    22153423.89549  22153424.629 5  86934789.349 5        37.700
  22723623.031 7 119413451.019 7        44.900                    93049448.65748
        32.900    22723625.85248
  25090643.516 4 131852207.687 4        34.300    25090647.832 5 102741978.01545
        17.800    25090647.04345
  24951808.352 4 131122668.960 4        34.600    24951811.750 3 102173508.58846
        24.600    24951812.24646
  21169896.820 9 111248580.945 9        49.700    21169903.531 9  86687221.65949
        53.600    21169902.45349  21169899.004 6  83075264.876 6        40.600
  25049360.391 4 131635276.816 4        34.300    25049368.637 5 102572974.25647
        29.600    25049368.07447  25049363.301 1  98299076.97611        29.500
  24725954.648 5 129935771.822 5        37.700    24725959.637 5 101248670.90346
        20.400    24725958.87146  24725959.637 1  97029966.51411        28.900
  22202736.805 8 116676172.387 8        45.600                    90916521.15748
        33.200    22202739.78548
  20925615.805 9 109964868.312 9        52.300    20925621.813 9  85686985.52549
        55.000    20925621.59449  20925617.063 7  82116591.543 7        41.700
  20227842.680 9 106298041.759 9        52.500    20227848.859 9  82829672.91549
        54.900    20227848.02749  20227844.656 7  79378390.604 7        43.400
 21  1  3  0 31 30.0000000  0 13G01G32G21G23G16G07G15G08G26G18G20G10
                                G27
  24434598.367 4 128404680.619 4        34.500    24434606.824 6 100055630.46745
        19.000    24434606.77345  24434602.719 1  95886644.915 1        30.400
  24960342.375 6 131167449.089 6        39.000    24960349.195 6 102208442.71448
        33.200    24960348.10548
  22631036.000 8 118926914.670 8        46.200                    92670332.30448
        32.600    22631039.08248
  22166821.773 8 116487443.125 8        45.800    22166825.777 8  90769460.00349
        35.700    22166825.28949  22166825.945 5  86987380.950 5        37.400
  22742887.938 7 119514692.090 7        44.700                    93128337.80449
        34.100    22742891.40649
  25099683.602 1 131899723.104 1        30.800    25099689.746 4 102779003.02443
        13.900    25099688.38343
  24961809.180 5 131175223.763 5        35.500    24961812.797 3 102214460.40247
        26.300    24961812.40247
  21158787.383 9 111190200.954 9        50.000    21158794.238 9  86641730.76049
        53.800    21158792.93849  21158789.457 7  83031669.421 7        41.300
  25070650.703 5 131747154.050 5        37.700    25070658.004 6 102660151.34648
        32.500    25070657.83248  25070653.004 1  98382621.70411        28.800
  24744475.195 5 130033092.717 5        37.300    24744478.664 5 101324505.35645
        19.300    24744478.62945  24744478.852 1  97102641.25311        30.600
  22216981.508 8 116751028.541 8        45.200                    90974850.62648
        32.800    22216984.26248
  20927013.773 9 109972215.021 9        52.500    20927020.035 9  85692710.24749
        54.900    20927019.63749  20927015.000 7  82122077.737 7        42.100
  20230753.617 9 106313339.139 9        50.900    20230759.664 9  82841592.95249
        55.100    20230759.12149  20230755.516 7  79389813.986 7        42.800
 21  1  3  0 32  0.0000000  0 13G01G32G21G23G16G07G15G08G26G18G20G10
                                G27
  24415274.336 5 128303128.938 5        37.300    24415282.215 6  99976499.36946
        21.800    24415282.27346  24415277.488 1  95810810.910 1        29.400
  24942830.305 5 131075428.612 5        37.400    24942838.359 6 102136738.46848
        31.600    24942837.10548
  22618948.711 8 118863398.318 8        46.300                    92620839.05548
        32.100    22618952.34848
  22180305.273 8 116558299.882 8        47.000    22180309.598 8  90824673.07149
        36.300    22180309.05149  22180309.539 5  87040293.441 5        36.600
  22762203.781 8 119616195.301 8        45.100                    93207431.20449
        34.200    22762206.96949
  25108796.438 3 131947601.931 3        32.600    25108800.656 3 102816311.04755
        16.300    25108799.22345
  24971907.977 5 131228292.158 5        37.200    24971911.613 5 102255812.39747
        29.100    24971912.00847
  21147739.430 9 111132143.192 9        50.000    21147746.289 9  86596490.94849
        53.800    21147744.98049  21147741.316 7  82988314.607 7        41.400
  25091933.320 5 131858997.043 5        36.600    25091940.637 5 102747301.70148
        30.200    25091940.46948  25091936.566 1  98466140.81011        27.000
  24762994.109 5 130130421.130 5        35.100    24762999.496 5 101400345.70345
        18.300    24762999.12145  24763000.098 1  97175321.48211        30.100
  22231297.156 8 116826257.852 8        45.900                    91033470.88248
        33.000    22231299.94148
  20928520.016 9 109980129.599 9        53.300    20928526.063 9  85698877.45549
        54.900    20928525.83249  20928521.035 7  82127987.976 7        41.800
  20233750.047 9 106329085.257 9        51.800    20233756.340 9  82853862.64849
        54.900    20233755.44149  20233752.020 7  79401572.423 7        43.100
 21  1  3  0 32 30.0000000  0 13G01G32G21G23G16G07G15G08G26G18G20G10
                                G27
  24395969.953 6 128201678.052 6        38.300    24395977.004 6  99897446.72446
        22.000    24395976.52746  24395970.707 1  95735052.14711        29.100
  24925325.914 6 130983437.209 6        38.800    24925333.031 5 102065056.87248
        33.000    24925331.25048
  22606902.250 8 118800092.202 8        46.400                    92571509.63348
        32.200    22606905.05548
  22193870.383 8 116629583.986 8        46.400    22193874.520 8  90880219.12349
        36.300    22193874.38749  22193874.340 5  87093525.076 5        36.900
  22781568.617 8 119717957.646 8        45.200                    93286726.52548
        33.300    22781571.58648
  25117975.805 3 131995841.87213        32.300    25117979.641 3 102853900.57455
        15.600    25117979.05145
  24982103.305 5 131281872.165 5        35.700    24982107.758 5 102297563.06947
        29.900    24982107.60947
  21136752.914 9 111074409.327 9        50.300    21136759.863 9  86551503.51649
        54.000    21136758.52349  21136754.832 6  82945201.670 6        40.600
  25113209.430 5 131970803.499 5        35.700    25113217.023 5 102834423.58347
        28.900    25113216.38347  25113211.895 1  98549632.65111        29.200
  24781516.570 5 130227756.052 5        35.000    24781521.684 5 101476191.01945
        17.400    24781521.27745  24781522.219 1  97248006.58211        29.900
  22245682.844 8 116901858.181 8        46.000                    91092380.22848
        33.000    22245686.13748
  20930134.039 9 109988611.403 9        52.200    20930140.137 9  85705486.66049
        54.900    20930139.73849  20930135.105 7  82134321.789 7        42.000
  20236831.703 9 106345280.395 9        51.700    20236837.961 9  82866482.22249
        55.000    20236837.34449  20236833.793 7  79413666.197 7        43.600
 21  1  3  0 33  0.0000000  0 13G01G32G21G23G16G07G15G08G26G18G20G10
                                G27
  24376683.164 5 128100328.248 5        36.900    24376691.023 6  99818472.88146
        22.000    24376690.48446  24376686.559 1  95659368.85711        30.100
  24907826.359 6 130891477.450 6        40.000    24907833.520 6 101993399.90848
        33.700    24907832.85948
  22594895.484 8 118736996.491 8        46.600                    92522344.14148
        32.300    22594898.13748
  22207515.734 8 116701292.751 8        45.900    22207520.211 8  90936096.08949
        36.100    22207519.63749  22207520.023 5  87147073.836 5        37.300
  22800981.930 7 119819976.678 7        44.900                    93366221.86348
        33.400    22800984.91048
  25127223.711 5 132044440.226 5        36.900    25127226.746 1 102891769.41345
        16.300    25127227.04745
  24992397.844 5 131335961.795 5        37.900    24992401.918 5 102339710.88148
        32.100    24992401.78548
  21125828.242 9 111017000.609 9        49.500    21125835.395 9  86506769.46049
        53.700    21125834.05149  21125829.902 6  82902331.528 6        40.500
  25134477.688 5 132082570.723 5        37.900    25134485.145 5 102921514.95348
        30.200    25134484.98448  25134480.859 1  98633095.090 1        29.900
  24800040.086 5 130325096.301 5        36.900    24800045.938 5 101552040.57045
        18.600    24800044.50845  24800045.973 1  97320695.73211        28.600
  22260139.164 8 116977826.821 8        45.400                    91151576.58248
        33.200    22260142.30948
  20931855.789 9 109997659.474 9        53.500    20931861.789 9  85712537.11449
        55.000    20931861.62549  20931856.867 7  82141078.484 7        41.900
  20239999.133 9 106361924.521 9        51.600    20240005.266 9  82879451.67149
        55.000    20240004.64149  20240001.004 7  79426095.278 7        43.400
 21  1  3  0 33 30.0000000  0 13G01G32G21G23G16G07G15G08G26G18G20G10
                                G27
  24357415.898 5 127999080.505 5        37.800    24357423.883 6  99739578.53546
        22.300    24357423.63746  24357418.734 2  95583761.71712        31.500
  24890333.539 6 130799552.204 6        39.100    24890340.645 6 101921769.85448
        33.400    24890339.93848
  22582929.156 8 118674110.911 8        46.900                    92473342.40348
        32.400    22582931.71948
  22221241.766 8 116773423.785 8        46.000    22221246.406 8  90992302.08749
        35.600    22221245.55149  22221246.094 5  87200937.932 5        36.900
  22820443.547 7 119922249.504 7        44.100                    93445914.98548
        33.600    22820447.07448
  25136539.469 3 132093394.570 3        32.200    25136543.566 3 102929915.67443
        13.900    25136542.55943
  25002787.516 5 131390559.381 5        37.600    25002789.902 4 102382254.48247
        29.500    25002789.65247
  21114966.117 9 110959918.548 9        49.800    21114973.078 9  86462289.93349
        53.800    21114971.68049  21114968.039 7  82859705.309 7        41.400
  25155738.367 5 132194296.289 5        35.300    25155746.605 6 103008573.82348
        30.400    25155746.32848
  24818564.617 5 130422441.047 5        37.800    24818570.563 6 101627893.61346
        21.100    24818568.91046  24818569.457 1  97393388.21311        28.700
  22274665.875 7 117054161.590 7        44.800                    91211058.22148
        32.300    22274668.43848
  20933685.445 9 110007273.115 9        53.500    20933691.234 9  85720028.27149
        55.000    20933691.05149  20933686.539 7  82148257.504 7        41.600
  20243251.633 9 106379017.874 9        52.300    20243258.125 9  82892771.15649
        55.000    20243257.45349  20243253.758 7  79438859.759 7        43.400
 21  1  3  0 34  0.0000000  0 12G01G32G21G23G16G07G08G26G18G20G10G27
  24338168.344 5 127897936.194 5        35.900    24338176.047 5  99660764.85445
        19.000    24338175.58245  24338171.742 1  95508231.96711        30.100
  24872848.227 5 130707665.092 5        37.600    24872855.148 6 101850169.53648
        32.200    24872854.34448
  22571002.641 8 118611436.371 8        46.600                    92424505.11748
        33.900    22571005.53148
  22235048.422 8 116845975.256 8        45.700    22235052.316 8  91048835.70849
        35.600    22235051.94549  22235052.324 5  87255115.973 5        37.700
  22839953.250 7 120024774.405 7        44.300                    93525804.49948
        33.000    22839956.88748
  25145922.148 4 132142703.222 4        34.400    25145927.383 5 102968337.87345
        18.300    25145926.10545
  21104166.688 9 110903166.088 9        49.500    21104173.527 9  86418067.24749
        54.100    21104172.09849  21104168.555 7  82817325.237 7        41.700
  25176990.078 4 132305978.843 4        34.000    25176998.813 5 103095599.06247
        27.100    25176998.66047
  24837090.961 5 130519790.154 5        37.500    24837094.672 5 101703750.01245
        19.600    24837094.23445  24837095.039 1  97466083.98611        28.900
  22289260.930 8 117130860.782 8        45.300                    91270823.82148
        33.200    22289264.00048
  20935622.383 9 110017452.396 9        52.600    20935627.977 9  85727960.18049
        55.000    20935627.89149  20935623.305 7  82155858.933 7        41.300
  20246590.320 9 106396561.466 9        51.000    20246596.559 9  82906441.48749
        54.900    20246595.85249  20246592.344 7  79451960.482 7        43.800
 21  1  3  0 34 30.0000000  0 11G01G32G21G23G16G08G26G18G20G10G27
  24318941.297 5 127796895.811 5        37.800    24318949.262 6  99582032.00946
        22.200    24318948.67246  24318943.816 1  95432779.712 1        29.000
  24855370.367 6 130615818.456 6        38.600    24855377.391 6 101778600.73648
        33.000    24855377.21948
  22559116.234 8 118548972.515 8        47.100                    92375831.99948
        33.400    22559119.09448
  22248933.234 8 116918944.166 8        45.500    22248937.668 8  91105694.60649
        35.200    22248937.23449  22248938.535 5  87309605.785 5        37.200
  22859510.797 7 120127547.090 7        44.400                    93605887.11848
        32.800    22859513.90248
  21093429.313 9 110846743.944 9        50.300    21093436.680 9  86374101.94749
        54.200    21093435.30549  21093431.945 6  82775191.829 6        40.600
  25198235.570 6 132417615.088 6        38.200    25198241.641 3 103182588.51147
        29.500    25198241.17247  25198238.656 2  98883305.52712        31.200
  24855615.234 5 130617142.125 5        35.200    24855620.539 6 101779608.65845
        18.300    24855619.15645  24855620.590 1  97538781.92111        30.100
  22303925.461 8 117207921.393 8        45.000                    91330871.05748
        33.000    22303928.31348
  20937666.648 9 110028195.965 9        53.500    20937672.770 9  85736331.80049
        54.900    20937672.47349  20937667.766 7  82163881.740 7        41.200
  20250014.219 9 106414554.898 9        51.500    20250020.566 9  82920462.33849
        55.000    20250019.96149  20250016.406 7  79465397.141 7        43.500
 21  1  3  0 35  0.0000000  0 11G01G32G21G23G16G08G26G18G20G10G27
  24299733.969 5 127695959.948 5        37.100    24299741.785 6  99503380.77646
        21.500    24299741.33646  24299736.285 1  95357405.53411        30.500
  24837900.781 6 130524015.134 6        40.300    24837907.797 5 101707065.68148
        33.400    24837906.94148
  22547269.734 8 118486719.525 8        46.500                    92327323.19648
        33.700    22547272.28548
  22262897.789 8 116992328.046 8        46.300    22262902.430 8  91162876.84949
        35.300    22262901.62949  22262902.738 5  87364405.416 5        37.700
  22879114.570 7 120230565.797 7        44.500                    93686161.42549
        34.000    22879118.03949
  21082756.047 9 110790653.681 9        50.800    21082762.703 9  86330395.24649
        54.400    21082761.60949  21082758.281 7  82733306.232 7        41.400
  25219471.094 4 132529202.928 4        34.700    25219476.883 6 103269540.09048
        30.100    25219476.39848  25219473.250 1  98966634.12111        27.800
  24874141.281 3 130714496.157 3        33.500    24874145.078 5 101855468.97745
        16.300    24874144.30545  24874146.688 1  97611481.261 1        30.100
  22318657.078 8 117285341.264 8        45.300                    91391198.23148
        32.400    22318660.06648
  20939818.297 9 110039503.052 9        52.600    20939824.445 9  85745142.52849
        54.900    20939824.11749  20939819.059 7  82172325.352 7        41.400
  20253524.039 9 106432998.346 9        51.600    20253530.207 9  82934833.85349
        55.000    20253529.66849  20253526.336 7  79479169.846 7        43.600
 21  1  3  0 35 30.0000000  0 11G01G32G21G23G16G08G26G18G20G10G27
  24280545.867 6 127595129.698 6        38.300    24280554.234 6  99424811.73046
        22.600    24280553.75446  24280549.313 1  95282110.280 1        29.700
  24820440.313 7 130432258.076 7        41.300    24820446.188 5 101635566.69049
        34.600    24820445.50449
  22535463.289 8 118424677.409 8        47.200                    92278978.69449
        34.400    22535466.12549
  22276941.023 8 117066124.577 8        45.500    22276945.496 8  91220380.64249
        36.300    22276944.94549  22276945.680 5  87419513.209 5        36.800
  22898764.563 8 120333827.551 8        45.300                    93766625.12948
        33.000    22898767.60248
  21072146.195 9 110734897.529 9        50.800    21072152.824 9  86286948.89149
        54.200    21072151.73049  21072148.074 7  82691670.151 7        41.200
  25240694.813 5 132640740.32515        37.100    25240701.863 5 103356452.16858
        31.400    25240700.99248
  24892666.969 3 130811851.58113        32.300    24892671.383 5 101931330.32755
        16.900    24892670.58245  24892673.656 1  97684181.66511        29.400
  22333457.859 8 117363117.998 8        45.100                    91451803.47648
        32.700    22333460.66448
  20942077.055 9 110051372.974 9        53.300    20942082.926 9  85754391.82149
        54.900    20942083.06649  20942077.996 7  82181189.283 7        41.300
  20257119.477 9 106451892.153 9        51.900    20257125.465 9  82949556.29549
        55.200    20257124.90649  20257121.504 7  79493278.851 7        43.200
 21  1  3  0 36  0.0000000  0 11G01G32G21G23G16G08G26G18G20G10G27
  24261379.188 5 127494405.800 5        37.000    24261387.473 6  99346325.60646
        22.200    24261387.25846  24261382.461 1  95206894.34811        29.900
  24802988.766 6 130340550.173 6        39.000    24802995.379 6 101564105.99548
        32.900    24802993.48848
  22523697.289 8 118362845.852 8        47.200                    92230798.27449
        34.100    22523700.33249
  22291062.156 8 117140331.153 8        45.800    22291066.480 8  91278203.94949
        35.700    22291066.09049  22291066.813 5  87474927.217 5        37.100
  22918460.422 7 120437329.182 7        44.700                    93847275.75048
        32.300    22918463.57848
  21061599.828 9 110679476.759 9        50.300    21061606.430 9  86243763.88549
        54.200    21061605.45349  21061601.840 7  82650284.535 7        41.100
  25261908.969 5 132752224.407 5        36.100    25261916.746 5 103443323.01247
        28.200    25261915.43047
  24911192.281 5 130909207.170 5        35.500    24911198.691 6 102007191.81345
        18.600    24911198.18845  24911198.492 1  97756882.29811        29.000
  22348325.922 7 117441249.108 7        44.600                    91512684.86548
        32.800    22348328.68448
  20944442.703 9 110063804.888 9        52.500    20944448.625 9  85764079.03349
        55.200    20944448.77749  20944444.129 7  82190472.831 7        41.500
  20260800.266 9 106471236.411 9        51.300    20260806.883 9  82964629.73449
        55.000    20260806.14849  20260802.500 7  79507724.234 7        43.400
 21  1  3  0 36 30.0000000  0 11G01G32G21G23G16G08G26G18G20G10G27
  24242233.109 6 127393789.034 6        38.100    24242240.176 6  99267922.97846
        20.900    24242240.13746  24242235.391 1  95131758.52611        30.600
  24785546.727 6 130248894.413 6        38.900    24785553.590 6 101492685.96448
        32.700    24785553.32448
  22511971.109 8 118301225.696 8        46.000                    92182782.59448
        33.700    22511974.11748
  22305260.781 8 117214945.451 8        45.800    22305264.965 8  91336344.95649
        35.700    22305264.48449  22305265.410 5  87530645.656 5        36.700
  22938200.883 7 120541068.613 7        44.300                    93928111.67448
        32.000    22938204.56648
  21051117.688 9 110624393.478 9        49.800    21051124.602 9  86200841.84049
        54.100    21051123.46149  21051119.918 7  82609150.912 7        41.600
  25283114.258 4 132863653.31114        34.300    25283121.227 5 103530150.71957
        28.900    25283120.16847
  24929718.367 5 131006562.468 5        35.000    24929724.570 6 102083053.09145
        18.300    24929723.82445  24929724.375 1  97829582.73411        27.300
  22363260.359 7 117519732.472 7        43.800                    91573840.74348
        32.400    22363263.58648
  20946915.125 9 110076798.122 9        52.100    20946921.336 9  85774203.62649
        54.900    20946921.26649  20946916.227 6  82200175.570 6        40.900
  20264567.516 9 106491031.399 9        52.300    20264573.605 9  82980054.39349
        54.900    20264573.08249  20264569.570 7  79522506.195 7        43.300
 21  1  3  0 37  0.0000000  0 11G01G32G21G23G16G08G26G18G20G10G27
  24223106.664 5 127293280.429 5        37.700    24223113.684 6  99189604.56446
        21.300    24223113.28946  24223108.930 1  95056703.38311        30.300
  24768115.305 6 130157293.839 6        39.200    24768122.109 6 101421308.88748
        33.600    24768122.60248
  22500285.320 8 118239816.745 8        45.600                    92134931.47849
        34.000    22500288.54749
  22319536.406 8 117289964.990 8        46.200    22319540.715 8  91394801.76649
        34.800    22319540.27049  22319541.000 5  87586666.764 5        36.900
  22957986.586 8 120645042.989 8        45.000                    94009130.64748
        32.600    22957990.32848
  21040700.023 9 110569649.058 9        50.400    21040707.066 9  86158183.85349
        54.400    21040706.09049  21040702.230 6  82568270.329 6        40.900
  25304306.117 5 132975024.76615        36.500    25304313.969 5 103616933.56057
        29.600    25304313.00047
  24948246.227 5 131103916.670 5        36.700    24948249.840 5 102158913.48845
        19.600    24948250.30945
  22378262.039 7 117598565.907 7        44.000                    91635269.37748
        33.000    22378265.35548
  20949494.320 9 110090351.877 9        52.900    20949500.660 9  85784765.00149
        54.900    20949500.57449  20949495.555 7  82210296.887 7        41.000
  20268419.953 9 106511277.394 9        51.300    20268426.273 9  82995830.48849
        55.000    20268425.78549  20268422.297 7  79537624.942 7        43.800
 21  1  3  0 37 30.0000000  0 11G01G32G21G23G16G08G26G18G20G10G27
  24204000.195 5 127192880.602 5        35.400    24204008.488 6  99111371.01446
        20.400    24204008.42246  24204003.469 1  94981729.49311        30.900
  24750695.945 6 130065751.084 6        40.300    24750702.934 6 101349976.85548
        33.800    24750701.60948
  22488639.758 8 118178618.835 8        45.800                    92087244.79248
        33.200    22488642.34048
  22333888.570 8 117365387.146 8        45.200    22333892.977 8  91453572.27649
        35.200    22333892.51249  22333893.434 5  87642988.527 5        36.900
  22977817.383 8 120749249.668 8        46.500                    94090330.65948
        33.000    22977820.05948
  21030347.500 9 110515245.255 9        50.100    21030354.340 9  86115791.28049
        54.500    21030353.53149  21030349.566 7  82527644.128 7        41.700
  25325489.680 6 133086336.028 6        38.500    25325495.738 5 103703669.68447
        28.800    25325494.84047
  24966770.617 5 131201268.769 5        36.900    24966775.797 5 102234772.20745
        19.600    24966775.34445
  22393329.766 7 117677746.648 7        44.500                    91696968.66848
        32.700    22393332.82848
  20952179.945 9 110104465.102 9        52.900    20952186.332 9  85795762.32749
        54.900    20952185.98849  20952180.973 7  82220835.998 7        41.300
  20272358.523 9 106531974.295 9        52.600    20272364.711 9  83011957.94149
        54.900    20272364.19549  20272360.660 7  79553080.422 7        43.200
 21  1  3  0 38  0.0000000  0 11G01G32G21G23G16G08G26G18G20G10G27
  24184917.453 6 127092590.629 6        38.800    24184923.961 6  99033222.99446
        22.000    24184923.85946  24184918.492 1  94906837.80711        29.600
  24733287.453 6 129974269.401 6        40.600    24733294.328 6 101278692.45349
        34.000    24733293.67649
  22477033.945 8 118117632.688 8        45.900                    92039723.13848
        33.500    22477037.43048
  22348317.602 8 117441209.754 8        45.400    22348321.574 8  91512654.82249
        34.900    22348321.19549  22348321.820 5  87699609.272 5        36.900
  22997690.578 8 120853686.067 8        45.100                    94171709.67448
        33.100    22997693.98848
  21020059.969 9 110461184.124 9        50.500    21020066.828 9  86073665.74049
        54.600    21020065.72749  21020062.227 7  82487273.808 7        41.300
  25346657.250 3 133197585.42013        33.700    25346664.809 4 103790357.51057
        25.300    25346664.92247
  24985295.141 4 131298618.221 4        34.800    24985300.680 5 102310628.97245
        17.800    24985300.13345
  22408463.133 7 117757272.603 7        44.500                    91758936.94648
        31.800    22408465.71548
  20954971.984 9 110119137.254 9        52.900    20954978.145 9  85807195.17349
        55.000    20954978.03549  20954973.281 7  82231792.474 7        41.200
  20276382.469 9 106553122.640 9        52.500    20276389.219 9  83028437.16249
        54.900    20276388.50049  20276384.805 7  79568873.016 7        43.200
 21  1  3  0 38 30.0000000  0 10G01G32G21G23G16G08G18G20G10G27
  24165854.172 6 126992411.395 6        38.800    24165860.496 6  98955161.25346
        22.200    24165860.49246
  24715891.508 6 129882851.634 6        39.100    24715898.273 6 101207457.84248
        33.400    24715897.51648
  22465469.180 8 118056858.042 8        46.500                    91992366.28948
        33.600    22465472.22348
  22362821.953 8 117517430.164 8        45.700    22362826.086 8  91572047.35849
        35.700    22362825.38749  22362825.984 5  87756527.161 5        36.100
  23017607.156 7 120958348.718 7        44.100                    94253264.99548
        32.600    23017610.32448
  21009837.766 9 110407466.920 9        49.700    21009844.945 9  86031808.17749
        54.600    21009843.71549  21009839.883 7  82447160.306 7        41.000
  25003819.828 5 131395964.084 5        35.800    25003824.363 5 102386482.89345
        18.600    25003824.67245
  22423661.695 7 117837141.483 7        43.800                    91821172.44348
        31.900    22423664.55548
  20957870.438 9 110134367.363 9        53.100    20957876.121 9  85819062.80849
        55.000    20957876.04749  20957871.559 7  82243165.633 7        41.300
  20280493.063 9 106574722.466 9        51.500    20280499.379 9  83045268.19349
        55.000    20280498.82049  20280495.063 7  79585002.743 7        42.800
 21  1  3  0 39  0.0000000  0 10G01G32G21G23G16G08G18G20G10G27
  24146810.633 5 126892343.592 5        37.000    24146818.590 6  98877186.36846
        22.200    24146817.25846
  24698506.867 6 129791500.797 6        38.800    24698515.082 6 101136275.36348
        33.200    24698513.43848
  22453944.500 8 117996295.060 8        46.300                    91945174.36748
        33.700    22453947.25848
  22377400.797 8 117594045.988 8        45.100    22377405.680 8  91631748.00349
        34.800    22377404.84449  22377405.637 5  87813740.294 5        36.800
  23037565.898 7 121063236.002 7        43.800                    94334995.33348
        33.100    23037570.03948
  20999681.594 9 110354095.375 9        50.700    20999688.746 9  85990219.96149
        54.800    20999687.55549  20999683.930 7  82407304.970 7        41.300
  25022343.031 4 131493305.706 4        34.600    25022348.945 5 102462333.53445
        18.300    25022347.49245
  22438924.977 7 117917350.815 7        44.300                    91883673.23448
        31.600    22438927.93448
  20960874.375 9 110150154.593 9        53.400    20960880.551 9  85831364.54249
        54.900    20960880.24249  20960875.594 7  82254954.786 7        41.000
  20284689.414 9 106596773.951 9        51.500    20284695.797 9  83062451.16749
        54.900    20284695.00449  20284691.254 7  79601469.763 7        42.900
 21  1  3  0 39 30.0000000  0 10G01G32G21G23G16G08G18G20G10G27
  24127789.000 5 126792388.034 5        36.300    24127797.355 6  98799298.98146
        21.800    24127797.08246  24127792.180 2  94682664.60612        31.100
  24681137.078 5 129700219.643 5        37.600    24681144.406 6 101065147.23248
        33.300    24681143.95748
  22442460.211 8 117935943.522 8        46.300                    91898147.19849
        34.100    22442462.71549
  22392055.266 8 117671054.614 8        45.500    22392059.668 8  91691754.73449
        34.400    22392059.10549  22392059.461 5  87871246.709 5        36.600
  23057567.258 7 121168344.557 7        44.100                    94416898.10148
        31.500    23057571.29348
  20989591.930 9 110301071.176 9        50.300    20989598.355 9  85948902.40949
        54.800    20989597.34449  20989593.707 7  82367708.947 7        41.200
  25040865.805 5 131590642.121 5        36.900    25040871.352 5 102538180.06245
        19.000    25040870.96545
  22454252.375 7 117997898.223 7        44.100                    91946437.44948
        31.900    22454255.41048
  20963984.828 9 110166497.921 9        52.900    20963990.551 9  85844099.61649
        55.000    20963990.29349  20963985.840 7  82267159.235 7        41.300
  20288971.781 9 106619277.144 9        52.100    20288977.641 9  83079986.12149
        55.000    20288977.22349  20288973.598 7  79618274.088 7        43.200
 21  1  3  0 40  0.0000000  0 10G01G32G21G23G16G08G18G20G10G27
  24108790.117 5 126692545.566 5        37.700    24108797.484 6  98721499.68746
        20.900    24108797.45746  24108793.699 2  94608106.964 2        31.000
  24663782.297 6 129609011.292 6        39.000    24663787.934 5 100994075.76849
        34.500    24663786.93849
  22431015.898 8 117875803.946 8        47.100                    91851285.20149
        34.800    22431019.01249
  22406783.750 8 117748453.624 8        45.800    22406788.254 8  91752065.64549
        34.700    22406787.59849  22406788.113 5  87929044.695 5        36.100
  23077610.625 7 121273671.526 7        44.100                    94498971.05848
        31.600    23077614.02748
  20979567.719 9 110248396.174 9        50.000    20979574.914 9  85907856.95649
        54.500    20979573.65649  20979569.969 7  82328373.725 7        41.100
  25059387.375 5 131687972.754 5        35.700    25059392.574 5 102614022.08945
        19.600    25059391.55145
  22469643.977 7 118078781.537 7        43.400                    92009463.41248
        31.400    22469647.37148
  20967200.625 9 110183396.467 9        53.400    20967206.441 9  85857267.32749
        54.900    20967206.12549  20967201.512 7  82279778.296 7        41.400
  20293340.219 9 106642232.147 9        51.300    20293346.004 9  83097873.12649
        55.000    20293345.43449  20293341.945 7  79635415.798 7        43.500
 21  1  3  0 40 30.0000000  0 10G01G32G21G23G16G08G18G20G10G27
  24089812.914 5 126592816.955 5        37.400    24089820.375 6  98643789.11346
        24.100    24089819.88746  24089815.082 1  94533634.34811        30.300
  24646440.016 6 129517878.545 6        39.200    24646446.125 6 100923063.25148
        33.600    24646445.69148
  22419612.055 8 117815876.361 8        46.700                    91804588.38749
        34.700    22419615.31349
  22421586.039 8 117826240.326 8        45.900    22421590.465 8  91812678.67149
        34.300    22421589.94149  22421590.457 5  87987132.170 5        36.600
  23097695.211 7 121379214.082 7        44.000                    94581212.00948
        32.100    23097698.70748
  20969610.852 9 110196072.197 9        50.200    20969617.703 9  85867085.03749
        54.500    20969616.69549  20969612.852 7  82289300.643 7        41.600
  25077907.148 5 131785296.542 5        37.500    25077913.113 6 102689858.77045
        19.900    25077911.96545
  22485099.430 7 118159998.185 7        43.600                    92072749.09648
        31.200    22485102.53548
  20970521.617 9 110200849.155 9        52.700    20970527.402 9  85870866.82349
        54.900    20970526.87149  20970522.426 7  82292811.152 7        41.100
  20297794.070 9 106665638.989 9        51.200    20297800.434 9  83116112.21749
        55.000    20297799.70749  20297796.082 7  79652894.920 7        43.200
 21  1  3  0 41  0.0000000  0 10G01G32G21G23G16G08G18G20G10G27
  24070856.102 5 126493203.189 5        36.300    24070864.547 6  98566168.09546
        22.000    24070864.20346  24070858.852 1  94459247.43811        30.600
  24629111.758 6 129426824.527 6        38.500    24629119.473 6 100852112.04748
        33.800    24629117.80148
  22408248.508 8 117756160.654 8        46.300                    91758056.67349
        34.400    22408251.55149
  22436461.961 8 117904412.434 8        45.800    22436466.145 7  91873591.99649
        34.000    22436465.62149  22436466.086 5  88045507.432 5        36.300
  23117819.359 7 121484969.608 7        43.700                    94663618.91448
        31.000    23117823.05548
  20959721.242 9 110144100.748 9        50.100    20959727.816 9  85826587.79449
        54.700    20959726.61349  20959723.109 7  82250490.785 7        41.100
  25096425.531 5 131882612.992 5        35.300    25096430.957 5 102765689.79245
        17.400    25096430.43445
  22500617.336 7 118241545.963 7        43.300                    92136292.82248
        31.400    22500620.29348
  20973947.836 9 110218855.201 9        52.800    20973954.133 9  85884897.52249
        55.000    20973953.49249  20973948.699 7  82306257.219 7        41.600
  20302334.422 9 106689497.952 9        51.800    20302340.473 9  83134703.60949
        55.000    20302339.86749  20302336.230 7  79670711.689 7        43.200
 21  1  3  0 41 30.0000000  0 10G01G32G21G23G16G08G18G20G10G27
  24051922.672 5 126393705.073 5        37.500    24051930.305 6  98488637.10446
        22.000    24051929.82046  24051926.008 3  94384947.045 3        32.100
  24611799.773 5 129335852.166 5        37.800    24611807.508 6 100781224.52348
        33.600    24611806.69148
  22396925.961 8 117696657.113 8        47.500                    91711690.28649
        35.000    22396928.19949
  22451410.258 7 117982967.479 7        44.900    22451414.906 8  91934803.73148
        33.600    22451413.74248  22451414.758 5  88104168.672 5        36.900
  23137984.320 7 121590936.134 7        43.800                    94746190.22848
        31.000    23137987.37948
  20949898.430 9 110092483.783 9        50.900    20949905.449 9  85786366.78549
        54.800    20949904.16049  20949900.691 6  82211945.643 6        40.900
  25114944.906 6 131979921.260 6        38.000    25114947.988 5 102841514.45845
        18.600    25114946.93045
  22516197.578 7 118323422.482 7        43.700                    92200092.71448
        30.000    22516200.59848
  20977479.359 9 110237413.633 9        52.900    20977485.289 9  85899358.63749
        55.100    20977485.37149  20977480.328 7  82320115.814 7        41.500
  20306960.453 9 106713809.140 9        51.300    20306966.750 9  83153647.38849
        54.900    20306966.35949  20306962.594 7  79688866.131 7        43.300
 21  1  3  0 42  0.0000000  0  9G01G32G21G23G16G08G20G10G27
  24033011.578 6 126294323.579 6        38.400    24033018.852 6  98411196.97946
        24.600    24033018.48046  24033014.109 1  94310733.58811        30.900
  24594505.258 5 129244964.543 5        37.900    24594512.180 6 100710403.00848
        33.900    24594511.29348
  22385642.969 8 117637366.075 8        47.200                    91665489.48249
        35.200    22385645.61349
  22466431.336 7 118061902.963 7        44.900    22466435.777 8  91996311.90849
        35.100    22466435.15249  22466435.586 5  88163114.008 5        35.900
  23158188.383 7 121697110.565 7        44.100                    94828923.53948
        30.900    23158192.11748
  20940144.125 9 110041222.922 9        51.700    20940151.074 9  85746423.25849
        54.900    20940149.48049  20940145.762 7  82173666.438 7        41.100
  22531840.711 7 118405625.611 7        43.100                    92264147.10148
        30.700    22531843.47748
  20981115.922 9 110256523.488 9        51.900    20981121.758 9  85914249.44249
        54.900    20981121.84849  20981116.867 7  82334386.154 7        41.400
  20311672.867 9 106738572.672 9        52.600    20311679.051 9  83172943.63849
        55.000    20311678.72349  20311675.066 7  79707358.369 7        43.000
 21  1  3  0 42 30.0000000  0  9G01G32G21G23G16G08G20G10G27
  24014121.461 5 126195059.216 5        36.700    24014129.176 6  98333848.17546
        20.900    24014128.72746  24014123.703 1  94236607.681 1        30.600
  24577226.609 6 129154164.503 6        39.400    24577233.422 6 100639649.74248
        33.900    24577232.60248
  22374400.336 8 117578287.467 8        46.000                    91619454.23849
        34.600    22374403.55149
  22481524.000 7 118141216.272 7        44.800    22481528.781 8  92058114.47649
        34.800    22481528.28949  22481528.688 5  88222341.490 5        36.000
  23178432.031 7 121803489.750 7        44.000                    94911816.42448
        30.900    23178435.18448
  20930457.891 9 109990319.524 9        50.900    20930464.301 9  85706758.27249
        55.500    20930463.05149  20930459.180 7  82135654.163 7        41.300
  22547545.164 7 118488152.700 7        43.200                    92328453.91148
        30.000    22547548.17648
  20984856.992 9 110276183.638 9        52.400    20984863.129 9  85929569.05149
        54.900    20984863.07049  20984858.355 7  82349067.472 7        41.800
  20316471.148 9 106763788.528 9        51.400    20316477.563 9  83192592.34049
        54.900    20316477.03149  20316473.383 7  79726188.370 7        43.000
 21  1  3  0 43  0.0000000  0  9G01G32G21G23G16G08G20G10G27
  23995254.711 6 126095912.915 6        38.300    23995262.133 6  98256591.40946
        22.800    23995261.71946  23995257.656 1  94162569.89011        30.300
  24559964.945 6 129063454.838 6        38.800    24559971.582 6 100568966.87448
        33.500    24559970.69148
  22363198.711 8 117519420.789 8        46.600                    91573584.11049
        35.500    22363201.75849
  22496688.164 7 118220904.746 7        44.600    22496692.914 8  92120209.38949
        34.000    22496692.38349  22496693.070 5  88281849.122 5        36.400
  23198713.719 7 121910071.344 7        43.600                    94994867.01348
        31.600    23198716.84048
  20920839.469 9 109939775.704 9        51.500    20920845.996 9  85667373.47649
        55.000    20920845.16449  20920841.242 7  82097910.402 7        41.000
  22563310.711 7 118571001.231 7        43.400                    92393011.21147
        29.900    22563313.37947
  20988702.445 9 110296392.872 9        53.200    20988708.609 9  85945316.50549
        54.900    20988708.71549  20988703.762 7  82364158.768 7        41.300
  20321355.859 9 106789456.542 9        52.100    20321361.922 9  83212593.38849
        54.900    20321361.41849  20321357.984 7  79745356.049 7        43.700
 21  1  3  0 43 30.0000000  0  9G01G32G21G23G16G08G20G10G27
  23976411.281 6 125996885.328 6        40.200    23976418.051 6  98179427.02446
        24.100    23976417.38346  23976413.066 1  94088620.661 1        30.600
  24542720.883 6 128972838.461 6        38.600    24542728.332 6 100498356.72748
        33.600    24542726.93448
  22352036.672 8 117460766.401 8        46.600                    91527879.41349
        34.900    22352039.85549
  22511923.680 7 118300965.778 7        44.900    22511927.738 8  92182594.61249
        34.900    22511927.43449  22511928.266 5  88341634.950 5        36.100
  23219033.602 7 122016852.000 7        43.900                    95078072.71048
        31.000    23219036.57448
  20911289.789 9 109889592.626 9        51.100    20911296.699 9  85628269.77849
        55.200    20911295.56349  20911291.520 7  82060436.034 7        41.500
  22579136.813 7 118654168.940 7        43.000                    92457817.22548
        31.000    22579139.82848
  20992652.891 9 110317150.089 9        52.900    20992658.590 9  85961490.96949
        54.900    20992658.58249  20992653.758 6  82379659.291 6        40.900
  20326326.305 9 106815576.767 9        51.000    20326332.617 9  83232946.79949
        55.000    20326332.07449  20326328.332 7  79764861.395 7        43.300
 21  1  3  0 44  0.0000000  0  9G01G32G21G23G16G08G20G10G27
  23957588.070 5 125897977.415 5        37.200    23957596.207 6  98102355.91946
        21.100    23957595.52046  23957592.270 2  94014760.94812        31.000
  24525496.555 6 128882318.491 6        39.500    24525503.105 6 100427821.71049
        34.800    24525502.36749
  22340915.555 8 117402324.492 8        46.100                    91482340.27749
        34.900    22340918.59849
  22527228.789 7 118381396.982 7        44.400    22527233.520 8  92245268.29548
        33.900    22527232.22748  22527233.660 5  88401697.220 5        36.100
  23239390.250 7 122123829.276 7        44.300                    95161431.64048
        30.700    23239394.13748
  20901809.172 9 109839771.806 9        51.100    20901816.004 9  85589448.36849
        55.400    20901814.70349  20901811.137 7  82023232.200 7        41.400
  22595023.086 7 118737653.618 7        42.200                    92522870.22547
        29.300    22595026.23047
  20996707.023 9 110338454.328 9        52.400    20996712.711 9  85978091.68149
        54.900    20996712.73049  20996708.055 7  82395568.301 7        41.400
  20331383.000 9 106842149.350 9        51.000    20331389.070 9  83253652.69949
        55.000    20331388.65649  20331385.063 7  79784704.549 7        43.100
 21  1  3  0 44 30.0000000  0  9G01G32G21G23G16G08G20G10G27
  23938789.227 5 125799189.78615        35.200    23938798.355 6  98025378.66356
        21.500    23938797.34846  23938792.703 1  93940991.04111        29.900
  24508289.664 6 128791897.878 6        38.900    24508296.770 6 100357364.09149
        34.700    24508296.18049
  22329834.680 8 117344094.982 8        46.300                    91436966.65949
        35.200    22329837.99649
  22542604.031 7 118462195.789 7        43.500    22542608.684 8  92308228.40548
        33.000    22542608.55548  22542608.820 5  88462033.979 5        35.800
  23259784.539 7 122231000.888 7        43.700                    95244941.98148
        31.200    23259788.41448
  20892397.836 9 109790315.400 9        51.400    20892404.902 9  85550910.90649
        55.300    20892403.54749  20892399.777 7  81986300.447 7        41.500
  22610970.016 7 118821452.829 7        42.200                    92588168.29148
        30.200    22610972.72748
  21000864.547 9 110360304.427 9        53.000    21000870.859 9  85995117.73749
        54.900    21000870.57449  21000865.820 7  82411884.948 7        41.100
  20336525.594 9 106869174.240 9        51.400    20336531.703 9  83274711.05249
        55.000    20336531.28549  20336527.598 7  79804885.470 7        44.100
 21  1  3  0 45  0.0000000  0  9G01G32G21G23G16G08G20G10G27
  23920014.375 6 125700524.05116        38.900    23920022.324 6  97948496.28456
        24.200    23920021.86346  23920017.500 1  93867312.08211        30.700
  24491101.766 5 128701580.024 5        37.500    24491109.492 6 100286986.55449
        34.600    24491108.44549
  22318794.727 8 117286078.433 8        46.800                    91391758.97449
        35.800    22318798.09449
  22558049.703 7 118543360.142 7        44.100    22558054.043 8  92371473.34148
        33.900    22558053.55548  22558054.328 5  88522643.710 5        36.500
  23280215.086 8 122338364.195 8        45.000                    95328601.69747
        29.900    23280218.61747
  20883056.320 9 109741225.476 9        51.500    20883063.531 9  85512659.01849
        55.200    20883062.21149  20883058.387 7  81949642.398 7        41.400
  22626975.938 7 118905564.457 7        43.200                    92653709.81748
        31.200    22626978.90248
  21005126.461 9 110382699.745 9        52.500    21005132.133 9  86012568.64149
        54.900    21005132.19549  21005127.672 6  82428608.731 6        40.300
  20341754.398 9 106896651.936 9        51.000    20341760.809 9  83296122.25149
        55.000    20341760.13349  20341756.398 7  79825404.529 7        43.200
 21  1  3  0 45 30.0000000  0  9G01G32G21G23G16G08G20G10G27
  23901262.563 5 125601980.341 5        37.200    23901270.063 6  97871708.99846
        22.800    23901270.23446  23901265.320 2  93793724.30212        31.500
  24473935.625 6 128611367.501 6        39.200    24473942.402 6 100216691.12049
        35.300    24473941.27749
  22307795.055 8 117228274.404 8        46.600                    91346716.89449
        35.800    22307798.14849
  22573564.008 7 118624887.028 7        44.800    22573567.754 8  92435000.78948
        33.000    22573567.30948  22573568.246 5  88583524.197 5        36.400
  23300681.633 7 122445915.423 7        44.300                    95412407.84348
        30.600    23300684.77748
  20873784.953 9 109692503.060 9        51.500    20873791.848 9  85474693.50849
        55.000    20873790.75449  20873786.922 7  81913258.751 7        41.400
  22643040.844 7 118989985.938 7        43.000                    92719492.78748
        30.600    22643043.94148
  21009491.727 9 110405638.704 9        52.700    21009497.266 9  86030443.17049
        55.000    21009497.21549  21009492.293 7  82445738.499 7        41.100
  20347069.641 9 106924581.955 9        51.400    20347075.551 9  83317885.89449
        55.300    20347074.96149  20347071.211 7  79846261.352 7        43.000
 21  1  3  0 46  0.0000000  0  9G01G32G21G23G16G08G20G10G27
  23882533.078 6 125503559.323 6        38.300    23882540.926 6  97795017.32646
        21.800    23882540.25046  23882536.613 3  93720228.100 3        32.000
  24456790.203 6 128521263.120 6        40.200    24456796.238 6 100146479.90349
        35.800    24456795.53549
  22296835.977 8 117170682.804 8        47.200                    91301840.34049
        35.600    22296838.61749
  22589145.938 7 118706773.742 7        44.100    22589150.191 7  92498808.63548
        33.100    22589149.71948  22589150.891 5  88644673.382 5        35.400
  23321183.703 8 122553652.730 8        45.000                    95496359.00148
        30.400    23321186.69548
  20864583.719 9 109644149.642 9        51.300    20864590.340 9  85437015.51449
        55.000    20864589.27349  20864585.441 7  81877150.703 7        41.400
  22659163.977 7 119074714.731 7        42.800                    92785515.24547
        29.000    22659166.60947
  21013959.938 9 110429119.975 9        53.300    21013965.828 9  86048740.26949
        54.900    21013965.54749  21013961.086 7  82463273.202 7        41.400
  20352470.227 9 106952964.100 9        52.000    20352476.648 9  83340001.84649
        55.000    20352475.87149  20352472.332 7  79867455.814 7        42.300
 21  1  3  0 46 30.0000000  0  9G01G32G21G23G16G08G20G10G27
  23863827.594 5 125405262.217 5        36.900    23863835.797 6  97718422.18846
        21.800    23863835.28146  23863831.574 3  93646824.467 3        33.200
  24439664.117 6 128431270.110 6        39.100    24439671.293 6 100076355.47449
        35.700    24439670.46149
  22285916.820 8 117113304.153 8        47.000                    91257129.71249
        35.800    22285919.71149
  22604796.797 7 118789018.032 7        43.700    22604801.203 8  92562895.08348
        33.800    22604800.61748  22604800.930 5  88706089.560 5        35.800
  23341720.391 7 122661572.897 7        44.700                    95580452.63648
        30.900    23341723.30148
  20855452.984 9 109596167.695 9        51.600    20855459.637 9  85399626.98349
        55.200    20855458.48449  20855454.695 7  81841320.042 7        41.800
  22675345.445 7 119159748.702 7        42.900                    92851775.46247
        29.400    22675348.53947
  21018531.188 9 110453142.656 9        53.200    21018537.129 9  86067459.24549
        54.900    21018536.91449  21018532.441 7  82481212.218 7        41.700
  20357957.383 9 106981798.655 9        52.100    20357963.570 9  83362470.32549
        54.900    20357962.89849  20357959.367 7  79888988.110 7        43.200
 21  1  3  0 47  0.0000000  0  9G01G32G21G23G16G08G20G10G27
  23845146.984 5 125307089.622 5        37.000    23845153.125 6  97641924.07046
        21.100    23845153.62546  23845149.164 2  93573513.814 2        31.400
  24422560.555 6 128341391.406 6        39.200    24422568.211 6 100006320.15849
        35.500    24422567.25449
  22275038.766 8 117056138.159 8        47.000                    91212584.80549
        35.700    22275041.51249
  22620514.805 7 118871617.261 7        43.700    22620519.094 8  92627258.13349
        34.000    22620518.84049  22620519.223 5  88767770.776 5        36.500
  23362290.516 8 122769673.442 8        45.000                    95664686.82148
        30.500    23362294.18048
  20846393.352 9 109548558.258 9        52.200    20846400.098 9  85362528.72649
        55.000    20846398.73049  20846394.918 7  81805767.542 7        41.900
  22691584.398 7 119245085.320 7        42.600                    92918271.52848
        30.200    22691587.54748
  21023205.438 9 110477705.469 9        52.100    21023211.332 9  86086599.11649
        54.900    21023211.00849  21023206.105 7  82499554.604 7        41.400
  20363530.242 9 107011085.471 9        50.900    20363536.703 9  83385291.21549
        55.000    20363536.01249  20363532.590 7  79910858.133 7        43.200
 21  1  3  0 47 30.0000000  0  9G01G32G21G23G16G08G20G10G27
  23826488.516 5 125209042.414 5        36.500    23826496.070 6  97565523.68646
        22.300    23826496.11346  23826491.566 2  93500296.750 2        31.200
  24405480.188 6 128251630.044 6        40.100    24405486.832 6  99936376.26449
        35.500    24405486.00449
  22264200.742 8 116999185.205 8        46.900                    91168205.88549
        36.200    22264203.71549
  22636299.758 7 118954568.959 7        43.600    22636304.348 8  92691895.80248
        33.100    22636304.17648  22636304.777 5  88829715.233 5        36.000
  23382895.438 7 122877951.771 7        44.700                    95749059.54847
        29.200    23382898.44947
  20837404.500 9 109501323.024 9        52.100    20837411.559 9  85325722.04449
        55.200    20837410.35949  20837406.609 7  81770494.444 7        41.800
  22707880.836 7 119330722.209 7        42.300                    92985001.55747
        29.600    22707883.35547
  21027982.008 9 110502807.302 9        52.800    21027988.258 9  86106158.98149
        54.900    21027987.49249  21027983.223 7  82518299.480 7        41.400
  20369189.570 9 107040824.544 9        51.500    20369195.961 9  83408464.50549
        55.300    20369195.30549  20369191.699 7  79933065.866 7        43.200
 21  1  3  0 48  0.0000000  0  9G01G32G21G23G16G08G20G10G27
  23807854.445 5 125111121.544 5        37.300    23807862.367 6  97489221.73346
        22.000    23807862.36746  23807857.832 3  93427174.089 3        32.700
  24388422.039 6 128161989.073 6        40.600    24388429.137 6  99866526.14349
        36.700    24388427.79349
  22253403.531 8 116942445.300 8        46.400                    91123992.97949
        35.900    22253406.53149
  22652151.914 7 119037870.587 7        44.600    22652155.746 8  92756806.16648
        33.200    22652155.21948  22652156.250 5  88891921.011 5        35.800
  23403533.188 7 122986404.193 7        44.700                    95833567.93348
        30.000    23403536.65648
  20828487.484 9 109454463.811 9        51.400    20828494.410 9  85289208.36849
        55.200    20828493.25849  20828489.563 7  81735502.187 7        41.700
  22724233.508 7 119416657.261 7        42.400                    93051963.94847
        29.900    22724236.78547
  21032861.094 9 110528446.898 9        52.100    21032867.137 9  86126137.90049
        54.900    21032866.75049  21032862.070 7  82537445.942 7        41.200
  20374934.609 9 107071015.871 9        51.500    20374941.129 9  83431990.20649
        55.100    20374940.54349  20374936.801 7  79955611.342 7        43.200
 21  1  3  0 48 30.0000000  0  9G01G32G21G23G16G08G20G10G27
  23789244.914 6 125013327.542 6        38.400    23789253.117 6  97413018.63946
        22.600    23789252.89146  23789248.813 3  93354146.062 3        32.000
  24371386.805 6 128072471.276 6        39.900    24371394.273 7  99796771.99849
        36.400    24371393.46549
  22242646.422 8 116885918.122 8        47.000                    91079945.82949
        35.700    22242649.82049
  22668069.734 7 119121519.399 7        43.800    22668073.996 8  92821987.05848
        32.200    22668073.13748  22668073.902 5  88954386.033 5        35.700
  23424203.938 7 123095029.320 7        44.300                    95918210.88348
        30.400    23424207.10248
  20819642.258 9 109407982.075 9        51.600    20819649.051 9  85252988.83749
        55.000    20819648.28149  20819644.309 7  81700791.805 7        42.100
  22740642.367 7 119502887.584 7        42.500                    93119156.39847
        29.300    22740645.89147
  21037842.266 9 110554622.860 9        51.900    21037848.277 9  86146534.75549
        55.000    21037848.03549  21037843.355 7  82556992.944 7        41.200
  20380766.078 9 107101659.170 9        52.100    20380772.188 9  83455868.09549
        55.000    20380771.76649  20380768.340 7  79978494.299 7        42.600
 21  1  3  0 49  0.0000000  0  9G01G32G21G23G16G08G20G10G27
  23770659.297 5 124915661.457 5        36.600    23770667.578 6  97336915.20946
        22.600    23770666.96946  23770661.848 2  93281213.65112        31.600
  24354376.672 6 127983079.819 6        39.400    24354383.859 6  99727116.36149
        35.500    24354382.43049
  22231930.430 8 116829604.064 8        47.000                    91036064.75949
        35.800    22231933.10549
  22684052.914 7 119205513.076 7        43.700    22684057.391 8  92887436.68348
        33.400    22684056.93448  22684057.492 5  89017108.598 5        35.900
  23444906.992 7 123203823.795 7        44.100                    96002985.79647
        29.900    23444909.96147
  20810869.555 9 109361879.731 9        51.800    20810876.250 9  85217064.92849
        55.000    20810875.26249  20810871.414 7  81666364.731 7        41.800
  22757107.578 7 119589411.305 7        42.200                    93186577.47447
        28.100    22757110.18847
  21042924.875 9 110581334.134 9        51.900    21042931.145 9  86167348.73749
        54.900    21042931.15249  21042926.238 6  82576939.661 6        40.600
  20386683.711 9 107132754.559 9        51.900    20386689.695 9  83480098.25749
        55.000    20386689.05549  20386685.613 7  80001714.881 7        43.400
 21  1  3  0 49 30.0000000  0  9G01G32G21G23G16G08G20G10G27
  23752099.086 6 124818124.360 6        38.400    23752107.234 6  97260912.32046
        22.800    23752107.27746  23752102.074 3  93208377.543 3        32.300
  24337390.281 6 127893818.085 6        39.800    24337397.383 6  99657561.77149
        36.400    24337397.32049
  22221254.391 8 116773503.633 8        46.500                    90992350.14349
        36.200    22221257.87149
  22700101.414 7 119289849.395 7        43.300    22700106.504 7  92953153.28648
        32.600    22700105.78148  22700106.422 5  89080087.020 5        36.200
  23465641.320 7 123312784.860 7        44.100                    96087890.52247
        29.900    23465644.96947
  20802169.203 9 109316158.983 9        51.900    20802175.762 9  85181438.37349
        55.300    20802174.85249  20802171.164 7  81632222.612 7        41.800
  22773627.891 7 119676226.000 7        42.500                    93254225.30647
        29.300    22773630.50047
  21048109.789 9 110608579.769 9        52.400    21048115.992 9  86188579.10949
        55.000    21048115.82049  21048110.695 6  82597285.438 6        40.800
  20392686.617 9 107164302.316 9        50.900    20392692.691 9  83504680.91249
        55.000    20392692.24649  20392688.594 7  80025273.243 7        42.900
 21  1  3  0 50  0.0000000  0  9G01G32G21G23G16G08G20G10G27
  23733563.500 6 124720716.393 6        38.000    23733570.629 6  97185009.99346
        22.500    23733569.96946  23733564.879 2  93135637.833 2        31.600
  24320430.242 6 127804688.298 6        40.800    24320436.668 6  99588109.98949
        36.700    24320435.98849
  22210619.891 8 116717616.061 8        46.400                    90948801.40349
        36.800    22210622.48849
  22716215.320 7 119374524.976 7        44.300    22716219.613 8  93019134.26248
        33.200    22716218.68448  22716220.195 5  89143318.767 5        36.400
  23486407.320 7 123421909.913 7        43.900                    96172923.02947
        29.300    23486410.59447
  20793541.555 9 109270820.407 9        51.700    20793548.445 9  85146109.61649
        55.600    20793547.16849  20793543.301 7  81598365.909 7        41.600
  22790203.297 7 119763328.973 7        41.600                    93322097.75147
        28.600    22790205.53947
  21053395.750 9 110636357.668 9        52.300    21053401.668 9  86210224.23149
        55.000    21053401.41049  21053397.016 7  82618028.681 7        41.300
  20398776.063 9 107196301.480 9        51.300    20398782.105 9  83529615.31449
        54.900    20398781.55549  20398777.941 7  80049168.724 7        43.100
 21  1  3  0 50 30.0000000  0 10G01G32G21G23G16G08G22G20G10G27
  23715051.539 6 124623438.603 6        39.400    23715059.145 6  97109209.11247
        25.200    23715059.06347  23715054.387 2  93062995.383 2        31.800
  24303494.961 6 127715693.762 6        40.100    24303502.094 7  99518763.59949
        36.600    24303501.07449
  22200025.352 8 116661941.540 8        46.400                    90905418.67449
        36.200    22200028.39849
  22732392.172 7 119459537.648 7        43.500    22732396.496 7  93085377.91348
        32.600    22732395.80548  22732397.051 5  89206802.249 5        35.600
  23507203.906 7 123531196.196 7        43.600                    96258081.17347
        28.700    23507207.32047
  20784987.016 9 109225865.751 9        52.300    20784993.734 9  85111080.01249
        55.700    20784992.68849  20784988.516 7  81564795.848 7        41.800
  25252053.633 6 132700416.87016        40.700                   103402947.51755
        19.600    25252055.21545
  22806832.961 7 119850718.406 7        41.400                    93390193.37347
        28.900    22806835.46147
  21058783.000 9 110664666.881 9        52.700    21058788.934 9  86232283.37049
        54.900    21058788.43849  21058784.234 6  82639168.684 6        40.800
  20404951.156 9 107228752.269 9        51.400    20404957.465 9  83554901.63449
        54.900    20404956.83249  20404952.988 7  80073401.439 7        42.400
 21  1  3  0 51  0.0000000  0 10G01G32G21G23G16G08G22G20G10G27
  23696564.445 6 124526291.835 6        38.100    23696573.004 7  97033510.38246
        24.600    23696572.57046  23696567.633 1  92990450.69111        30.500
  24286585.031 6 127626837.450 6        39.000    24286592.688 7  99449524.91049
        36.400    24286592.08649
  22189471.469 8 116606480.113 8        47.000                    90862201.99249
        37.300    22189474.57449
  22748632.672 7 119544884.771 7        42.600    22748637.730 7  93151882.15148
        31.400    22748637.04348  22748637.773 5  89270535.513 5        35.400
  23528030.492 7 123640640.795 7        43.300                    96343362.68147
        28.700    23528033.78547
  20776505.891 9 109181297.188 9        52.200    20776512.594 9  85076351.25749
        55.000    20776511.51249  20776507.441 7  81531514.123 7        41.200
  25230718.844 5 132588306.635 5        36.100                   103315588.88746
        21.300    25230721.07446
  22823516.125 7 119938391.566 7        41.400                    93458510.11547
        29.100    22823519.08647
  21064270.883 9 110693506.050 9        51.700    21064276.660 9  86254755.45949
        55.000    21064276.58249  21064271.824 7  82660704.438 7        41.100
  20411211.922 9 107261654.544 9        51.800    20411218.488 9  83580539.76549
        55.000    20411217.79749  20411213.961 7  80097971.320 7        43.000
 21  1  3  0 51 30.0000000  0 10G01G32G21G23G16G08G22G20G10G27
  23678103.711 6 124429277.131 6        39.000    23678111.801 6  96957914.49146
        22.900    23678110.81346  23678106.906 3  92918004.665 3        32.000
  24269704.266 6 127538122.585 6        40.800    24269710.859 6  99380396.47949
        37.600    24269709.77049
  22178958.117 8 116551232.274 8        46.800                    90819151.73749
        36.900    22178961.29349
  22764937.586 7 119630564.069 7        43.100    22764942.035 8  93218645.23548
        32.700    22764941.38348  22764941.594 5  89334516.825 5        35.800
  23548886.500 7 123750240.869 7        42.800                    96428765.32147
        28.700    23548889.78947
  20768098.078 9 109137116.006 9        51.800    20768105.273 9  85041924.36049
        55.300    20768104.02349  20768100.555 7  81498521.681 7        41.400
  25209396.672 6 132476253.07616        40.100                   103228274.61356
        20.400    25209397.56346
  22840253.281 7 120026346.289 7        41.700                    93527046.26747
        28.600    22840256.38747
  21069859.477 9 110722874.070 9        52.400    21069865.352 9  86277639.63049
        54.900    21069865.25049  21069860.270 7  82682635.116 7        41.400
  20417559.094 9 107295008.408 9        51.400    20417565.375 9  83606529.78349
        55.000    20417564.77349  20417561.234 7  80122878.421 7        43.000
 21  1  3  0 52  0.0000000  0 10G01G32G21G23G16G08G22G20G10G27
  23659668.367 6 124332395.003 6        40.100    23659675.445 6  96882421.95646
        24.300    23659675.09446  23659671.137 3  92845657.640 3        32.400
  24252849.758 6 127449552.068 6        40.900    24252856.672 6  99311380.49849
        38.000    24252855.36349
  22168485.297 8 116496197.821 8        47.000                    90776267.75949
        37.600    22168488.21549
  22781304.516 7 119716572.769 7        43.600    22781308.781 7  93285665.00448
        33.300    22781308.01248  22781309.176 5  89398744.080 5        35.800
  23569771.828 7 123859994.325 7        43.300                    96514287.49147
        28.300    23569775.20747
  20759764.859 9 109093324.042 9        52.100    20759771.719 9  85007800.74749
        55.500    20759770.77349  20759767.055 7  81465819.895 7        42.300
  25188083.680 6 132364258.615 6        38.600                   103141005.96946
        22.800    25188085.24246
  22857043.695 7 120114579.917 7        42.200                    93595799.74647
        29.300    22857046.77047
  21075548.344 9 110752769.360 9        52.100    21075554.016 9  86300934.66449
        55.000    21075554.00049  21075549.379 7  82704959.521 7        41.100
  20423991.945 9 107328813.478 9        51.600    20423998.234 9  83632871.39449
        55.100    20423997.70349  20423994.285 7  80148122.452 7        43.000
 21  1  3  0 52 30.0000000  0 10G01G32G21G23G16G08G22G20G10G27
  23641257.680 6 124235646.504 6        39.800    23641264.254 6  96807033.54146
        23.600    23641263.75046  23641259.965 2  92773410.391 2        31.800
  24236023.273 7 127361128.955 7        41.200    24236029.801 6  99242479.36549
        37.100    24236029.44949
  22158053.453 8 116441376.892 8        47.500                    90733550.16949
        37.300    22158056.01249
  22797733.766 7 119802908.489 7        43.500    22797737.836 8  93352939.58648
        31.900    22797737.12548  22797738.355 5  89463215.545 5        35.800
  23590685.781 7 123969898.029 7        42.800                    96599926.74647
        28.600    23590689.07447
  20751506.133 9 109049923.037 9        51.600    20751512.832 9  84973981.78449
        55.000    20751511.84849  20751507.961 7  81433410.072 7        41.400
  25166783.656 6 132252324.91216        38.200                   103053785.14656
        24.900    25166786.11346
  22873886.406 7 120203090.155 7        42.100                    93664768.75447
        29.000    22873889.92247
  21081337.172 9 110783190.746 9        51.200    21081343.148 9  86324639.64549
        54.900    21081342.80549  21081338.449 7  82727676.784 7        41.100
  20430510.594 9 107363069.729 9        50.700    20430517.145 9  83659564.57149
        55.200    20430516.48049  20430512.887 7  80173703.410 7        43.200
 21  1  3  0 53  0.0000000  0 10G01G32G21G23G16G08G22G20G10G27
  23622872.430 6 124139032.139 6        39.900    23622880.434 6  96731749.62246
        24.100    23622879.69946  23622875.414 3  92701263.306 3        32.600
  24219225.211 6 127272856.039 6        40.800    24219232.195 6  99173695.29049
        37.300    24219231.02349
  22147661.891 8 116386768.966 8        47.300                    90690998.53649
        37.400    22147664.62149
  22814224.508 7 119889568.389 7        43.300    22814229.051 8  93420466.78448
        32.700    22814228.39848  22814229.035 5  89527929.116 5        35.600
  23611628.133 7 124079949.316 7        42.600                    96685680.98647
        27.800    23611631.17647
  20743321.633 9 109006914.194 9        51.600    20743328.594 9  84940468.40749
        55.200    20743327.48849  20743324.016 7  81401293.070 7        42.000
  25145496.211 6 132140454.425 6        40.800                   102966613.27946
        22.300    25145496.78546
  22890782.086 7 120291874.933 7        41.900                    93733951.69847
        27.900    22890784.86347
  21087225.734 9 110814136.565 9        51.100    21087231.742 9  86348753.28449
        54.900    21087231.75049  21087227.273 7  82750785.678 7        41.100
  20437115.430 9 107397776.793 9        50.500    20437121.750 9  83686609.02149
        55.000    20437120.97349  20437117.438 7  80199621.006 7        43.000
 21  1  3  0 53 30.0000000  0 10G01G32G21G23G16G08G22G20G10G27
  23604513.359 6 124042552.832 6        39.700    23604520.469 6  96656570.95947
        25.100    23604520.23047  23604515.223 3  92629217.092 3        32.700
  24202456.805 7 127184736.466 7        41.600    24202464.094 7  99105030.69349
        37.900    24202463.22749
  22137311.195 8 116332374.788 8        47.900                    90648613.47949
        37.600    22137313.89549
  22830776.422 7 119976550.031 7        43.400    22830781.195 7  93488244.67048
        32.400    22830780.41848  22830780.961 5  89592882.943 5        35.900
  23632598.094 7 124190145.240 7        42.600                    96771547.96347
        27.800    23632600.64547
  20735212.391 9 108964298.812 9        52.000    20735218.961 9  84907261.62049
        55.100    20735217.98449  20735214.520 7  81369469.909 7        41.400
  25124218.016 4 132028648.451 4        34.600                   102879491.76145
        19.600    25124220.74245
  22907728.672 6 120380931.516 6        40.800                    93803346.43847
        26.500    22907731.66047
  21093214.133 9 110845605.491 9        51.100    21093220.109 9  86373274.52949
        55.000    21093219.79749  21093215.434 7  82774285.223 7        41.300
  20443805.594 9 107432934.523 9        51.200    20443812.043 9  83714004.63849
        55.000    20443811.32449  20443808.059 7  80225875.141 7        43.000
 21  1  3  0 54  0.0000000  0 10G01G32G21G23G16G08G22G20G10G27
  23586179.133 6 123946209.654 6        39.700    23586187.734 7  96581498.38847
        25.700    23586187.19147  23586182.469 3  92557272.543 3        33.800
  24185718.055 7 127096773.467 7        41.100    24185724.672 7  99036488.11149
        38.600    24185724.25449
  22127000.445 8 116278194.134 8        47.300                    90606394.79549
        37.900    22127003.80949
  22847388.930 7 120063851.087 7        42.800    22847393.145 7  93556271.46748
        32.300    22847392.84848  22847394.027 5  89658075.283 5        35.600
  23653593.523 7 124300482.705 7        42.100                    96857525.20647
        27.900    23653597.28547
  20727178.391 9 108922079.537 9        51.100    20727185.012 9  84874363.48149
        55.200    20727183.78149  20727180.242 7  81337942.513 7        41.700
  25102956.578 7 131916909.622 7        41.600                   102792422.62747
        26.600    25102958.50847
  22924726.734 6 120470257.993 6        40.900                    93872951.46147
        27.400    22924729.82047
  21099302.078 9 110877596.342 9        51.100    21099307.797 9  86398202.46849
        54.900    21099307.81649  21099302.887 7  82798174.495 7        41.400
  20450581.844 9 107468542.965 9        51.800    20450587.898 9  83741751.47349
        54.900    20450587.53149  20450583.930 7  80252465.855 7        42.700
 21  1  3  0 54 30.0000000  0 10G01G32G21G23G16G08G22G20G10G27
  23567871.820 6 123850003.056 6        39.300    23567879.063 6  96506532.18946
        23.500    23567878.89846  23567874.730 3  92485429.952 3        32.900
  24169009.188 6 127008969.716 6        40.900    24169016.711 7  98968069.60649
        37.800    24169015.79749
  22116730.992 8 116224227.082 8        47.100                    90564342.55349
        37.100    22116733.43849
  22864062.281 7 120151468.659 7        42.700    22864066.645 7  93624544.90647
        29.800    22864065.94147  22864067.207 5  89723503.978 5        35.800
  23674617.219 7 124410959.962 7        41.700                    96943611.36947
        27.500    23674620.40647
  20719219.664 9 108880257.486 9        51.900    20719226.488 9  84841774.87249
        55.600    20719225.40649  20719221.730 7  81306711.785 7        41.800
  25081705.313 4 131805239.369 4        34.500                   102705406.83745
        18.600    25081707.38745
  22941776.289 7 120559851.838 7        41.600                    93942764.84147
        28.400    22941779.23447
  21105488.656 9 110910107.395 9        51.500    21105494.523 9  86423535.76849
        54.900    21105494.18449  21105489.828 7  82822452.217 7        41.000
  20457443.906 9 107504601.566 9        51.100    20457449.711 9  83769849.08549
        55.000    20457449.16849  20457445.617 7  80279392.747 7        43.100
 21  1  3  0 55  0.0000000  0 10G01G32G21G23G16G08G22G20G10G27
  23549590.523 6 123753934.029 6        39.600    23549598.277 6  96431673.25546
        22.200    23549597.81346  23549593.586 3  92413690.149 3        33.400
  24152332.430 7 126921328.466 7        41.300    24152338.848 7  98899777.74049
        37.900    24152338.11349
  22106501.891 8 116170473.599 8        47.000                    90522456.72349
        37.600    22106504.44949
  22880795.078 7 120239400.498 7        43.000    22880799.645 7  93693063.21048
        31.000    22880799.19148  22880800.266 5  89789167.342 5        35.700
  23695666.250 7 124521573.855 7        42.000                    97029804.00847
        28.800    23695670.09047
  20711337.203 9 108838834.199 9        51.500    20711343.953 9  84809496.98249
        55.300    20711342.85949  20711339.258 7  81275778.803 7        42.100
  25060469.305 6 131693639.80116        38.700                   102618446.20656
        22.500    25060470.65246
  22958876.102 7 120649710.898 7        41.800                    94012784.88347
        28.900    22958878.43047
  21111774.195 9 110943137.403 9        51.700    21111779.934 9  86449273.43949
        54.900    21111779.77349  21111774.957 7  82847117.515 7        41.800
  20464391.086 9 107541110.369 9        52.400    20464397.238 9  83798297.49249
        55.200    20464396.59849  20464393.152 7  80306655.799 7        43.200
 21  1  3  0 55 30.0000000  0 10G01G32G21G23G16G08G22G20G10G27
  23531335.500 6 123658003.192 6        39.600    23531342.691 6  96356921.92646
        22.600    23531341.60946  23531338.668 3  92342053.515 3        33.800
  24135685.406 6 126833852.535 6        40.400    24135692.723 7  98831614.66449
        38.300    24135691.87549
  22096313.695 8 116116933.519 8        47.100                    90480737.19949
        37.900    22096316.57049
  22897587.617 7 120327643.722 7        42.800    22897591.949 8  93761824.16548
        31.900    22897591.33648  22897592.281 5  89855063.275 5        35.700
  23716740.266 7 124632321.711 7        42.200                    97116101.02947
        27.200    23716744.80147
  20703531.016 9 108797811.221 9        51.800    20703537.504 9  84777531.03649
        55.100    20703536.52749  20703532.680 7  81245144.771 7        42.300
  25039246.367 5 131582112.662 5        36.900                   102531541.99946
        22.800    25039248.04346
  22976026.141 7 120739832.434 7        42.200                    94083009.44847
        27.900    22976028.03547
  21118157.695 9 110976684.697 9        50.900    21118163.594 9  86475414.19049
        54.900    21118163.35549  21118159.098 7  82872169.070 7        41.100
  20471423.914 9 107578068.953 9        50.900    20471430.230 9  83827096.38449
        54.900    20471429.55949  20471425.848 7  80334254.719 7        43.000
 21  1  3  0 56  0.0000000  0 10G01G32G21G23G16G08G22G20G10G27
  23513106.602 6 123562211.460 6        40.300    23513114.262 6  96282279.06046
        24.300    23513114.21946  23513110.379 3  92270520.693 3        33.200
  24119072.125 7 126746544.985 7        41.700    24119078.637 7  98763582.81949
        38.700    24119077.93849
  22086166.172 8 116063607.345 8        47.200                    90439184.34449
        38.500    22086169.00449
  22914438.477 7 120416195.886 7        43.000    22914442.332 7  93830825.85348
        31.300    22914442.19548  22914443.355 5  89921189.861 5        35.100
  23737840.805 7 124743200.667 7        41.500                    97202500.21147
        27.900    23737844.42647
  20695800.742 9 108757190.290 9        51.300    20695807.695 9  84745878.35449
        54.900    20695806.45349  20695802.605 7  81214810.954 7        42.300
  25018036.219 3                        32.400
        19.900    25018039.29745
  22993224.430 7 120830214.226 7        41.700                    94153436.83147
        28.600    22993227.01247
  21124639.633 9 111010747.826 9        50.700    21124645.637 9  86501956.88849
        54.900    21124645.56349  21124641.090 6  82897605.805 6        40.900
  20478542.578 9 107615477.019 9        51.100    20478548.707 9  83856245.52449
        55.100    20478548.02049  20478544.543 7  80362189.303 7        42.800
 21  1  3  0 56 30.0000000  0 10G01G32G21G23G16G08G22G20G10G27
  23494905.227 6 123466559.556 6        40.300    23494912.406 6  96207745.12147
        26.500    23494912.08647  23494908.043 3  92199092.401 3        33.500
  24102490.172 7 126659408.791 7        41.900    24102497.137 7  98695684.49549
        38.300    24102496.47349
  22076058.953 8 116010494.536 8        47.200                    90397797.76149
        38.000    22076062.09449
  22931347.164 7 120505054.421 7        43.300    22931352.195 8  93900066.27048
        31.900    22931351.59448  22931352.250 5  89987545.314 5        35.600
  23758964.789 7 124854207.976 7        42.000                    97288999.40447
        27.100    23758967.87547
  20688147.828 9 108716972.687 9        51.800    20688154.410 9  84714539.96849
        55.400    20688153.34449  20688149.617 7  81184778.335 7        41.700
  24996844.141 6 131359284.17516        39.200                   102357909.56956
        22.300    24996844.82846
  23010473.195 7 120920854.110 7        41.800                    94224065.28747
        29.700    23010475.59847
  21131219.516 9 111045325.306 9        50.900    21131225.535 9  86528900.38549
        55.000    21131225.40649  21131220.473 7  82923426.657 7        41.100
  20485746.422 9 107653334.354 9        51.300    20485752.836 9  83885744.73949
        55.200    20485751.94149  20485748.324 7  80390459.395 7        42.600
 21  1  3  0 57  0.0000000  0 10G01G32G21G23G16G08G22G20G10G27
  23476729.516 7 123371048.262 7        41.000    23476737.082 6  96133320.77047
        26.300    23476736.61347  23476732.746 3  92127769.039 3        32.800
  24085941.820 7 126572447.012 7        41.800    24085949.008 7  98627922.07149
        38.800    24085947.84449
  22065992.781 8 115957595.554 8        47.500                    90356577.80249
        37.500    22065995.40249
  22948314.367 7 120594216.746 7        42.500    22948319.266 7  93969543.40648
        31.600    22948318.33248  22948319.387 5  90054127.523 5        35.400
  23780112.344 7 124965341.145 7        42.900                    97375596.68547
        27.000    23780115.55947
  20680572.016 9 108677160.713 9        51.800    20680578.512 9  84683517.64649
        55.000    20680577.37549  20680573.699 7  81155048.588 7        41.900
  24975663.203 4 131247986.346 4        34.700                   102271183.98046
        21.300    24975665.87546
  23027769.398 7 121011749.526 7        41.400                    94294892.87347
        28.500    23027773.01647
  21137897.281 9 111080415.613 9        51.100    21137903.074 9  86556243.48649
        54.900    21137902.89849  21137898.211 6  82949630.458 6        40.900
  20493035.734 9 107691640.658 9        51.600    20493042.141 9  83915593.80449
        54.900    20493041.51249  20493037.914 7  80419064.767 7        42.300
 21  1  3  0 57 30.0000000  0 10G01G32G21G23G16G08G22G20G10G27
  23458581.820 6 123275678.671 6        40.000    23458588.891 6  96059006.82347
        25.900    23458588.20347  23458583.945 3  92056551.480 3        32.900
  24069428.016 7 126485662.904 7        41.500    24069434.688 7  98560298.09949
        39.000    24069433.37549
  22055966.898 8 115904910.472 8        47.000                    90315524.49649
        37.700    22055969.84449
  22965339.148 7 120683680.576 7        42.600    22965343.266 7  94039255.46948
        30.700    22965342.82048  22965343.531 5  90120934.952 5        35.300
  23801284.008 7 125076597.060 7        42.200                    97462289.60147
        27.300    23801287.04747
  20673073.180 9 108637755.655 9        51.800    20673079.938 9  84652812.40549
        55.500    20673078.89549  20673075.168 7  81125622.757 7        42.300
  24954500.320 5 131136768.688 5        36.700                   102184520.93546
        21.500    24954501.73846
  23045114.430 7 121102898.109 7        41.300                    94365917.73247
        28.800    23045117.52047
  21144671.789 9 111116017.471 9        51.000    21144677.895 9  86583985.19349
        55.000    21144677.85249  21144673.180 7  82976216.272 7        41.200
  20500410.461 9 107730395.905 9        50.900    20500417.051 9  83945792.68749
        55.000    20500416.44949  20500412.996 7  80448005.349 7        42.800
 21  1  3  0 58  0.0000000  0 10G01G32G21G23G16G08G22G20G10G27
  23440459.914 6 123180451.163 6        39.600    23440467.715 6  95984803.58047
        25.500    23440467.25447  23440463.109 3  91985440.026 3        33.300
  24052946.789 7 126399059.029 7        41.300    24052954.258 6  98492814.56049
        39.200    24052953.04749
  22045982.039 8 115852439.205 8        47.800                    90274637.81749
        38.100    22045985.14149
  22982420.109 7 120773442.994 7        43.100    22982424.707 7  94109200.20748
        31.100    22982423.96148  22982425.129 5  90187965.299 5        35.400
  23822478.195 7 125187973.129 7        42.800                    97549076.13747
        27.000    23822481.06647
  20665652.273 9 108598758.411 9        51.600    20665659.016 9  84622424.94649
        55.600    20665658.03549  20665654.047 7  81096501.431 7        42.300
  24933351.938 6 131025633.176 6        38.600                   102097921.87646
        24.400    24933353.72346
  23062507.250 7 121194297.554 7        41.600                    94437138.08147
        28.500    23062510.21547
  21151543.672 9 111152128.918 9        51.200    21151549.648 9  86612123.98449
        55.000    21151549.52049  21151544.820 6  83003182.615 6        40.900
  20507871.000 9 107769599.415 9        51.000    20507877.277 9  83976340.86849
        55.400    20507876.73049  20507873.258 7  80477280.669 7        43.500
 21  1  3  0 58 30.0000000  0 10G01G32G21G23G16G08G22G20G10G27
  23422366.031 6 123085366.623 6        40.400    23422374.375 7  95910711.70647
        25.500    23422373.12147  23422368.926 3  91914435.382 3        32.000
  24036501.867 7 126312638.554 7        41.600    24036509.238 7  98425473.92549
        39.400    24036508.09449
  22036038.117 8 115800181.453 8        47.900                    90233917.50149
        38.600    22036040.89849
  22999558.039 7 120863501.463 7        42.900    22999562.340 7  94179375.63648
        30.200    22999561.48448  22999562.457 5  90255216.746 5        35.400
  23843693.719 7 125299466.884 7        42.100                    97635954.37847
        25.300    23843697.51247
  20658309.297 9 108560170.912 9        52.200    20658316.004 9  84592356.76449
        55.200    20658314.85549  20658311.129 7  81067686.113 7        42.300
  24912219.281 5 130914581.530 5        37.300                   102011388.20546
        20.900    24912220.33246
  23079947.508 7 121285945.542 7        41.200                    94508552.09447
        26.000    23079949.84047
  21158512.430 9 111188748.523 9        51.400    21158518.426 9  86640658.75749
        55.000    21158517.98049  21158513.152 6  83030528.450 6        40.700
  20515416.734 9 107809250.913 9        51.800    20515422.617 9  84007238.12949
        54.900    20515422.16449  20515418.566 7  80506890.562 7        42.300
 21  1  3  0 59  0.0000000  0 10G01G32G21G23G16G08G22G20G10G27
  23404299.586 6 122990425.938 6        39.900    23404306.844 6  95836731.98147
        25.300    23404306.45347  23404302.832 3  91843538.166 3        33.300
  24020092.570 7 126226404.613 7        41.500    24020098.762 7  98358278.66549
        39.400    24020098.51649
  22026134.000 8 115748137.444 8        47.500                    90193363.74549
        38.200    22026137.31649
  23016750.688 7 120953853.613 7        42.000    23016755.480 7  94249779.90247
        29.700    23016755.22747  23016756.117 5  90322687.487 5        35.400
  23864933.258 7 125411075.255 7        42.600                    97722921.94947
        25.600    23864936.07447
  20651044.492 9 108521994.630 9        51.300    20651051.289 9  84562609.00549
        55.000    20651050.14849  20651046.656 7  81039177.833 7        41.800
  24891101.898 4 130803616.121 4        34.600                   101924921.71446
        22.300    24891105.09846
  23097434.047 6 121377839.709 6        40.600                    94580157.94247
        26.200    23097436.94147
  21165577.367 9 111225874.824 9        51.100    21165583.051 9  86669588.33849
        55.000    21165582.63749  21165578.203 6  83058252.626 6        40.700
  20523046.953 9 107849350.240 9        51.900    20523053.344 9  84038484.34649
        54.900    20523052.61349  20523049.102 7  80536834.850 7        42.600
 21  1  3  0 59 30.0000000  0 10G01G32G21G23G16G08G22G20G10G27
  23386260.945 6 122895629.888 6        40.700    23386268.137 7  95762864.95747
        25.700    23386267.96947  23386263.176 3  91772748.908 3        33.000
  24003718.398 7 126140360.143 7        42.100    24003725.492 7  98291231.03349
        39.400    24003724.44949
  22016271.695 8 115696307.644 8        47.900                    90152976.89549
        38.800    22016274.09849
  23033999.383 7 121044496.801 7        42.400    23034004.582 7  94320410.95148
        30.200    23034003.83648  23034004.551 4  90390375.552 4        34.700
  23886192.852 7 125522795.815 7        42.200                    97809976.90947
        25.500    23886195.98047
  20643858.203 9 108484231.498 9        51.800    20643865.441 9  84533183.19049
        55.800    20643864.07049  20643860.387 7  81010978.101 7        42.100
  24870003.703 6 130692738.717 6        38.800                   101838523.74146
        22.800    24870005.33246
  23114967.805 6 121469978.026 6        40.900                    94651954.02647
        26.000    23114970.07047
  21172738.227 9 111263506.184 9        50.800    21172744.176 9  86698911.47949
        54.900    21172743.96149  21172738.980 6  83086353.962 6        40.500
  20530762.875 9 107889897.032 9        51.000    20530769.152 9  84070079.24049
        55.100    20530768.46949  20530764.961 7  80567113.287 7        43.200
 21  1  3  1  0  0.0000000  0 10G01G32G21G23G16G08G22G20G10G27
  23368249.555 6 122800979.309 6        40.700    23368256.734 7  95689111.27547
        27.900    23368256.61347  23368251.473 3  91702068.27813        32.400
  23987381.188 7 126054508.206 7        41.800    23987388.313 7  98224333.44349
        39.000    23987387.27749
  22006448.883 8 115644691.788 8        47.600                    90112756.76549
        38.700    22006451.57849
  23051303.563 7 121135428.577 7        43.000    23051308.070 7  94391266.86147
        29.600    23051307.44947  23051308.441 4  90458279.177 4        34.500
  23907473.273 7 125634626.229 7        41.300                    97897117.48847
        26.900    23907476.53147
  20636751.234 9 108446882.959 9        51.500    20636757.828 9  84504080.43149
        55.200    20636757.03149  20636753.035 7  80983087.947 7        42.000
  24848921.938 6 130581951.060 6        38.900                   101752195.83147
        25.600    24848923.75847
  23132547.000 7 121562358.021 7        41.100                    94723938.41447
        26.800    23132549.99647
  21179994.961 9 111301641.060 9        52.300    21180000.848 9  86728626.97349
        54.900    21180000.80949  21179996.031 6  83114831.311 6        40.800
  20538563.742 9 107930890.939 9        51.700    20538569.785 9  84102022.53849
        55.300    20538569.27049  20538565.941 7  80597725.604 7        43.100
 21  1  3  1  0 30.0000000  0 10G01G32G21G23G16G08G22G20G10G27
  23350265.617 6 122706474.826 6        39.500    23350273.117 7  95615471.43447
        25.800    23350272.99647  23350268.848 3  91631496.752 3        33.500
  23971081.898 7 125968851.661 7        42.500    23971088.398 7  98157588.10149
        40.100    23971087.96149
  21996667.805 9 115593289.503 9        48.000                    90072703.05849
        38.500    21996670.23049
  23068661.695 7 121226646.180 7        43.600    23068666.117 7  94462345.51548
        30.100    23068665.02348  23068667.082 5  90526396.233 5        35.400
  23928774.359 7 125746562.941 7        41.400                    97984340.89547
        25.700    23928777.32847
  20629723.070 9 108409950.581 9        51.600    20629730.000 9  84475301.96049
        55.100    20629728.87549  20629725.207 7  80955508.577 7        42.100
  24827856.883 5 130471255.331 5        37.800                   101665939.42746
        22.800    24827858.19946
  23150171.969 7 121654977.315 7        41.000                    94796109.29747
        25.300    23150175.18447
  21187347.102 9 111340277.695 9        50.700    21187353.359 9  86758733.45149
        54.900    21187353.27049  21187348.695 7  83143683.356 7        41.100
  20546449.602 9 107972331.494 9        51.500    20546455.938 9  84134313.86649
        54.900    20546455.21549  20546451.449 7  80628671.467 7        43.200
 21  1  3  1  1  0.0000000  0 10G01G32G21G23G16G08G22G20G10G27
  23332309.383 6 122612117.369 6        39.600    23332317.270 7  95541946.15847
        25.300    23332316.77047  23332312.492 3  91561035.052 3        33.800
  23954819.883 7 125883393.645 7        42.300    23954826.484 7  98090997.44749
        40.300    23954826.33649
  21986926.977 8 115542101.329 8        47.800                    90032816.18349
        39.200    21986929.90649
  23086074.016 7 121318147.178 7        42.600    23086078.363 7  94533645.00548
        30.300    23086077.71548  23086078.484 5  90594724.875 5        35.400
  23950094.844 6 125858602.983 6        40.600                    98071644.81947
        27.600    23950098.16447
  20622774.758 9 108373435.795 9        51.300    20622781.742 9  84446848.88549
        55.400    20622780.32049  20622776.398 7  80928241.046 7        41.700
  24806809.305 6 130360653.226 6        38.800                   101579756.01646
        22.900    24806811.66446
  23167841.688 6 121747833.699 6        40.900                    94868464.91247
        27.400    23167844.68047
  21194794.516 9 111379414.549 9        52.100    21194800.633 9  86789229.69849
        54.900    21194800.54749  21194795.723 6  83172908.910 6        40.600
  20554420.398 9 108014218.385 9        51.400    20554426.699 9  84166952.99549
        54.900    20554426.09449  20554422.688 7  80659950.642 7        42.700
 21  1  3  1  1 30.0000000  0 10G01G32G21G23G16G08G22G20G10G27
  23314382.484 6 122517907.522 6        40.900    23314389.406 6  95468535.90247
        26.600    23314389.09447  23314385.086 3  91490683.586 3        33.800
  23938595.273 7 125798136.958 7        41.500    23938602.785 7  98024563.64949
        39.400    23938602.21149  23938597.668 2  93940200.30612        31.100
  21977226.602 9 115491126.882 9        48.000                    89993095.85249
        39.000    21977229.74249
  23103539.375 7 121409928.843 7        42.600    23103543.934 7  94605163.18247
        29.800    23103543.36347  23103543.480 4  90663263.141 4        34.700
  23971434.891 6 125970745.098 6        40.700                    98159028.25347
        26.000    23971437.72747
  20615906.016 9 108337339.881 9        51.200    20615912.719 9  84418722.19249
        55.500    20615911.44149  20615907.652 7  80901286.306 7        41.800
  24785780.727 6 130250146.503 6        39.800                   101493646.88747
        25.900    24785782.98447
  23185557.219 7 121840924.633 7        41.100                    94941003.30747
        25.600    23185559.39147
  21202336.930 9 111419049.689 9        52.000    21202342.723 9  86820114.22549
        55.000    21202342.77749  21202338.105 6  83202506.595 6        40.900
  20562476.148 9 108056551.081 9        51.900    20562482.406 9  84199939.50749
        54.900    20562481.77749  20562478.121 7  80691562.700 7        42.600
 21  1  3  1  2  0.0000000  0 10G01G32G21G23G16G08G22G20G10G27
  23296483.234 6 122423846.014 6        40.200    23296490.191 7  95395241.25047
        26.500    23296490.21947  23296485.973 3  91420442.845 3        33.900
  23922410.102 7 125713084.571 7        41.700    23922417.438 7  97958289.08549
        38.700    23922416.28149  23922412.383 2  93876687.210 2        31.600
  21967567.281 9 115440366.275 9        48.200                    89953542.13849
        38.700    21967569.87949
  23121057.906 7 121501988.615 7        41.800    23121061.945 7  94676898.06148
        30.200    23121061.62548  23121062.078 5  90732009.074 5        35.000
  23992793.188 6 126082985.039 6        40.600                    98246487.93546
        24.700    23992796.36746
  20609117.336 9 108301664.009 9        51.600    20609124.172 9  84390922.81349
        55.600    20609122.66449  20609118.859 7  80874645.218 7        41.900
  24764771.500 6 130139736.829 6        40.400                   101407613.40846
        22.800    24764772.16446
  23203315.422 7 121934247.638 7        41.400                    95013722.52847
        26.800    23203317.98847
  21209973.836 9 111459181.633 9        51.700    21209980.129 9  86851385.87749
        55.000    21209979.46949  21209975.137 6  83232475.261 6        40.600
  20570616.555 9 108099329.113 9        52.200    20570622.730 9  84233273.03349
        55.000    20570622.12549  20570618.617 7  80723507.341 7        42.400
 21  1  3  1  2 30.0000000  0 10G01G32G21G23G16G08G22G20G10G27
  23278611.336 6 122329934.542 6        40.000    23278620.078 7  95322063.49247
        25.600    23278619.71147  23278615.586 3  91350314.141 3        33.900
  23906265.117 7 125628240.352 7        41.800    23906272.191 7  97892176.70849
        39.200    23906270.78549  23906267.551 1  93813329.495 1        30.500
  21957948.727 8 115389820.237 8        47.900                    89914155.62649
        38.600    21957951.28149
  23138628.984 7 121594324.774 7        43.200    23138633.105 7  94748848.31448
        30.400    23138632.48048  23138632.945 5  90800961.398 5        35.200
  24014169.867 6 126195322.046 6        40.500                    98334023.27147
        25.200    24014173.07047
  20602408.508 9 108266411.270 9        51.200    20602415.566 9  84363453.14349
        55.400    20602414.15649  20602410.781 7  80848320.134 7        42.600
  24743781.375 6 130029427.375 6        40.100                   101321658.04446
        22.500    24743780.75046
  23221118.484 7 122027801.484 7        41.100                    95086621.60947
        27.700    23221120.96947
  21217705.336 9 111499809.493 9        52.200    21217711.164 9  86883043.95249
        55.200    21217710.85549  21217706.215 6  83262814.259 6        40.900
  20578841.766 9 108142552.948 9        51.900    20578847.949 9  84266953.92549
        55.000    20578847.55949  20578843.773 7  80755784.846 7        42.400
 21  1  3  1  3  0.0000000  0 11G01G32G21G23G16G08G14G22G20G10G27
  23260770.125 6 122236172.693 6        40.600    23260776.789 7  95249002.32047
        25.800    23260776.70747  23260772.875 4  91280297.248 4        34.300
  23890160.016 7 125543606.135 7        43.400    23890167.363 7  97826227.94049
        40.000    23890165.92249  23890162.313 2  93750128.63312        31.000
  21948370.758 9 115339487.783 9        48.100                    89874935.54149
        39.000    21948373.41849
  23156251.563 7 121686933.644 7        42.600    23156256.105 7  94821011.06547
        29.700    23156255.66847  23156256.348 4  90870117.359 4        34.800
  24035564.477 6 126307750.889 6        39.600                    98421630.17647
        25.500    24035567.81647
  20595780.836 9 108231581.830 9        51.400    20595787.582 9  84336313.31049
        55.900    20595786.43849  20595782.953 7  80822311.119 7        42.200
  25212269.781 4 132491384.74414        34.300    25212274.914 5 103240046.29055
        19.600    25212274.82445
  24722808.492 6 129919218.862 6        39.500                   101235781.27646
        22.300    24722808.89146
  23238963.719 7 122121582.313 7        41.700                    95159697.57147
        28.100    23238966.52747
  21225530.391 9 111540930.360 9        51.800    21225536.094 9  86915086.19049
        54.900    21225536.05149  21225531.230 6  83293521.398 6        40.700
  20587151.555 9 108186220.990 9        52.200    20587157.684 9  84300980.96249
        54.900    20587157.15249  20587153.688 7  80788394.089 7        42.400
 21  1  3  1  3 30.0000000  0 11G01G32G21G23G16G08G14G22G20G10G27
  23242956.945 7 122142562.512 7        41.400    23242963.648 7  95176059.35947
        29.100    23242963.70347  23242959.531 3  91210393.558 3        33.700
  23874095.320 7 125459186.181 7        42.300    23874102.586 7  97760446.14849
        39.400    23874101.69149  23874098.145 2  93687087.75912        31.500
  21938833.617 9 115289370.266 9        48.100                    89835882.93849
        38.800    21938836.26249
  23173926.102 7 121779813.921 7        43.000    23173930.926 7  94893385.29147
        29.100    23173930.29347  23173930.738 4  90939476.023 4        34.800
  24056976.648 6 126420271.817 6        39.900                    98509308.82746
        24.300    24056979.78946
  20589234.273 9 108197178.319 9        51.600    20589240.934 9  84309505.38349
        55.500    20589239.76249  20589236.199 7  80796620.201 7        42.100
  25194663.203 6 132398857.012 6        38.300    25194667.094 5 103167946.79545
        19.600    25194666.91445
  24701854.063 5 129809114.242 5        37.500                   101149985.48346
        23.000    24701856.34846
  23256852.680 6 122215589.621 6        40.500                    95232950.01147
        27.500    23256855.62147
  21233449.039 9 111582543.856 9        50.300    21233454.848 9  86947512.28949
        55.000    21233454.66049  21233450.023 6  83324596.420 6        40.400
  20595546.039 9 108230334.054 9        50.500    20595551.973 9  84335354.76949
        55.000    20595551.58249  20595548.188 7  80821335.667 7        42.600
 21  1  3  1  4  0.0000000  0 11G01G32G21G23G16G08G14G22G20G10G27
  23225172.164 7 122049103.705 7        42.000    23225179.887 7  95103234.36547
        29.400    23225179.76647  23225174.449 4  91140602.946 4        34.300
  23858072.242 7 125374982.375 7        43.500    23858078.824 7  97694832.81849
        40.200    23858078.48849  23858074.039 2  93624208.318 2        31.700
  21929337.109 9 115239466.403 9        48.000                    89796996.83449
        39.000    21929339.86749
  23191651.781 7 121872961.980 7        42.200    23191655.953 7  94965968.18647
        29.700    23191655.37947  23191656.719 5  91009034.580 5        35.300
  24078405.258 7 126532880.170 7        41.100                    98597055.56947
        25.300    24078408.52747
  20582768.438 9 108163200.919 9        50.900    20582775.281 9  84283029.48549
        55.700    20582774.25049  20582770.375 7  80771247.455 7        42.600
  25177108.648 4 132306615.981 4        34.300    25177113.848 6 103096070.58045
        17.400    25177113.36345
  24680923.648 6 129699114.360 6        39.900                   101064271.36746
        22.900    24680924.44546
  23274783.922 6 122309819.623 6        40.200                    95306375.96647
        27.900    23274787.51647
  21241461.117 9 111624647.155 9        50.300    21241466.992 9  86980320.06049
        54.900    21241466.90649  21241462.008 6  83356037.195 6        40.400
  20604024.867 9 108274890.627 9        50.700    20604031.109 9  84370074.17349
        55.100    20604030.24649  20604026.855 7  80854608.423 7        42.300
 21  1  3  1  4 30.0000000  0 11G01G32G21G23G16G08G14G22G20G10G27
  23207416.328 7 121955797.290 7        42.200    23207423.684 7  95030528.10047
        28.400    23207423.98047  23207418.117 3  91070926.151 3        32.600
  23842091.016 7 125290998.048 7        43.200    23842097.387 7  97629390.48849
        40.500    23842096.62149  23842092.055 2  93561492.716 2        31.200
  21919881.430 9 115189776.494 9        48.000                    89758277.42649
        38.400    21919884.24249
  23209427.914 7 121966375.520 7        43.400    23209432.113 7  95038757.94248
        30.400    23209431.22748  23209432.668 4  91078791.425 4        34.900
  24099849.391 6 126645573.212 6        39.800                    98684868.32047
        25.300    24099852.81647
  20576384.313 9 108129651.494 9        51.500    20576390.969 9  84256887.07349
        55.900    20576389.90649  20576386.301 7  80746194.310 7        42.500
  25159613.031 6 132214664.473 6        38.100    25159616.207 5 103024420.01145
        17.800    25159615.99645
  24660011.602 6 129589221.486 6        39.900                   100978640.58246
        24.500    24660012.89146
  23292757.422 6 122404270.305 6        40.200                    95379973.88347
        25.100    23292760.69547
  21249565.836 9 111667238.802 9        50.300    21249571.848 9  87013508.35649
        54.900    21249571.67249  21249567.047 6  83387842.626 6        40.500
  20612587.742 9 108319890.469 9        51.000    20612594.148 9  84405138.98149
        55.000    20612593.40249  20612590.203 7  80888212.189 7        42.400
 21  1  3  1  5  0.0000000  0 11G01G32G21G23G16G08G14G22G20G10G27
  23189689.867 7 121862644.173 7        42.300    23189696.781 7  94957941.27347
        28.100    23189696.81647  23189692.035 4  91001363.746 4        34.700
  23826151.008 7 125207236.223 7        43.200    23826158.152 7  97564121.51949
        39.400    23826157.00449  23826153.516 2  93498943.332 2        31.400
  21910466.516 9 115140300.788 9        48.000                    89719724.93849
        38.300    21910469.14549
  23227253.984 7 122060052.108 7        43.300    23227258.168 7  95111752.69748
        30.400    23227257.32848  23227258.648 4  91148744.687 4        34.900
  24121310.922 6 126758348.593 6        40.200                    98772745.24747
        25.300    24121314.33247
  20570081.859 9 108096531.522 9        51.700    20570088.480 9  84231079.30849
        55.300    20570087.40649  20570083.727 7  80721461.884 7        42.200
  25142170.852 6 132123005.107 6        38.400    25142174.895 6 102952997.14246
        21.500    25142174.87146
  24639120.281 6 129479437.359 6        39.700                   100893094.50647
        25.100    24639121.27047
  23310772.383 6 122498939.400 6        40.000                    95453741.99847
        25.100    23310774.80947
  21257763.133 9 111710317.136 9        50.100    21257769.434 9  87047075.89549
        54.900    21257768.97349  21257764.672 6  83420011.502 6        40.300
  20621235.430 9 108365333.227 9        50.400    20621241.754 9  84440548.90549
        55.000    20621240.91449  20621237.406 7  80922146.693 7        42.900
 21  1  3  1  5 30.0000000  0 11G01G32G21G23G16G08G14G22G20G10G27
  23171993.297 7 121769645.043 7        42.300    23172000.145 7  94885474.43647
        29.400    23171999.76247  23171995.164 4  90931916.397 4        34.200
  23810253.945 7 125123699.833 7        41.900    23810261.266 7  97499028.23049
        39.200    23810260.53949  23810256.887 3  93436562.259 3        32.200
  21901092.516 9 115091039.154 9        48.500                    89681339.25949
        38.800    21901094.89549
  23245129.008 7 122153989.170 7        42.000    23245133.773 7  95184950.39547
        29.300    23245133.44947  23245134.219 3  91218892.543 3        33.500
  24142786.195 6 126871203.685 6        39.400                    98860684.26346
        23.800    24142789.25846
  20563861.313 9 108063842.718 9        51.800    20563868.105 9  84205607.50049
        56.200    20563866.91849  20563863.063 7  80697051.425 7        42.000
  25124783.945 5 132031640.573 5        35.800    25124787.438 5 102881803.92145
        16.300    25124787.51645
  24618249.180 6 129369764.132 6        38.600                   100807634.88047
        25.100    24618251.27347
  23328828.813 6 122593824.380 6        40.800                    95527678.35247
        25.400    23328830.93847
  21266053.367 9 111753880.364 9        50.500    21266059.031 9  87081021.27149
        54.900    21266058.89149  21266054.168 6  83452542.507 6        40.700
  20629967.094 9 108411218.343 9        50.400    20629973.465 9  84476303.54749
        54.900    20629972.77049  20629969.090 7  80956411.538 7        42.100
 21  1  3  1  6  0.0000000  0 11G01G32G21G23G16G08G14G22G20G10G27
  23154324.680 6 121676800.204 6        40.500    23154332.137 7  94813127.83447
        27.600    23154332.23847  23154328.125 4  90862584.249 4        34.100
  23794401.672 7 125040391.472 7        42.700    23794408.207 7  97434112.63149
        39.300    23794407.50849  23794403.793 2  93374351.454 2        31.900
  21891759.227 9 115041990.885 9        48.600                    89643119.84349
        39.400    21891761.55549
  23263053.758 7 122248183.726 7        42.000    23263058.512 7  95258348.72947
        28.800    23263057.88747  23263058.641 3  91289232.623 3        33.700
  24164276.375 6 126984135.578 6        40.300                    98948683.13346
        22.800    24164280.03946
  20557722.930 9 108031585.646 9        51.400    20557729.805 9  84180472.11949
        55.200    20557728.46549  20557724.824 7  80672963.336 7        42.200
  25107454.961 5 131940573.098 5        37.300    25107459.266 6 102810842.16845
        19.900    25107458.80545
  24597400.945 6 129260203.330 6        38.900                   100722262.87846
        23.200    24597402.30146
  23346925.352 7 122688923.393 7        41.000                    95601781.46547
        25.700    23346928.23447
  21274434.953 9 111797926.277 9        50.800    21274440.910 9  87115342.76149
        55.000    21274440.64849  21274436.020 6  83485433.954 6        40.400
  20638782.828 9 108457544.877 9        52.500    20638789.043 9  84512402.12649
        55.100    20638788.49649  20638784.816 7  80991006.026 7        42.400
 21  1  3  1  6 30.0000000  0 11G01G32G21G23G16G08G14G22G20G10G27
  23136686.328 7 121584111.823 7        41.800    23136694.242 7  94740903.16247
        27.800    23136694.13347  23136689.914 3  90793368.935 3        33.700
  23778592.617 7 124957315.391 7        42.700    23778599.391 7  97369378.02849
        39.800    23778598.63349  23778594.605 2  93312314.151 2        31.000
  21882466.234 9 114993157.660 9        49.100                    89605067.98149
        39.200    21882469.18049
  23281027.648 7 122342634.578 7        43.000    23281032.066 7  95331946.78847
        29.200    23281031.41847  23281032.707 3  91359764.100 3        33.500
  24185780.438 6 127097142.298 6        40.500                    99036740.32546
        23.500    24185784.52746
  20551667.539 9 107999763.485 9        52.000    20551673.930 9  84155675.63149
        55.500    20551673.05549  20551669.438 7  80649200.031 7        42.600
  25090182.961 5 131849806.590 5        37.200    25090186.281 6 102740115.03545
        19.300    25090186.90645
  24576574.273 6 129150757.956 6        38.900                   100636980.76546
        24.500    24576575.46946
  23365062.297 7 122784234.980 7        41.300                    95676050.22747
        26.800    23365065.59847
  21282908.266 9 111842454.431 9        50.100    21282914.309 9  87150040.03149
        54.900    21282914.12549  21282909.148 6  83518685.482 6        40.600
  20647682.438 9 108504313.658 9        50.500    20647688.684 9  84548845.32649
        55.000    20647688.35249  20647684.547 7  81025930.764 7        42.500
 21  1  3  1  7  0.0000000  0 11G01G32G21G23G16G08G14G22G20G10G27
  23119078.375 6 121491579.644 6        40.800    23119086.219 7  94668800.17547
        28.700    23119085.53147  23119080.695 3  90724270.255 3        33.200
  23762828.203 7 124874473.582 7        41.600    23762835.043 7  97304825.96549
        39.400    23762833.95349  23762830.711 2  93250451.757 2        31.600
  21873214.234 9 114944538.375 9        48.100                    89567182.83949
        39.200    21873216.89149
  23299048.414 7 122437338.114 7        42.000    23299053.383 7  95405741.74347
        27.800    23299053.08647  23299053.414 3  91430484.256 3        33.600
  24207298.844 6 127210220.543 6        39.500                    99124853.22346
        22.900    24207302.35946
  20545694.734 9 107968376.697 9        51.500    20545701.441 9  84131218.39749
        55.900    20545700.34449  20545696.820 7  80625761.844 7        42.800
  25072968.258 5 131759342.503 5        36.700    25072971.910 6 102669623.47546
        20.600    25072972.32846
  24555770.664 6 129041429.034 6        39.800                   100551789.42746
        24.900    24555770.86346
  23383239.250 7 122879755.413 7        41.200                    95750481.72647
        25.900    23383242.15247
  21291473.180 9 111887461.999 9        50.400    21291478.914 9  87185110.86549
        55.000    21291479.16449  21291474.027 6  83552295.042 6        40.300
  20656666.305 9 108551523.087 9        50.600    20656672.246 9  84585631.89249
        55.000    20656671.97349  20656668.254 7  81061184.553 7        42.200
 21  1  3  1  7 30.0000000  0 11G01G32G21G23G16G08G14G22G20G10G27
  23101499.531 6 121399204.352 6        40.800    23101507.281 7  94596819.43147
        28.400    23101506.64847  23101502.418 4  90655288.707 4        34.400
  23747108.828 7 124791868.973 7        42.900    23747116.070 7  97240458.74349
        39.200    23747115.07849  23747111.148 2  93188766.484 2        31.300
  21864002.680 9 114896133.117 9        48.800                    89529464.47149
        39.200    21864005.62949
  23317118.125 7 122532291.820 7        42.500    23317122.039 7  95479731.63947
        28.900    23317121.80947  23317122.762 3  91501391.258 3        33.900
  24228830.195 6 127323367.613 6        40.300                    99213019.74746
        23.300    24228833.03546
  20539805.047 9 107937426.240 9        51.000    20539811.668 9  84107101.14649
        55.700    20539810.54349  20539806.898 7  80602649.483 7        42.200
  25055810.758 5 131669183.646 5        36.500    25055814.406 5 102599369.76045
        17.400    25055814.00445
  24534987.961 6 128932218.311 6        40.200                   100466690.17347
        25.100    24534988.58647
  23401454.992 6 122975482.980 6        40.800                    95825074.63647
        26.400    23401458.97747
  21300128.398 9 111932947.153 9        51.900    21300134.422 9  87220553.84649
        54.900    21300134.42649  21300129.656 6  83586261.232 6        40.600
  20665733.672 9 108599172.625 9        52.700    20665739.867 9  84622761.40049
        55.100    20665739.39549  20665735.945 7  81096766.993 7        42.900
 21  1  3  1  8  0.0000000  0 11G01G32G21G23G16G08G14G22G20G10G27
  23083951.703 7 121306987.115 7        41.100    23083958.863 7  94524961.87847
        28.900    23083958.58647  23083954.566 4  90586425.220 4        34.500
  23731435.398 7 124709504.937 7        42.200    23731442.684 7  97176278.97249
        39.400    23731441.92649  23731438.105 2  93127260.861 2        31.400
  21854832.680 9 114847942.077 9        49.100                    89491913.01849
        38.900    21854835.37149
  23335234.641 7 122627493.552 7        42.400    23335238.793 7  95553914.81547
        28.700    23335237.85247  23335239.313 4  91572483.480 4        34.800
  24250373.898 6 127436580.869 6        40.500                    99301237.90546
        24.100    24250377.12146
  20533998.445 9 107906914.564 9        51.400    20534005.641 9  84083325.81549
        55.800    20534004.31349  20534000.832 7  80579864.801 7        42.500
  25038713.578 6 131579333.020 6        38.700    25038717.418 6 102529356.27546
        21.500    25038716.33646
  24514228.438 6 128823127.872 6        39.900                   100381684.65847
        26.200    24514229.33247
  23419711.227 7 123071415.502 7        41.300                    95899827.21147
        26.000    23419714.35947
  21308874.500 9 111978908.503 9        51.800    21308880.406 9  87256367.87949
        54.900    21308880.28549  21308875.992 6  83620583.030 6        39.700
  20674884.883 9 108647262.073 9        52.700    20674891.082 9  84660233.69049
        55.300    20674890.49649  20674886.949 7  81132677.951 7        42.600
 21  1  3  1  8 30.0000000  0 11G01G32G21G23G16G08G14G22G20G10G27
  23066432.555 6 121214928.738 6        40.200    23066440.621 7  94453228.10047
        28.600    23066440.42247  23066436.359 4  90517680.312 4        34.700
  23715808.578 7 124627384.397 7        42.600    23715815.137 7  97112288.94649
        40.200    23715815.15649  23715810.934 3  93065937.088 3        32.000
  21845702.531 9 114799964.935 9        49.900                    89454528.24149
        38.700    21845705.34449
  23353397.438 7 122722940.781 7        42.300    23353401.406 7  95628289.27747
        26.900    23353400.70347  23353402.531 5  91643758.943 5        35.000
  24271929.656 6 127549858.184 6        40.500                    99389505.91646
        22.900    24271933.16046
  20528276.375 9 107876842.625 9        52.100    20528283.207 9  84059893.13349
        55.800    20528281.91849  20528278.219 7  80557408.460 7        42.300
  25021675.297 6 131489793.021 6        39.400    25021678.398 5 102459584.82646
        20.600    25021677.27046
  24493492.820 6 128714159.317 6        40.500                   100296774.10347
        26.500    24493493.01647
  23438005.070 7 123167550.417 7        41.500                    95974737.54747
        25.300    23438008.35547
  21317710.867 9 112025344.103 9        51.900    21317716.938 9  87292551.47449
        54.900    21317716.44549  21317712.250 6  83655258.960 6        40.600
  20684119.500 9 108695790.850 9        52.300    20684125.680 9  84698048.31049
        55.000    20684125.09849  20684121.840 7  81168916.961 7        42.700
 21  1  3  1  9  0.0000000  0 11G01G32G21G23G16G08G14G22G20G10G27
  23048945.500 6 121123030.017 6        40.200    23048952.566 7  94381618.72147
        27.500    23048952.22747  23048948.570 4  90449054.742 4        34.200
  23700229.164 7 124545510.388 7        43.200    23700235.910 7  97048491.02749
        40.200    23700234.64149  23700231.000 2  93004797.453 2        31.500
  21836613.570 9 114752202.543 9        48.900                    89417310.80449
        38.700    21836616.30149
  23371606.391 7 122818631.019 7        41.900    23371611.219 7  95702853.10047
        28.900    23371610.21547  23371611.648 4  91715215.927 4        34.800
  24293498.023 6 127663196.625 6        40.800                    99477821.61046
        24.000    24293500.93846
  20522637.875 9 107847212.217 9        51.700    20522644.504 9  84036804.49949
        55.600    20522643.65649  20522639.566 7  80535281.868 7        42.500
  25004694.805 5 131400566.504 5        35.200    25004699.645 5 102390057.67345
        19.300    25004698.64545
  24472780.578 6 128605315.177 6        40.400                   100211960.49247
        25.800    24472780.87147
  23456336.125 6 123263885.667 6        39.800                    96049803.97646
        23.600    23456339.64846
  21326637.250 9 112072252.286 9        49.800    21326643.336 9  87329103.30549
        54.800    21326642.82449  21326638.500 6  83690287.784 6        40.800
  20693437.688 9 108744758.452 9        50.300    20693443.969 9  84736204.87349
        55.300    20693443.21549  20693439.969 7  81205483.661 7        42.000
 21  1  3  1  9 30.0000000  0 11G01G32G21G23G16G08G14G22G20G10G27
  23031487.594 6 121031291.350 6        40.300    23031496.023 7  94310134.06847
        28.000    23031495.51647  23031491.324 4  90380548.577 4        34.500
  23684695.984 7 124463885.533 7        43.100    23684702.391 7  96984887.23249
        39.000    23684701.79749  23684697.930 2  92943843.80312        31.700
  21827565.664 9 114704654.535 9        49.000                    89380260.41749
        38.900    21827568.51249
  23389861.836 7 122914561.385 7        41.400    23389865.781 7  95777604.02447
        28.200    23389865.15247  23389866.059 3  91786852.215 3        32.600
  24315076.164 6 127776593.145 6        39.900                    99566182.47746
        22.500    24315079.66046
  20517083.266 9 107818023.840 9        52.200    20517090.219 9  84014060.31349
        55.400    20517089.26249  20517085.258 7  80513485.359 7        42.500
  24987775.172 5 131311655.804 5        35.700    24987780.441 6 102320776.44245
        19.300    24987778.98445
  24452090.711 6 128496596.782 6        38.800                   100127244.87647
        25.300    24452092.84447
  23474706.445 6 123360419.330 6        39.800                    96125024.98446
        23.900    23474709.83646
  21335652.992 9 112119630.745 9        51.900    21335659.254 9  87366021.58849
        54.900    21335658.94949  21335653.738 6  83725667.805 6        40.100
  20702839.086 9 108794163.904 9        52.000    20702845.551 9  84774702.61549
        55.200    20702844.73049  20702841.227 7  81242377.325 7        42.400
 21  1  3  1 10  0.0000000  0 11G01G32G21G23G16G08G14G22G20G10G27
  23014061.867 6 120939713.741 6        40.900    23014069.207 7  94238774.91947
        28.900    23014069.20347  23014064.070 3  90312162.716 3        33.700
  23669210.945 7 124382512.982 7        43.100    23669217.883 7  96921480.05649
        39.900    23669217.13749  23669213.789 3  92883078.572 3        32.000
  21818558.234 9 114657320.669 9        48.400                    89343376.89349
        39.400    21818561.23049
  23408162.336 7 123010729.624 7        43.100    23408166.594 7  95852540.31248
        30.200    23408165.70348  23408165.953 3  91858666.190 3        33.200
  24336665.336 6 127890045.383 6        38.900                    99654586.81846
        21.100    24336668.16046
  20511613.359 9 107789279.418 9        51.700    20511620.234 9  83991662.06449
        55.600    20511619.32449  20511615.684 7  80492020.374 7        42.100
  24970917.891 5 131223063.46715        37.000    24970920.527 4 102251743.44055
        18.300    24970918.94945
  24431427.594 6 128388006.317 6        39.600                   100042628.93146
        24.300    24431428.49246
  23493113.836 6 123457148.802 6        40.300                    96200398.59246
        24.200    23493116.93046
  21344758.164 9 112167477.924 9        49.900    21344764.156 9  87403305.09749
        55.000    21344764.41049  21344758.715 6  83761397.843 6        39.400
  20712323.922 9 108844006.858 9        50.500    20712330.617 9  84813541.27249
        55.000    20712329.71549  20712326.105 7  81279597.696 7        42.400
 21  1  3  1 10 30.0000000  0 11G01G32G21G23G16G08G14G22G20G10G27
  22996666.773 7 120848297.965 7        41.300    22996673.477 7  94167541.84447
        29.600    22996673.39847  22996668.730 5  90243897.691 5        35.100
  23653775.453 7 124301395.694 7        42.300    23653782.348 7  96858271.78849
        39.800    23653781.32449  23653777.527 2  92822503.976 2        31.900
  21809591.883 9 114610200.692 9        49.200                    89306660.04049
        39.700    21809594.52749
  23426507.039 7 123107133.168 7        42.900    23426511.781 7  95927659.94448
        30.200    23426511.14548  23426511.547 4  91930655.850 4        34.300
  24358263.938 5 128003550.622 5        37.100                    99743032.42746
        20.600    24358267.91446
  20506228.344 9 107760980.471 9        51.900    20506235.371 9  83969610.93149
        55.500    20506234.10549  20506230.418 7  80470888.026 7        42.200
  24954120.672 6 131134792.245 6        38.800    24954124.863 6 102182960.71146
        22.200    24954123.92246
  24410787.797 6 128279545.500 6        40.200                    99958114.03447
        25.200    24410788.93447
  23511557.266 6 123554071.920 6        39.600                    96275923.09046
        22.500    23511560.44546
  21353952.000 9 112215791.879 9        51.000    21353957.949 9  87440952.33649
        54.800    21353957.83249  21353952.574 6  83797476.456 6        40.400
  20721891.758 9 108894286.667 9        52.800    20721898.293 9  84852720.33849
        54.900    20721897.82449  20721894.492 7  81317144.299 7        42.600
 21  1  3  1 11  0.0000000  0 11G01G32G21G23G16G08G14G22G20G10G27
  22979300.758 7 120757044.789 7        41.400    22979308.594 7  94096435.49247
        29.900    22979308.02747  22979304.324 4  90175754.147 4        34.500
  23638388.523 7 124220536.689 7        41.900    23638395.160 7  96795264.77849
        39.500    23638394.03149  23638390.336 2  92762122.266 2        31.900
  21800665.867 9 114563295.284 9        48.900                    89270110.38349
        39.500    21800668.73049
  23444896.578 7 123203769.543 7        41.400    23444900.375 7  96002960.99547
        27.800    23444900.12147  23444901.262 4  92002819.386 4        34.600
  24379873.773 6 128117106.400 6        38.900                    99831517.44846
        21.500    24379876.15246
  20500928.297 9 107733128.096 9        51.600    20500935.441 9  83947907.78049
        55.600    20500934.18049  20500930.340 7  80450089.172 7        42.400
  24937383.648 5 131046844.818 5        37.400    24937388.137 6 102114430.12845
        19.900    24937387.20745
  24390173.602 6 128171216.357 6        40.500                    99873701.72346
        24.900    24390174.85546
  23530037.789 6 123651186.495 6        39.900                    96351596.75846
        22.300    23530040.57046
  21363234.258 9 112264570.800 9        51.800    21363240.293 9  87478961.89749
        55.100    21363240.23449  21363235.645 6  83833902.305 6        40.300
  20731542.797 9 108945002.727 9        51.600    20731549.410 9  84892239.33149
        55.000    20731548.75449  20731545.340 7  81355016.674 7        42.200
 21  1  3  1 11 30.0000000  0 11G01G32G21G23G16G08G14G22G20G10G27
  22961966.516 7 120665955.015 7        41.300    22961974.781 7  94025456.44547
        29.000    22961974.05147  22961969.563 4  90107732.548 4        34.500
  23623051.156 7 124139938.896 7        42.900    23623057.980 7  96732461.30349
        40.200    23623057.03149  23623053.250 2  92701935.638 2        31.800
  21791780.938 9 114516603.865 9        48.900                    89233727.47849
        39.600    21791783.73849
  23463329.000 6 123300636.375 6        40.800    23463333.719 7  96078441.62947
        27.700    23463332.96547  23463333.973 4  92075154.964 4        34.300
  24401490.297 5 128230709.544 5        37.900                    99920039.38745
        19.300    24401494.24645
  20495713.297 9 107705723.785 9        52.200    20495720.270 9  83926553.76549
        55.400    20495719.36349  20495715.543 7  80429624.923 7        42.200
  24920709.086 5 130959223.763 5        35.300    24920714.379 5 102046154.06245
        17.400    24920713.72745
  24369584.641 6 128063020.529 6        40.100                    99789393.26747
        26.200    24369585.61747
  23548554.961 6 123748490.062 6        40.900                    96427417.72146
        23.200    23548557.49646
  21372604.906 9 112313812.822 9        49.900    21372610.922 9  87517332.30149
        54.700    21372610.53549  21372606.184 6  83870673.900 6        40.200
  20741276.656 9 108996154.475 9        50.200    20741283.277 9  84932097.82749
        55.100    20741282.62149  20741279.063 7  81393214.393 7        42.000
 21  1  3  1 12  0.0000000  0 11G01G32G21G23G16G08G14G22G20G10G27
  22944664.523 6 120575029.597 6        40.800    22944672.063 7  93954605.50047
        28.800    22944671.71547  22944667.641 4  90039833.696 4        34.500
  23607763.906 7 124059605.471 7        43.000    23607770.563 7  96669863.83849
        40.000    23607769.93449  23607766.883 3  92641946.420 3        32.400
  21782936.766 9 114470127.107 9        49.000                    89197511.82649
        39.700    21782939.32849
  23481805.906 7 123397731.191 7        42.200    23481810.039 7  96154099.94047
        28.000    23481809.19547  23481810.844 4  92147660.808 4        34.700
  24423118.172 6 128344357.757 6        38.900                   100008596.41846
        21.300    24423120.57446
  20490584.102 9 107678769.242 9        51.900    20490591.086 9  83905550.22549
        56.000    20490590.01649  20490586.340 7  80409496.526 7        42.600
  24904099.688 5 130871931.864 5        36.900    24904103.707 6 101978134.28045
        19.600    24904103.18845
  24349021.617 6 127954960.299 6        40.500                    99705190.49647
        27.100    24349022.83247
  23567106.430 6 123845980.410 6        39.900                    96503384.20946
        22.800    23567108.77046
  21382063.203 9 112363516.215 9        51.400    21382068.883 9  87556062.21449
        54.900    21382068.41449  21382064.461 6  83907790.077 6        39.600
  20751093.414 9 109047741.357 9        51.400    20751099.680 9  84972295.39049
        54.900    20751099.30149  20751095.547 7  81431737.049 7        43.100
 21  1  3  1 12 30.0000000  0 11G01G32G21G23G16G08G14G22G20G10G27
  22927393.172 7 120484268.975 7        41.200    22927400.734 7  93883882.93447
        29.600    22927400.52347  22927396.352 4  89972057.931 4        34.600
  23592527.602 7 123979538.946 7        42.200    23592534.688 7  96607474.35449
        39.400    23592533.54749  23592530.098 3  92582156.410 3        32.100
  21774133.359 9 114423864.422 9        49.100                    89161462.98849
        39.500    21774135.68449
  23500325.289 7 123495051.180 7        41.600    23500330.000 7  96229933.68347
        28.900    23500328.91447  23500330.156 3  92220334.82913        33.700
  24444752.945 6 128458048.750 6        38.500                   100097186.82546
        22.300    24444756.40646
  20485540.641 9 107652265.494 9        51.700    20485547.527 9  83884897.94349
        55.600    20485546.55149  20485542.801 7  80389704.767 7        42.500
  24887552.016 6 130784971.250 6        39.100    24887554.945 5 101910372.76445
        19.900    24887554.11345
  24328484.336 6 127847037.077 6        40.300                    99621094.48447
        25.800    24328485.89547
  23585692.914 6 123943655.536 6        38.600                    96579494.72746
        20.600    23585695.64546
  21391608.539 9 112413678.638 9        49.800    21391614.570 9  87595149.83149
        54.800    21391614.39149  21391610.230 6  83945249.025 6        40.800
  20760992.844 9 109099762.361 9        49.900    20760998.906 9  85012831.22549
        55.200    20760998.41849  20760994.941 7  81470583.893 7        42.200
 21  1  3  1 13  0.0000000  0 11G01G32G21G23G16G08G14G22G20G10G27
  22910153.578 7 120393674.000 7        41.800    22910161.105 7  93813289.49547
        29.600    22910161.12947  22910155.781 4  89904405.958 4        34.000
  23577343.227 7 123899742.439 7        42.300    23577349.957 7  96545295.26849
        40.400    23577348.82449  23577344.738 3  92522568.157 3        32.200
  21765370.313 9 114377815.730 9        48.800                    89125580.90049
        40.100    21765373.03149
  23518886.367 7 123592594.093 7        41.100    23518891.656 7  96305941.11147
        28.500    23518890.81347  23518891.902 3  92293175.294 3        32.800
  24466394.383 5 128571778.884 5        37.600                   100185807.68146
        21.100    24466398.23846
  20480582.961 9 107626213.667 9        51.000    20480590.027 9  83864597.81149
        56.100    20480589.05149  20480585.316 7  80370250.459 7        42.500
  24871067.711 6 130698344.765 6        39.000    24871071.125 6 101842871.62246
        21.300    24871070.34046
  24307973.172 6 127739252.834 6        39.400                    99537106.78247
        25.100    24307974.70347
  23604315.336 6 124041512.898 6        38.700                    96655747.22046
        20.900    23604316.75046
  21401241.500 9 112464298.451 9        51.900    21401247.199 9  87634593.83049
        54.900    21401247.23049  21401241.703 6  83983049.544 6        39.900
  20770974.531 9 109152217.052 9        51.900    20770980.953 9  85053704.99249
        54.900    20770980.11749  20770976.621 7  81509754.611 7        42.000
 21  1  3  1 13 30.0000000  0 11G01G32G21G23G16G08G14G22G20G10G27
  22892945.688 7 120303245.257 7        42.000    22892953.012 7  93742825.57848
        30.100    22892953.05548  22892948.293 4  89836877.986 4        34.000
  23562210.375 7 123820218.664 7        43.500    23562217.039 7  96483328.69549
        40.900    23562216.08249  23562212.238 3  92463183.508 3        32.500
  21756648.328 9 114331981.450 9        48.600                    89089865.88949
        39.600    21756651.12549
  23537490.656 7 123690357.090 7        41.400    23537494.926 7  96382120.07147
        28.600    23537494.25847  23537495.266 3  92366180.138 3        32.900
  24488044.125 6 128685546.256 6        39.100                   100274457.55246
        22.200    24488046.86746
  20475711.867 9 107600614.911 9        51.600    20475718.953 9  83844650.73149
        55.300    20475717.80149  20475713.883 7  80351134.512 7        42.900
  24854647.664 6 130612054.660 6        38.000    24854651.324 6 101775632.58946
        20.900    24854649.68046
  24287489.273 6 127631609.160 6        39.900                    99453228.60747
        26.100    24287490.64847
  23622970.188 5 124139550.414 5        37.300                    96732140.05646
        20.600    23622973.03146
  21410960.438 9 112515373.375 9        49.800    21410966.395 9  87674392.47649
        54.700    21410966.37549  21410961.199 6  84021189.925 6        40.000
  20781038.648 9 109205104.392 9        50.800    20781045.027 9  85094915.89749
        55.800    20781044.12149  20781040.664 7  81549248.371 7        41.900
 21  1  3  1 14  0.0000000  0 11G01G32G21G23G16G08G14G22G20G10G27
  22875768.961 7 120212984.043 7        42.200    22875777.172 7  93672492.18047
        28.700    22875776.36347  22875772.352 4  89769475.159 4        34.200
  23547130.211 7 123740971.081 7        44.000    23547136.484 7  96421577.34149
        40.700    23547135.77349  23547131.746 2  92404005.162 2        31.900
  21747967.336 9 114286361.755 9        49.000                    89054318.09149
        39.700    21747970.10549
  23556135.844 6 123788338.324 6        40.800    23556140.113 7  96458469.08447
        28.100    23556139.35947  23556140.293 3  92439347.959 3        33.000
  24509699.742 5 128799348.150 5        37.600                   100363134.34946
        21.800    24509703.71546
  20470927.289 9 107575471.382 9        51.500    20470934.148 9  83825058.37449
        55.700    20470932.98049  20470929.313 7  80332358.484 7        42.700
  24838289.984 5 130526104.286 5        36.800    24838294.285 6 101708658.25545
        17.800    24838293.39145
  24267032.320 6 127524108.573 6        39.700                    99369461.93447
        26.900    24267034.35547
  23641659.859 5 124237766.507 5        36.600                    96808672.04646
        21.500    23641663.68446
  21420765.781 9 112566902.093 9        50.300    21420772.113 9  87714544.72349
        54.600    21420772.03149  21420767.035 6  84059669.148 6        40.100
  20791184.984 9 109258424.299 9        51.100    20791191.504 9  85136463.87349
        54.900    20791190.63749  20791187.313 7  81589065.189 7        41.800
 21  1  3  1 14 30.0000000  0 11G01G32G21G23G16G08G14G22G20G10G27
  22858624.609 7 120122890.820 7        41.200    22858632.469 7  93602289.69047
        28.900    22858631.99647  22858627.266 4  89702197.785 4        34.100
  23532102.953 7 123662002.300 7        43.500    23532109.484 7  96360043.23049
        41.000    23532108.76649  23532104.582 3  92345034.990 3        32.100
  21739326.656 9 114240956.413 9        48.800                    89018937.30549
        40.100    21739329.78949
  23574822.180 6 123886535.001 6        40.200    23574826.445 7  96534985.96947
        27.200    23574826.09047  23574827.059 3  92512676.638 3        33.700
  24531360.922 6 128913182.280 6        38.400                   100451836.26546
        20.600    24531364.39146
  20466229.430 9 107550783.509 9        52.500    20466236.309 9  83805821.06449
        55.600    20466234.80949  20466231.367 7  80313922.735 7        42.600
  24821999.422 5 130440495.632 5        36.600    24822004.656 6 101641950.19946
        20.900    24822003.87146
  24246604.367 6 127416752.652 6        40.500                    99285807.99647
        26.500    24246604.69147
  23660383.891 5 124336158.048 5        37.800                    96885340.80346
        22.300    23660385.93446
  21430657.438 9 112618882.289 9        51.300    21430663.633 9  87755048.77949
        54.700    21430663.39849  21430658.277 6  84098485.512 6        39.500
  20801413.469 9 109312175.716 9        51.900    20801420.164 9  85178348.09149
        55.300    20801419.28149  20801415.535 7  81629204.213 7        42.200
 21  1  3  1 15  0.0000000  0 11G01G32G21G23G16G08G14G22G20G10G27
  22841512.875 7 120032966.511 7        41.100    22841520.832 7  93532218.82647
        29.900    22841520.69147  22841515.805 4  89635046.518 4        34.100
  23517128.688 7 123583315.413 7        44.300    23517135.980 7  96298728.78449
        40.300    23517134.66049  23517131.270 3  92286275.283 3        32.700
  21730727.117 9 114195765.675 9        48.700                    88983723.75849
        39.700    21730729.90249
  23593548.641 6 123984944.773 6        40.100    23593553.285 7  96611668.87447
        26.700    23593552.93447  23593553.895 3  92586164.441 3        33.400
  24553028.922 6 129027045.810 6        38.100                   100540561.07246
        21.700    24553032.90646
  20461618.555 9 107526553.345 9        52.000    20461625.137 9  83786940.41949
        55.100    20461624.09449  20461620.707 7  80295828.796 7        42.400
  24805774.391 5 130355231.607 5        36.500    24805779.492 6 101575510.62946
        20.100    24805778.18846
  24226202.055 6 127309543.199 6        40.200                    99202268.14947
        27.600    24226203.53547
  23679139.953 5 124434723.191 5        37.200                    96962144.80046
        20.900    23679142.12546
  21440634.836 9 112671312.213 9        51.900    21440640.566 9  87795903.26949
        54.600    21440640.27749  21440635.770 6  84137637.761 6        40.500
  20811724.102 9 109366358.153 9        51.600    20811730.582 9  85220568.15649
        54.900    20811729.99249  20811726.445 7  81669665.105 7        42.000
 21  1  3  1 15 30.0000000  0 11G01G32G21G23G16G08G14G22G20G10G27
  22824433.211 7 119943212.002 7        41.900    22824440.824 7  93462280.25848
        30.500    22824440.80948  22824436.352 3  89568022.063 3        33.700
  23502209.945 7 123504913.445 7        42.800    23502216.250 7  96237636.33949
        40.900    23502215.06649  23502211.480 3  92227728.375 3        32.500
  21722168.828 9 114150789.818 9        49.100                    88948677.64249
        40.000    21722171.25449
  23612315.281 6 124083565.321 6        40.400    23612319.980 7  96688516.06647
        26.800    23612319.73847  23612321.063 3  92659809.632 3        33.200
  24574701.938 6 129140935.557 6        39.000                   100629306.31846
        20.600    24574705.03146
  20457094.961 9 107502782.030 9        51.800    20457101.797 9  83768417.31549
        56.200    20457100.64549  20457097.188 7  80278077.484 7        42.600
  24789615.586 6 130270314.794 6        39.000    24789619.082 5 101509341.65346
        20.400    24789619.03146
  24205830.273 7 127202482.292 7        41.300                    99118844.08547
        26.700    24205830.64147
  23697929.203 5 124533460.011 5        37.200                    97039082.56046
        22.200    23697931.88746
  21450696.961 9 112724189.997 9        51.200    21450702.961 9  87837106.74749
        54.500    21450702.70749  21450698.184 6  84177124.398 6        40.400
  20822116.539 9 109420970.916 9        51.600    20822123.063 9  85263123.54449
        55.000    20822122.41849  20822118.965 7  81710447.354 7        42.500
 21  1  3  1 16  0.0000000  0 11G01G32G21G23G16G08G14G22G20G10G27
  22807386.305 7 119853627.825 7        41.300    22807393.770 7  93392474.44647
        29.600    22807393.83247  22807389.035 4  89501124.838 4        34.300
  23487345.430 7 123426799.095 7        44.100    23487351.535 7  96176768.01249
        41.100    23487350.65249  23487347.023 2  92169396.233 2        31.900
  21713650.945 9 114106028.421 9        49.000                    88913798.63049
        40.000    21713653.93449
  23631121.914 6 124182393.965 6        40.000    23631126.809 7  96765525.39347
        26.100    23631125.73047  23631127.320 3  92733610.238 3        33.400
  24596378.313 5 129254849.595 5        36.900                   100718070.50245
        19.300    24596381.81345
  20452659.078 9 107479470.913 9        52.200    20452665.816 9  83750252.80549
        55.300    20452664.76649  20452660.836 7  80260669.826 7        42.700
  24773524.227 6 130185747.521 6        40.300    24773526.832 6 101443445.09246
        22.300    24773527.13346
  24185485.406 6 127095571.406 6        40.200                    99035536.90847
        26.300    24185486.09847
  23716750.586 5 124632366.005 5        37.000                    97116152.12946
        21.500    23716753.54746
  21460843.953 9 112777513.448 9        50.500    21460850.242 9  87878657.47949
        54.600    21460849.93049  21460844.918 6  84216943.863 6        39.700
  20832591.016 9 109476013.078 9        52.000    20832597.258 9  85306013.53549
        55.000    20832596.73849  20832593.105 7  81751550.263 7        41.800
 21  1  3  1 16 30.0000000  0 11G01G32G21G23G16G08G14G22G20G10G27
  22790371.258 7 119764214.842 7        42.600    22790378.859 7  93322802.00147
        29.700    22790378.79347  22790373.945 4  89434355.411 4        34.300
  23472535.211 7 123348975.381 7        43.900    23472542.820 7  96116126.15149
        41.300    23472541.77049  23472538.133 3  92111281.111 3        32.200
  21705173.719 9 114061481.577 9        48.800                    88879086.81949
        40.400    21705176.83249
  23649967.492 6 124281428.315 6        40.200    23649972.551 7  96842695.00747
        28.400    23649971.52747  23649972.336 3  92807564.424 3        33.100
  24618060.164 6 129368785.336 6        38.300                   100806851.58246
        20.600    24618063.05946
  20448310.922 9 107456621.145 9        51.900    20448317.668 9  83732447.78449
        55.700    20448316.44549  20448312.613 7  80243606.678 7        42.400
  24757498.430 6 130101532.495 6        40.200    24757501.629 6 101377822.95746
        21.800    24757502.10246
  24165169.758 6 126988812.430 6        40.500                    98952348.11447
        27.300    24165171.06647
  23735603.367 5 124731439.131 5        36.400                    97193351.94346
        20.100    23735606.31346
  21471075.406 9 112831280.677 9        50.900    21471081.520 9  87920554.02049
        54.400    21471081.48449  21471076.637 6  84257094.730 6        39.700
  20843146.477 9 109531483.944 9        52.200    20843153.090 9  85349237.57849
        55.300    20843152.44949  20843148.699 7  81792973.304 7        42.100
 21  1  3  1 17  0.0000000  0 11G01G32G21G23G16G08G14G22G20G10G27
  22773389.195 7 119674973.751 7        42.600    22773396.969 7  93253263.51647
        29.900    22773396.30147  22773391.699 5  89367714.360 5        35.600
  23457781.453 7 123271445.067 7        43.700    23457788.898 7  96055712.93649
        41.100    23457788.16449  23457784.598 3  92053385.144 3        32.700
  21696737.953 9 114017149.155 9        48.700                    88844542.07849
        40.100    21696740.29749
  23668852.031 6 124380665.821 6        40.800    23668856.473 7  96920022.90747
        26.000    23668855.77047  23668856.910 3  92881670.383 3        33.200
  24639744.992 5 129482739.564 5        36.500                   100895647.06445
        19.300    24639747.37945
  20444050.500 9 107434233.781 9        52.100    20444057.453 9  83715003.07949
        55.500    20444056.30149  20444052.762 7  80226888.836 7        42.300
  24741539.664 6 130017672.110 6        39.200    24741543.117 6 101312477.21846
        21.300    24741543.47346
  24144883.508 7 126882207.319 7        41.800                    98869279.22347
        27.500    24144884.59447
  23754486.859 5 124830677.014 5        36.200                    97270680.15945
        19.600    23754490.73445
  21481391.219 9 112885489.571 9        51.700    21481397.418 9  87962794.70949
        54.400    21481396.97349  21481391.895 6  84297575.380 6        39.900
  20853783.781 9 109587382.630 9        52.000    20853790.195 9  85392794.98749
        55.400    20853789.52049  20853785.875 7  81834715.811 7        42.100
 21  1  3  1 17 30.0000000  0 11G01G32G21G23G16G08G14G22G20G10G27
  22756440.180 7 119585905.305 7        42.800    22756447.590 7  93183859.54348
        30.400    22756447.11348  22756442.648 4  89301202.244 4        34.600
  23443084.961 7 123194211.065 7        42.800    23443091.566 7  95995530.61749
        41.400    23443090.52049  23443087.324 3  91995710.381 3        32.900
  21688342.227 9 113973031.271 9        49.500                    88810164.51449
        40.200    21688344.79749
  23687774.289 6 124480104.053 6        39.800    23687778.832 6  96997507.24547
        25.100    23687778.13747  23687779.707 3  92955926.151 3        33.300
  24661432.508 5 129596709.731 5        37.300                   100984454.99145
        18.300    24661435.60545
  20439878.797 9 107412310.169 9        52.000    20439885.484 9  83697919.74149
        55.400    20439884.46149  20439880.793 7  80210517.318 7        42.700
  24725649.828 5 129934168.977 5        37.800    24725653.492 5 101247409.84846
        20.600    24725652.42646  24725655.309 2  97028767.57812        31.400
  24124626.203 7 126775757.917 7        41.600                    98786331.64647
        27.300    24124627.75447
  23773403.578 5 124930077.727 5        37.100                    97348135.24446
        20.600    23773405.72346
  21491790.703 9 112940138.137 9        51.200    21491796.570 9  88005378.01949
        54.500    21491796.16449  21491791.227 6  84338384.398 6        39.700
  20864502.297 9 109643708.375 9        51.000    20864508.488 9  85436685.16849
        55.200    20864507.96549  20864504.160 7  81876777.254 7        41.600
 21  1  3  1 18  0.0000000  0 11G01G32G21G23G16G08G14G22G20G10G27
  22739524.195 7 119497010.184 7        42.800    22739531.602 7  93114590.64247
        29.800    22739530.91047  22739526.824 4  89234819.558 4        34.600
  23428444.594 7 123117276.223 7        43.400    23428451.414 7  95935581.39849
        41.700    23428450.39549  23428446.703 3  91938259.081 3        32.800
  21679988.328 9 113929127.584 9        48.900                    88775953.85549
        40.500    21679990.24249
  23706735.195 6 124579740.507 6        40.800    23706739.352 7  97075146.02947
        26.500    23706738.98847  23706739.777 3  93030329.996 3        32.800
  24683122.875 5 129710694.072 5        35.900                   101073273.95545
        19.600    24683126.51245
  20435795.164 9 107390851.231 9        51.900    20435801.871 9  83681198.49449
        55.000    20435800.93049  20435797.195 7  80194492.792 7        42.600
  24709827.711 6 129851025.614 6        38.300    24709832.527 6 101182622.75446
        20.900    24709831.25446  24709831.715 1  96966679.99111        30.400
  24104400.063 7 126669465.891 7        42.100                    98703506.70347
        27.900    24104401.39547
  23792349.227 5 125029638.765 5        37.600                    97425715.26946
        21.700    23792352.13346
  21502273.031 9 112995224.314 9        51.300    21502278.934 9  88048302.31349
        54.300    21502278.82449  21502274.055 6  84379520.197 6        39.600
  20875301.805 9 109700460.374 9        51.400    20875308.422 9  85480907.49549
        55.300    20875307.57449  20875303.980 7  81919156.959 7        41.100
 21  1  3  1 18 30.0000000  0 11G01G32G21G23G16G08G14G22G20G10G27
  22722641.695 7 119408289.402 7        42.600    22722648.141 7  93045457.58647
        29.600    22722647.61747  22722643.738 4  89168567.057 4        34.400
  23413862.313 7 123040643.639 7        43.700    23413868.848 7  95875867.69749
        42.200    23413867.77349  23413864.063 3  91881033.435 3        32.600
  21671673.898 9 113885438.320 9        49.100                    88741910.27149
        40.300    21671676.64849
  23725732.227 6 124679572.929 6        40.900    23725737.051 7  97152937.52647
        27.800    23725736.43047  23725737.039 2  93104880.152 2        31.500
  24704815.555 5 129824689.132 5        37.700                   101162101.23346
        20.400    24704818.92646
  20431800.445 9 107369858.633 9        52.000    20431807.414 9  83664840.62049
        55.700    20431806.32849  20431802.313 7  80178816.491 7        42.800
  24694074.586 5 129768244.632 5        36.700    24694079.316 6 101118118.03345
        19.900    24694077.95745  24694079.914 1  96904862.96011        29.700
  24084203.594 7 126563332.993 7        41.300                    98620805.76047
        26.400    24084203.99647
  23811325.172 6 125129358.260 6        38.000                    97503418.72746
        20.100    23811328.14846
  21512838.031 9 113050746.303 9        50.900    21512844.254 9  88091566.19549
        53.900    21512844.11349  21512839.742 6  84420981.385 6        40.100
  20886182.375 9 109757637.974 9        51.200    20886188.762 9  85525461.46249
        55.000    20886188.25849  20886184.445 7  81961854.519 7        41.800
 21  1  3  1 19  0.0000000  0 11G01G32G21G23G16G08G14G22G20G10G27
  22705791.438 7 119319743.577 7        42.700    22705798.574 7  92976460.86548
        31.000    22705798.26648  22705793.836 5  89102445.234 5        35.100
  23399337.352 7 122964316.030 7        43.400    23399343.855 7  95816391.64649
        42.300    23399343.35949  23399339.566 3  91824035.531 3        32.500
  21663401.008 9 113841963.665 9        49.300                    88708033.91049
        40.100    21663403.55549
  23744765.945 6 124779598.798 6        40.300    23744770.723 7  97230879.74147
        25.200    23744770.50847  23744770.918 1  93179574.798 1        30.400
  24726510.133 6 129938692.610 6        38.300                   101250935.13045
        19.600    24726512.44145
  20427894.742 9 107349333.422 9        51.600    20427901.586 9  83648846.94049
        55.900    20427900.45749  20427896.613 7  80163489.222 7        42.600
  24678391.188 5 129685828.513 5        37.400    24678395.328 5 101053897.70545
        19.000    24678394.35945  24678395.992 1  96843318.51511        30.600
  24064038.453 7 126457361.338 7        41.600                    98538230.45247
        26.800    24064038.93047
  23830331.445 6 125229233.921 6        40.200                    97581243.91346
        21.800    23830333.45746
  21523486.453 9 113106701.906 9        51.000    21523492.391 9  88135167.97949
        54.400    21523492.28149  21523487.719 6  84462766.437 6        39.700
  20897143.688 9 109815240.275 9        51.100    20897150.281 9  85570346.36449
        55.000    20897149.63749  20897146.004 7  82004869.207 7        41.800
 21  1  3  1 19 30.0000000  0 11G01G32G21G23G16G08G14G22G20G10G27
  22688974.672 7 119231373.728 7        41.400    22688982.465 7  92907601.25448
        31.400    22688982.42248  22688978.059 5  89036454.731 5        35.700
  23384871.164 7 122888296.460 7        43.500    23384878.125 7  95757155.63749
        42.200    23384877.16849  23384873.457 3  91767267.687 3        32.700
  21655168.719 9 113798703.509 9        48.700                    88674324.70449
        40.500    21655171.32849
  23763837.172 6 124879815.870 6        40.700    23763841.551 7  97308970.95746
        24.600    23763841.30946  23763842.234 3  93254412.288 3        32.800
  24748205.359 5 130052701.475 5        35.900                   101339773.22046
        20.100    24748207.93846
  20424078.266 9 107329277.570 9        51.700    20424084.848 9  83633219.00549
        55.100    20424083.99649  20424080.090 7  80148512.444 7        42.400
  24662778.180 6 129603779.953 6        38.000    24662782.859 6 100989963.78546
        20.600    24662780.83246
  24043902.883 6 126351552.889 6        40.500                    98455782.30947
        26.600    24043904.43047
  23849365.953 6 125329263.900 6        40.400                    97659189.40546
        22.800    23849368.25846
  21534216.844 9 113163089.333 9        50.900    21534222.848 9  88179106.23349
        54.500    21534222.58649  21534217.934 6  84504873.905 6        39.500
  20908186.047 9 109873266.599 9        51.700    20908192.258 9  85615561.68049
        55.000    20908191.87149  20908188.207 7  82048200.538 7        41.400
 21  1  3  1 20  0.0000000  0 12G01G32G21G23G16G28G08G14G22G20G10G27
  22672192.422 7 119143180.464 7        42.600    22672199.207 7  92838879.26348
        31.200    22672199.26248  22672194.973 4  88970596.120 4        34.700
  23370464.125 7 122812587.738 7        43.500    23370471.449 7  95698161.84149
        42.400    23370470.52049  23370466.746 3  91710731.994 3        33.500
  21646977.633 9 113755658.390 9        48.400                    88640783.05349
        40.900    21646980.35549
  23782943.633 6 124980221.666 6        40.300    23782948.262 6  97387209.21047
        25.300    23782947.71147  23782948.586 3  93329390.595 3        32.900
  24769900.914 5 130166713.928 5        36.600                   101428614.09345
        19.300    24769903.60945
  25480626.133 3 133901578.74313        32.200

  20420350.844 9 107309691.505 9        51.900    20420357.867 9  83617957.13049
        55.700    20420356.82049  20420353.195 7  80133886.478 7        42.100
  24647234.938 5 129522101.358 5        37.600    24647239.922 6 100926318.08345
        19.600    24647238.89545
  24023799.266 7 126245909.395 7        41.200                    98373462.72447
        28.100    24023801.14547
  23868430.016 6 125429445.576 6        39.400                    97737253.03846
        22.000    23868432.65646
  21545028.773 9 113219906.432 9        51.200    21545034.828 9  88223379.29349
        54.300    21545034.41849  21545029.875 6  84547302.285 6        39.500
  20919308.047 9 109931716.055 9        50.900    20919314.770 9  85661106.69549
        55.000    20919314.39149  20919310.691 7  82091847.864 7        41.800
 21  1  3  1 20 30.0000000  0 12G01G32G21G23G16G28G08G14G22G20G10G27
  22655444.172 7 119055164.522 7        42.400    22655450.828 7  92770295.42148
        30.900    22655450.70348  22655446.863 5  88904869.978 5        35.800
  23356117.180 7 122737192.722 7        44.600    23356124.012 7  95639412.48449
        42.700    23356123.11749  23356119.430 3  91654430.561 3        32.900
  21638827.039 9 113712827.905 9        49.100                    88607408.67149
        40.400    21638830.12149
  23802086.164 6 125080813.734 6        39.400    23802089.598 6  97465592.64846
        21.800    23802088.91846  23802090.477 3  93404507.972 3        32.600
  24791596.039 5 130280727.125 5        36.200                   101517455.47745
        19.300    24791600.16045
  25464561.086 5 133817151.944 5        36.000                   104273135.76455
        17.400    25464563.47745
  20416713.766 9 107290576.443 9        51.100    20416720.258 9  83603062.27549
        56.100    20416719.26649  20416715.578 7  80119612.238 7        42.800
  24631763.133 5 129440795.230 5        36.900    24631767.223 5 100862962.62146
        20.100    24631765.57046
  24003727.844 7 126140432.443 7        41.200                    98291272.89447
        27.800    24003729.36747
  23887522.273 6 125529777.217 6        39.400                    97815433.51846
        22.000    23887524.71546
  21555922.117 9 113277151.171 9        49.500    21555927.910 9  88267985.59649
        54.100    21555927.65249  21555922.996 6  84590049.973 6        39.700
  20930511.258 9 109990587.746 9        50.000    20930517.684 9  85706980.73949
        55.000    20930517.04749  20930513.367 7  82135810.512 7        41.600
 21  1  3  1 21  0.0000000  0 12G01G32G21G23G16G28G08G14G22G20G10G27
  22638728.539 7 118967326.733 7        41.500    22638736.359 7  92701850.41048
        30.600    22638735.78548  22638731.387 5  88839276.845 5        35.500
  23341830.336 7 122662114.229 7        44.300    23341836.777 7  95580909.76249
        42.800    23341835.90649  23341832.703 3  91598365.436 3        33.100
  21630717.625 9 113670212.007 9        49.100                    88574201.47749
        40.700    21630720.43849
  23821262.609 6 125181589.600 6        40.200    23821267.477 7  97544119.30847
        25.800    23821266.35547  23821267.398 3  93479762.643 3        32.700
  24813293.234 6 130394738.799 6        38.700                   101606295.72845
        19.300    24813295.54745
  25448541.789 5 133732971.449 5        37.500                   104207540.48945
        18.300    25448544.74245
  20413166.141 9 107271933.742 9        51.900    20413173.023 9  83588535.49449
        55.600    20413171.52349  20413167.934 7  80105690.751 7        42.700
  24616363.039 6 129359864.089 6        38.400    24616366.016 5 100799899.39046
        21.100    24616364.96546
  23983688.586 6 126035123.761 6        40.600                    98209214.21747
        27.800    23983689.43047
  23906642.648 6 125630256.552 6        38.100                    97893729.08046
        21.500    23906645.40646
  21566896.023 9 113334821.414 9        49.300    21566902.316 9  88312923.43849
        54.100    21566902.07049  21566897.141 6  84633115.378 6        39.300
  20941794.336 9 110049880.808 9        50.000    20941800.813 9  85753183.11749
        55.000    20941800.16449  20941796.230 6  82180087.764 6        40.900
 21  1  3  1 21 30.0000000  0 12G01G32G21G23G16G28G08G14G22G20G10G27
  22622047.031 7 118879667.968 7        41.700    22622054.633 7  92633544.89648
        30.700    22622054.05948  22622050.078 4  88773817.430 4        34.900
  23327603.625 7 122587355.221 7        43.600    23327610.781 7  95522655.98649
        42.700    23327609.80149  23327606.133 3  91542538.882 3        32.900
  21622649.188 9 113627810.908 9        48.500                    88541161.66249
        40.500    21622651.69149
  23840474.773 6 125282547.063 6        40.700    23840478.973 7  97622787.43847
        26.200    23840478.83247  23840480.082 3  93555152.965 3        32.800
  24834987.227 5 130508745.907 5        37.000                   101695132.47845
        19.000    24834990.11345
  25432568.930 4 133649040.065 4        34.600                   104142139.47345
        16.300    25432573.42645
  20409708.727 9 107253764.763 9        51.300    20409715.313 9  83574377.83449
        55.600    20409714.02749  20409710.664 7  80092122.987 7        42.400
  24601033.922 6 129279310.493 6        38.300    24601038.586 5 100737130.36946
        20.900    24601036.11746
  23963681.266 6 125929985.450 6        40.800                    98127288.26347
        27.200    23963682.41047
  23925790.797 5 125730881.563 5        36.700                    97972138.19646
        20.100    23925793.48846
  21577951.070 9 113392915.303 9        50.600    21577957.133 9  88358191.40549
        54.400    21577957.01249  21577951.949 6  84676497.204 6        39.700
  20953157.547 9 110109594.505 9        51.100    20953163.824 9  85799713.27149
        55.000    20953163.22749  20953159.289 7  82224679.156 7        41.600
 21  1  3  1 22  0.0000000  0 12G01G32G21G23G16G28G08G14G22G20G10G27
  22605400.875 7 118792189.039 7        42.600    22605407.895 7  92565379.52148
        31.400    22605407.69948  22605403.172 5  88708492.266 5        35.000
  23313439.078 7 122512918.619 7        44.100    23313446.059 7  95464653.44149
        43.000    23313445.00849  23313441.270 3  91486953.110 3        33.100
  21614621.125 9 113585624.493 9        49.100                    88508289.13849
        41.100    21614624.23449
  23859720.031 6 125383683.710 6        40.000    23859725.098 7  97701595.19647
        26.800    23859724.29347  23859725.418 3  93630677.058 3        33.100
  24856681.344 5 130622746.033 5        37.800                   101783963.72846
        20.900    24856684.89546
  25416645.164 3 133565360.362 3        32.400                   104076934.36055
        15.600    25416650.34045
  20406341.586 9 107236070.628 9        51.500    20406348.309 9  83560590.19749
        56.500    20406346.94549  20406343.555 7  80078909.829 7        42.500
  24585777.023 5 129199136.985 5        37.700    24585782.238 7 100674657.48846
        21.800    24585781.34846
  23943706.852 7 125825019.139 7        41.400                    98045496.38347
        29.400    23943708.25847
  23944965.945 5 125831649.931 5        35.900                    98050658.96046
        20.900    23944969.27046
  21589086.023 9 113451430.747 9        49.400    21589092.285 9  88403787.86349
        54.100    21589092.19149  21589086.941 6  84720193.826 6        39.200
  20964600.531 9 110169727.992 9        49.900    20964606.930 9  85846570.52449
        55.100    20964606.39549  20964602.680 7  82269584.024 7        41.400
 21  1  3  1 22 30.0000000  0 12G01G32G21G23G16G28G08G14G22G20G10G27
  22588787.891 7 118704890.435 7        41.800    22588796.191 7  92497354.63848
        30.900    22588795.35548  22588790.828 5  88643301.767 5        35.300
  23299336.688 7 122438807.044 7        44.300    23299343.152 7  95406904.17449
        43.300    23299342.22749  23299338.457 3  91431610.073 3        32.900
  21606634.375 9 113543652.929 9        49.200                    88475584.03449
        41.100    21606637.22749
  23879000.281 6 125484996.996 6        39.600    23879003.004 7  97780540.60447
        25.800    23879003.02747  23879004.688 3  93706333.085 3        33.100
  24878371.625 5 130736736.429 5        35.400                   101872787.39145
        17.400    24878375.78945
  25400772.047 6 133481933.904 6        38.500                   104011926.70345
        17.800    25400774.60945
  20403065.039 9 107218851.771 9        50.500    20403071.609 9  83547172.90349
        55.200    20403070.46149  20403067.160 7  80066051.601 7        43.000
  24570593.344 5 129119345.852 5        37.600    24570597.316 6 100612482.55945
        19.600    24570596.72745
  23923765.695 7 125720226.570 7        41.000                    97963839.83747
        29.300    23923766.71547
  23964169.273 5 125932559.701 5        36.800                    98129289.93546
        22.200    23964172.68446
  21600301.234 9 113510365.508 9        50.000    21600307.051 9  88449711.04649
        54.200    21600307.11749  21600302.000 6  84764203.531 6        39.700
  20976123.063 9 110230280.147 9        51.000    20976129.715 9  85893754.02049
        55.300    20976129.18449  20976125.590 6  82314801.549 6        40.900
 21  1  3  1 23  0.0000000  0 12G01G32G21G23G16G28G08G14G22G20G10G27
  22572210.688 7 118617772.976 7        43.100    22572218.188 7  92429470.92748
        31.300    22572217.86348  22572213.496 5  88578246.551 5        35.500
  23285295.586 7 122365023.267 7        44.400    23285302.539 7  95349410.32849
        43.300    23285301.60549  23285297.980 3  91376511.776 3        33.700
  21598688.352 9 113501896.092 9        49.600                    88443046.24149
        41.000    21598690.96149
  23898311.383 6 125586484.473 6        38.900    23898316.504 7  97859621.75047
        25.600    23898315.57847  23898316.527 3  93782119.196 3        32.100
  24900062.398 6 130850714.437 6        38.900                   101961601.43146
        20.600    24900065.22746
  25384945.813 7 133398762.992 7        41.000                   103947118.23446
        20.900    25384947.58246
  20399878.672 9 107202110.006 9        50.500    20399885.766 9  83534127.36349
        56.100    20399884.67649  20399880.859 7  80053549.631 7        42.600
  24555483.492 5 129039939.561 5        37.600    24555486.375 5 100550607.53645
        19.900    24555485.85245
  23903857.836 7 125615609.789 7        42.100                    97882320.28147
        28.200    23903859.08647
  23983398.352 5 126033608.592 5        36.500                    98208029.29446
        20.100    23983400.81346
  21611595.516 9 113569717.415 9        48.700    21611601.207 9  88495959.29349
        53.800    21611601.31649  21611596.383 6  84808524.772 6        39.600
  20987725.398 9 110291250.035 9        50.000    20987731.836 9  85941263.01649
        55.200    20987731.39549  20987727.871 7  82360330.977 7        41.700
 21  1  3  1 23 30.0000000  0 12G01G32G21G23G16G28G08G14G22G20G10G27
  22555667.297 7 118530837.352 7        42.600    22555674.461 7  92361728.90748
        31.300    22555674.20748  22555670.090 5  88513327.095 5        35.200
  23271318.180 7 122291570.024 7        44.000    23271324.832 7  95292174.04849
        43.500    23271323.59449  23271320.551 3  91321660.347 3        33.500
  21590783.414 9 113460353.968 9        49.400                    88410675.76049
        41.000    21590785.57449
  23917656.945 6 125688143.666 6        39.500    23917661.813 7  97938836.68347
        25.600    23917661.07447  23917662.035 3  93858033.493 3        32.800
  24921748.313 5 130964677.891 5        37.300                   102050404.10745
        19.900    24921751.74245
  25369166.875 4 133315849.947 4        34.900                   103882510.63545
        17.400    25369169.48845
  20396784.234 9 107185845.965 9        50.500    20396790.961 9  83521454.07849
        55.800    20396789.84849  20396785.988 7  80041404.399 7        42.600
  24540446.359 5 128960920.438 5        37.500    24540449.512 6 100489034.20946
        20.100    24540449.79746
  23883984.281 7 125511170.389 7        42.200                    97800938.94147
        28.100    23883984.71547
  24002652.344 3 126134794.519 3        33.700                    98286875.47545
        17.800    24002655.64845
  21622968.852 9 113629484.350 9        49.300    21622974.855 9  88542530.92649
        54.100    21622974.43849  21622969.469 6  84853155.920 6        39.400
  20999406.938 9 110352636.680 9        49.900    20999413.297 9  85989096.76349
        55.000    20999412.79749  20999409.242 7  82406171.643 7        41.300
 21  1  3  1 24  0.0000000  0 12G01G32G21G23G16G28G08G14G22G20G10G27
  22539158.625 7 118444084.910 7        42.500    22539166.141 7  92294129.63248
        31.900    22539166.11748  22539161.535 5  88448544.491 5        35.400
  23257404.289 7 122218450.792 7        44.200    23257410.516 7  95235198.03049
        43.300    23257409.92249  23257406.059 3  91267058.313 3        33.200
  21582919.031 9 113419026.615 9        49.700                    88378472.62949
        40.900    21582921.13349
  23937033.922 6 125789972.807 6        39.500    23937039.184 7  98018184.04646
        24.800    23937038.71546  23937040.293 3  93934074.706 3        33.600
  24943431.922 5 131078623.784 5        37.300                   102139193.08145
        18.600    24943435.41045
  25353437.914 5 133233197.744 5        35.200                   103818106.29745
        16.900    25353441.72745
  20393780.430 9 107170061.871 9        50.400    20393787.441 9  83509154.77849
        55.500    20393786.23049  20393782.266 7  80029617.578 7        42.700
  24525483.391 6 128882291.572 6        38.000    24525487.543 6 100427764.91946
        20.600    24525487.19146
  23864143.828 7 125406910.381 7        41.400                    97719697.38347
        28.000    23864144.50847
  24021933.422 5 126236115.825 5        35.400                    98365827.10745
        18.300    24021936.22345
  21634420.328 9 113689664.822 9        49.500    21634426.621 9  88589424.80849
        53.800    21634426.27749  21634421.820 6  84898095.877 6        39.900
  21011167.367 9 110414439.678 9        49.800    21011173.875 9  86037254.93149
        55.000    21011173.30949  21011169.719 7  82452323.249 7        41.200
 21  1  3  1 24 30.0000000  0 12G01G32G21G23G16G28G08G14G22G20G10G27
  22522685.313 7 118357515.908 7        41.800    22522692.348 7  92226673.28049
        36.900    22522691.98449  22522687.801 5  88383898.835 5        35.200
  23243553.984 8 122145667.786 8        45.100    23243560.473 7  95178484.00549
        43.800    23243559.96949  23243555.617 3  91212707.441 3        33.200
  21575095.516 9 113377914.409 9        48.900                    88346437.14449
        40.900    21575097.89549
  23956443.750 6 125891969.061 6        38.300    23956447.520 6  98097661.62146
        24.300    23956447.45346  23956448.910 2  94010240.690 2        31.100
  24965111.273 6 131192550.146 6        38.700                   102227966.83545
        18.600    24965114.85945
  25337761.078 6 133150808.139 6        38.100                   103753906.49245
        17.800    25337762.88745
  20390868.125 9 107154757.578 9        50.700    20390875.094 9  83497229.35149
        56.000    20390873.89849  20390869.945 7  80018189.032 7        42.500
  24510595.547 5 128804054.847 5        37.300    24510599.707 6 100366801.24246
        21.300    24510600.54746
  23844337.555 6 125302831.154 6        40.900                    97638596.69447
        27.400    23844338.95747
  24041239.883 5 126337569.825 5        37.300                    98444882.15945
        19.000    24041243.09445
  21645950.906 9 113750256.176 9        51.200    21645956.902 9  88636638.84749
        53.900    21645956.51249  21645951.809 6  84943342.669 6        39.700
  21023007.344 9 110476657.641 9        51.400    21023013.809 9  86085736.45049
        54.900    21023013.14849  21023009.168 7  82498784.709 7        41.700
 21  1  3  1 25  0.0000000  0 12G01G32G21G23G16G28G08G14G22G20G10G27
  22506246.539 7 118271130.926 7        42.300    22506254.078 7  92159360.34449
        37.400    22506253.93849  22506249.367 5  88319390.562 5        35.500
  23229767.992 7 122073223.701 7        44.100    23229774.871 7  95122034.08649
        43.800    23229774.04749  23229769.090 3  91158609.579 3        33.200
  21567312.844 9 113337016.947 9        48.800                    88314569.00849
        41.000    21567315.53549
  23975884.172 6 125994129.822 6        39.300    23975888.461 6  98177267.41847
        25.000    23975887.67647  23975888.699 1  94086529.584 1        30.700
  24986786.078 5 131306454.504 5        36.000                   102316723.47145
        18.300    24986789.68445
  25322132.555 6 133068683.149 6        38.100                   103689912.93145
        16.900    25322135.27045
  20388047.273 9 107139934.211 9        50.200    20388054.363 9  83485678.67149
        56.600    20388053.17249  20388049.074 7  80007119.632 7        42.900
  24495782.930 6 128726212.628 6        40.000    24495787.582 7 100306144.95946
        22.600    24495787.63346
  23824567.664 7 125198934.420 7        41.600                    97557638.21847
        27.500    23824568.28547
  24060571.141 6 126439154.302 6        38.100                    98524038.86546
        20.100    24060574.00846
  21657558.563 9 113811256.142 9        50.200    21657564.820 9  88684171.28749
        53.800    21657564.41449  21657560.121 6  84988894.601 6        39.500
  21034925.633 9 110539289.417 9        51.000    21034932.285 9  86134540.42149
        55.000    21034931.55149  21034927.793 7  82545555.180 7        41.700
 21  1  3  1 25 30.0000000  0 12G01G32G21G23G16G28G08G14G22G20G10G27
  22489843.359 7 118184931.365 7        42.800    22489850.391 7  92092191.88049
        42.200    22489850.28949  22489846.258 5  88255020.844 5        35.900
  23216047.313 7 122001121.834 7        44.300    23216054.164 7  95065850.82649
        43.500    23216053.03149  23216049.852 3  91104767.329 3        33.400
  21559571.617 9 113296334.584 9        48.900                    88282868.46349
        41.300    21559574.00449
  23995356.484 6 126096453.374 6        39.400    23995360.449 7  98257000.04046
        24.700    23995360.12546  23995360.457 2  94162940.07612        31.000
  25008457.305 6 131420333.730 6        38.300                   102405460.51746
        20.100    25008461.02046
  25306554.891 5 132986825.333 5        37.400                   103626127.65345
        19.300    25306558.86745
  20385318.375 9 107125593.822 9        50.800    20385325.305 9  83474504.34049
        55.600    20385324.20749  20385320.277 7  79996410.883 7        43.100
  24481046.508 6 128648767.917 6        39.300    24481050.098 6 100245798.41746
        22.000    24481049.89846
  23804831.047 7 125095222.368 7        41.300                    97476823.64347
        29.100    23804832.53947
  24079926.852 5 126540867.767 5        37.600                    98603296.14745
        19.000    24079929.16845
  21669243.969 9 113872663.214 9        49.600    21669250.184 9  88732020.94749
        53.600    21669249.81349  21669245.180 6  85034750.517 6        39.900
  21046922.789 9 110602334.684 9        49.800    21046929.387 9  86183666.59649
        55.200    21046928.67249  21046924.945 7  82592634.411 7        41.600
 21  1  3  1 26  0.0000000  0 12G01G32G21G23G16G28G08G14G22G20G10G27
  22473475.344 7 118098917.556 7        43.200    22473482.664 7  92025168.15449
        42.400    22473481.96549  22473478.242 5  88190789.751 5        35.300
  23202392.789 7 121929364.645 7        44.400    23202399.031 7  95009936.15149
        43.900    23202398.68449  23202394.371 3  91051182.317 3        33.200
  21551870.672 9 113255866.985 9        48.800                    88251335.25449
        40.900    21551873.12949
  24014857.828 6 126198936.976 6        38.600    24014862.328 7  98336857.37246
        24.300    24014861.90646  24014862.648 2  94239470.015 2        31.200
  25030122.000 6 131534185.554 6        38.100                   102494176.24945
        19.900    25030125.79745
  25291027.883 4 132905236.991 4        34.700                   103562552.33245
        16.300    25291032.31345
  20382681.594 9 107111736.257 9        50.500    20382688.469 9  83463706.23249
        55.800    20382687.12149  20382683.172 7  79986062.690 7        42.600
  24466385.094 6 128571722.583 6        38.900    24466388.113 6 100185763.08846
        20.400    24466387.43446
  23785131.320 7 124991696.504 7        42.400                    97396154.14748
        30.200    23785132.44148
  24099305.914 5 126642707.869 5        37.800                    98682652.04345
        17.800    24099308.93045
  21681006.438 9 113934474.841 9        49.600    21681012.332 9  88780185.86149
        53.800    21681012.27749  21681007.285 6  85080908.553 6        39.200
  21058998.453 9 110665791.965 9        50.000    21059005.031 9  86233113.82049
        55.000    21059004.28549  21059000.648 7  82640021.332 7        41.300
 21  1  3  1 26 30.0000000  0 12G01G32G21G23G16G28G08G14G22G20G10G27
  22457143.492 7 118013090.279 7        42.400    22457150.438 7  91958289.78449
        42.500    22457149.88749  22457145.020 5  88126698.000 5        35.200
  23188803.453 7 121857954.846 7        44.300    23188810.195 7  94954292.14649
        44.100    23188809.59449  23188805.742 3  90997856.837 3        33.800
  21544210.336 9 113215614.139 9        49.100                    88219969.40649
        40.900    21544213.43849
  24034389.438 6 126301578.347 6        38.200    24034394.152 6  98416837.62046
        20.900    24034393.79746  24034394.813 1  94316117.732 1        29.800
  25051781.898 5 131648007.388 5        37.000                   102582868.57645
        18.600    25051785.21145
  25275554.648 4 132823920.193 4        34.600                   103499188.51345
        15.600    25275558.11345
  20380136.844 9 107098362.983 9        51.000    20380143.387 9  83453285.49349
        55.600    20380142.31349  20380138.602 7  79976076.173 7        42.800
  24451799.977 5 128495079.253 5        37.900    24451803.055 6 100126041.02245
        19.900    24451803.04345
  23765466.859 7 124888358.661 7        42.200                    97315631.14448
        30.000    23765467.66448
  24118709.414 6 126744672.430 6        38.100                    98762104.95945
        18.600    24118711.75845
  21692845.547 9 113996688.917 9        50.700    21692851.465 9  88828664.36949
        53.700    21692851.39849  21692846.547 6  85127367.131 6        39.000
  21071152.125 9 110729660.342 9        51.500    21071158.473 9  86282881.37449
        55.200    21071158.10949  21071154.363 7  82687715.251 7        41.100
 21  1  3  1 27  0.0000000  0 12G01G32G21G23G16G28G08G14G22G20G10G27
  22440846.688 7 117927450.727 7        43.400    22440853.391 7  91891557.68949
        42.900    22440853.09449  22440849.148 5  88062746.411 5        35.800
  23175281.250 7 121786895.702 7        44.500    23175288.164 7  94898921.38949
        43.900    23175287.42649  23175283.469 3  90944793.230 3        33.300
  21536591.391 9 113175576.610 9        48.900                    88188771.32349
        41.100    21536594.47349
  24053951.820 6 126404375.404 6        38.600    24053955.492 5  98496939.25646
        21.100    24053954.46146  24053956.074 1  94392881.753 1        30.000
  25073435.875 6 131761796.464 6        38.200                   102671535.36946
        20.400    25073438.55946
  25260134.164 5 132742877.630 5        37.500                   103436038.42045
        16.300    25260135.54345
  20377684.266 9 107085476.063 9        51.100    20377691.234 9  83443243.72749
        56.100    20377689.94549  20377686.355 7  79966452.813 7        42.300
  24437291.891 6 128418840.649 6        38.800    24437296.090 6 100066634.28846
        21.100    24437294.94146
  23745837.828 7 124785210.931 7        41.100                    97235256.28747
        28.700    23745839.34447
  24138135.313 5 126846759.873 5        37.100                    98841653.63345
        17.800    24138139.10545
  21704760.742 9 114059303.761 9        50.100    21704766.809 9  88877455.14549
        53.600    21704766.56349  21704762.000 6  85174124.974 6        40.000
  21083383.836 9 110793939.233 9        50.900    21083390.402 9  86332968.80949
        55.000    21083389.89849  21083386.484 6  82735715.686 6        40.900
 21  1  3  1 27 30.0000000  0 12G01G32G21G23G16G28G08G14G22G20G10G27
  22424585.305 7 117841999.241 7        42.700    22424592.867 7  91824972.13649
        42.600    22424592.67249  22424588.402 5  87998935.277 5        35.900
  23161826.266 7 121716189.469 7        44.000    23161833.156 7  94843825.63349
        43.800    23161832.32449  23161828.949 3  90891993.12713        33.700
  21529013.898 9 113135754.108 9        48.500                    88157740.81149
        41.100    21529016.55949
  24073542.156 6 126507325.522 6        38.300    24073546.816 6  98577160.11546
        21.100    24073546.28946  24073546.813 1  94469760.07611        29.400
  25095083.227 6 131875550.963 6        38.600                   102760175.23546
        21.300    25095085.83646
  25244764.352 5 132662111.072 5        36.700                   103373103.43445
        17.400    25244766.26245
  20375324.664 9 107073075.342 9        50.300    20375331.398 9  83433580.83249
        55.100    20375330.30549  20375326.609 7  79957192.524 7        42.500
  24422861.695 6 128343008.794 6        39.700    24422866.086 6 100007544.50146
        21.800    24422864.87146  24422865.957 1  95840557.34511        30.600
  23726246.016 7 124682254.677 7        41.300                    97155030.64747
        26.900    23726246.54747
  24157585.484 5 126948967.702 5        36.200                    98921296.08945
        16.900    24157588.12145
  21716751.344 9 114122316.759 9        50.200    21716757.672 9  88926556.18249
        53.500    21716757.51249  21716752.563 6  85221180.122 6        39.500
  21095693.609 9 110858627.170 9        51.200    21095700.289 9  86383374.97249
        55.600    21095699.52049  21095696.133 6  82784021.611 6        40.900
 21  1  3  1 28  0.0000000  0 12G01G32G21G23G16G28G08G14G22G20G10G27
  22408360.984 7 117756736.984 7        43.500    22408367.480 7  91758534.05649
        42.800    22408367.54349  22408363.012 5  87935265.453 5        36.000
  23148439.156 7 121645839.332 7        44.700    23148446.004 7  94789007.35349
        44.100    23148445.58649  23148441.570 3  90839458.979 3        33.700
  21521476.758 9 113096147.191 9        48.500                    88126878.27749
        41.300    21521479.43449
  24093161.836 6 126610426.716 6        38.800    24093166.266 6  98657498.64846
        21.500    24093165.77346  24093167.164 2  94546751.22012        31.400
  25116720.867 3 131989268.229 3        33.700                   102848786.10845
        15.600    25116725.53145
  25229448.180 5 132581623.303 5        37.600                   103310385.62945
        16.300    25229450.02045
  20373057.453 9 107061162.495 9        50.200    20373064.547 9  83424298.07949
        55.100    20373063.49649  20373059.785 7  79948296.561 7        43.100
  24408509.469 6 128267586.416 6        38.700    24408513.918 6  99948773.81146
        21.700    24408512.18446  24408514.277 2  95784235.417 2        31.000
  23706691.242 7 124579491.877 7        41.600                    97074955.76547
        27.600    23706691.93847
  24177056.742 4 127051294.225 4        34.100                    99001031.01545
        16.300    24177059.96145
  21728818.289 9 114185726.182 9        50.900    21728824.090 9  88975966.12149
        53.800    21728824.02049  21728819.035 6  85268531.316 6        39.500
  21108081.352 9 110923723.543 9        51.000    21108087.895 9  86434099.42249
        55.200    21108086.87549  21108083.477 7  82832632.514 7        41.100
 21  1  3  1 28 30.0000000  0 12G01G32G21G23G16G28G08G14G22G20G10G27
  22392172.547 7 117671664.569 7        44.300    22392178.859 7  91692243.87849
        43.600    22392178.80949  22392174.176 5  87871737.372 5        35.800
  23135120.680 7 121575847.925 7        44.600    23135127.395 7  94734468.60749
        44.400    23135126.67649  23135122.754 3  90787192.67213        33.800
  21513981.063 9 113056755.397 9        49.000                    88096183.37549
        41.400    21513983.58649
  24112810.477 6 126713676.348 6        38.400    24112813.688 6  98737952.93046
        20.600    24112813.44946  24112815.004 2  94623853.235 2        31.700
  25138353.781 5 132102945.780 5        37.100                   102937365.97345
        19.300    25138356.94545
  25214185.086 5 132501416.125 5        37.500                   103247886.55345
        17.400    25214186.85245
  20370883.719 9 107049738.233 9        50.100    20370890.680 9  83415396.04849
        55.900    20370889.39149  20370885.457 7  79939765.450 7        42.600
  24394234.734 6 128192575.667 6        38.400    24394239.754 6  99890323.90146
        21.500    24394238.97346  24394240.320 1  95728220.910 1        30.900
  23687173.180 7 124476924.323 7        42.000                    96995032.98847
        29.100    23687173.89547
  24196551.148 4 127153737.156 4        34.500                    99080856.68144
        14.800    24196554.35244
  21740959.797 9 114249529.667 9        50.600    21740965.410 9  89025683.13349
        53.600    21740965.08649  21740960.098 6  85316176.766 6        39.100
  21120546.242 9 110989227.119 9        50.500    21120552.664 9  86485141.15449
        55.000    21120551.97749  21120548.156 6  82881547.508 6        40.700
 21  1  3  1 29  0.0000000  0 12G01G32G21G23G16G28G08G14G22G20G10G27
  22376019.352 7 117586782.992 7        43.600    22376026.352 7  91626102.39649
        43.000    22376026.14149  22376021.938 5  87808351.754 5        35.600
  23121870.828 7 121506218.028 7        44.400    23121876.910 7  94680211.55149
        44.300    23121876.46149  23121872.699 4  90735196.306 4        34.500
  21506525.914 9 113017579.132 9        48.900                    88065656.41849
        41.100    21506528.60249
  24132485.188 6 126817072.595 6        38.000    24132488.914 6  98818521.42145
        19.900    24132488.02745  24132489.973 2  94701064.670 2        31.500
  25159978.656 5 132216581.225 5        36.400                   103025913.10245
        18.300    25159981.23045
  25198976.445 5 132421492.479 5        35.500                   103185608.28445
        16.900    25198978.85545
  20368802.820 9 107038803.747 9        50.200    20368809.801 9  83406875.66349
        56.100    20368808.76249  20368804.652 7  79931600.077 7        42.800
  24380040.453 6 128117979.325 6        38.300    24380043.902 6  99832196.87246
        20.900    24380042.90646  24380044.578 1  95672515.759 1        30.800
  23667692.352 7 124374553.843 7        42.400                    96915263.76347
        29.400    23667693.17247
  24216067.188 1                        30.800
        14.800    24216069.91044
  21753175.352 9 114313725.381 9        50.800    21753181.289 9  89075705.76549
        53.400    21753181.30949  21753176.223 6  85364115.138 6        39.400
  21133088.289 9 111055137.127 9        50.900    21133094.934 9  86536499.59949
        55.000    21133094.34449  21133090.457 7  82930766.025 7        41.300
 21  1  3  1 29 30.0000000  0 12G01G32G21G23G16G28G08G14G22G20G10G27
  22359903.688 7 117502092.978 7        43.400    22359910.293 7  91560110.19849
        42.800    22359909.93049  22359906.277 5  87745109.259 5        36.300
  23108689.484 7 121436952.464 7        44.700    23108696.387 7  94626238.39149
        44.100    23108695.41049  23108691.625 3  90683472.026 3        33.400
  21499112.039 9 112978618.316 9        48.600                    88035297.35349
        41.800    21499114.55949
  24152188.484 5 126920613.114 5        37.100    24152192.891 6  98899202.34346
        20.900    24152191.86746  24152192.324 1  94778383.86011        30.500
  25181592.328 3 132330171.784 3        32.500                   103114425.17545
        16.300    25181596.37945
  25183821.695 5 132341853.989 5        37.300                   103123552.35045
        17.400    25183823.73445
  20366815.539 9 107028359.961 9        50.700    20366822.379 9  83398737.64149
        55.700    20366821.35549  20366817.461 7  79923801.135 7        42.600
  24365924.070 6 128043799.524 6        39.800    24365928.688 6  99774394.42546
        22.200    24365927.38746  24365929.117 1  95617121.783 1        30.500
  23648249.680 7 124272382.058 7        42.200                    96835649.39247
        29.400    23648250.91847
  24235604.094 1 127358965.25011        29.100                    99240774.64652
        12.600    24235607.21142
  21765465.813 9 114378311.070 9        50.300    21765471.535 9  89126032.27549
        53.300    21765471.18049  21765466.391 6  85412344.702 6        38.500
  21145707.930 9 111121452.496 9        51.200    21145714.094 9  86588173.90249
        55.400    21145713.84049  21145709.773 6  82980287.244 6        40.700
 21  1  3  1 30  0.0000000  0 12G01G32G21G23G16G28G08G14G22G20G10G27
  22343823.750 7 117417594.727 7        43.400    22343830.734 7  91494267.41149
        42.500    22343830.24649  22343826.242 5  87682009.918 5        36.200
  23095578.258 7 121368053.256 7        44.400    23095585.313 7  94572550.70449
        43.900    23095584.21949  23095580.934 4  90632021.365 4        34.100
  21491738.797 9 112939871.850 9        49.600                    88005105.30249
        41.700    21491741.37549
  24171918.711 5 127024294.799 5        37.300    24171923.488 6  98979993.26346
        22.300    24171922.80546  24171923.258 3  94855808.497 3        32.000
  25203200.125 5 132443714.211 5        35.500                   103202899.79945
        17.400    25203203.17645
  25168722.078 6 132262502.712 6        38.400                   103061720.11545
        19.300    25168723.75445
  20364921.547 9 107018407.182 9        50.500    20364928.418 9  83390982.22449
        55.900    20364927.41849  20364923.578 7  79916368.861 7        42.200
  24351888.469 6 127970038.109 6        40.200    24351892.441 6  99716917.97846
        22.900    24351892.08646  24351892.777 2  95562040.179 2        31.000
  23628845.656 7 124170410.148 7        41.800                    96756190.77447
        29.400    23628845.95747
  24255162.430 1 127461745.60111        29.900

  21777829.672 9 114443283.973 9        49.200    21777835.734 9  89176660.50649
        53.300    21777835.37549  21777830.488 6  85460863.425 6        39.200
  21158404.164 9 111188171.468 9        49.700    21158410.301 9  86640162.69549
        55.000    21158410.02049  21158406.020 7  83030109.838 7        41.100
 21  1  3  1 30 30.0000000  0 12G01G32G21G23G16G28G08G14G22G20G10G27
  22327780.898 7 117333289.146 7        43.100    22327788.270 7  91428574.75749
        43.200    22327787.89549  22327783.430 5  87619054.463 5        36.500
  23082537.602 7 121299523.346 7        44.600    23082544.445 7  94519150.78349
        44.100    23082543.36749  23082539.473 4  90580846.402 4        34.300
  21484406.289 9 112901340.829 9        49.100                    87975081.13149
        41.400    21484409.28949
  24191675.398 5 127128115.735 5        37.500    24191679.859 7  99060892.65046
        22.200    24191678.88346  24191679.859 3  94933337.095 3        32.500
  25224796.961 5 132557206.685 5        36.600                   103291335.48945
        17.800    25224800.33645
  25153676.375 5 132183440.932 5        37.500                   103000113.59445
        17.400    25153678.84445
  20363121.531 9 107008946.816 9        50.900    20363128.344 9  83383610.50149
        56.300    20363127.10249  20363123.395 7  79909304.290 7        42.500
  24337932.031 6 127896697.561 6        40.200    24337936.359 7  99659769.49846
        22.300    24337936.55546  24337936.207 2  95507272.847 2        31.100
  23609478.805 7 124068640.077 7        41.600                    96676889.43248
        30.000    23609480.49248
  24274742.531 1 127564634.107 1        29.600

  21790267.195 9 114508642.112 9        51.000    21790272.852 9  89227588.93149
        53.400    21790272.68449  21790268.207 6  85509669.809 6        38.900
  21171176.984 9 111255293.235 9        50.600    21171183.375 9  86692465.36349
        55.200    21171182.60949  21171179.246 6  83080233.221 6        40.800
 21  1  3  1 31  0.0000000  0 12G01G32G21G23G16G28G08G14G22G20G10G27
  22311775.313 7 117249177.210 7        43.400    22311782.473 8  91363033.03449
        44.100    22311782.39149  22311777.906 5  87556243.668 5        36.400
  23069567.844 8 121231365.648 8        45.300    23069574.270 7  94466040.89049
        44.700    23069573.76249  23069569.785 3  90529949.429 3        33.700
  21477115.305 9 112863025.279 9        48.800                    87945224.86649
        41.700    21477117.72349
  24211457.328 5 127232073.705 5        37.800    24211461.129 6  99141898.84646
        21.800    24211461.26246  24211462.387 2  95010967.953 2        31.700
  25246383.969 5 132670646.756 5        35.100                   103379730.31645
        17.400    25246387.49245
  25138686.984 5 132104671.114 5        36.500                   102938734.45645
        17.400    25138689.10545
  20361414.703 9 106999979.900 9        50.800    20361421.840 9  83376623.28649
        55.600    20361420.83249  20361416.848 7  79902608.216 7        42.800
  24324054.781 5 127823780.450 5        37.600    24324060.285 7  99602950.91346
        21.700    24324059.94946  24324061.555 2  95452821.800 2        31.600
  23590151.391 7 123967073.785 7        41.300                    96597746.87347
        29.100    23590152.93047
  24294341.188 1 127667628.98111        30.800

  21802776.945 9 114574383.521 9        50.700    21802783.148 9  89278815.99749
        53.100    21802782.93449  21802777.762 6  85558762.444 6        38.900
  21184026.125 9 111322816.849 9        50.700    21184032.809 9  86745081.16349
        55.100    21184031.91049  21184028.477 6  83130656.684 6        40.700
 21  1  3  1 31 30.0000000  0 12G01G32G21G23G16G28G08G14G22G20G10G27
  22295806.883 7 117165259.642 7        44.300    22295813.445 7  91297642.74549
        44.700    22295813.07049  22295809.332 5  87493577.952 5        36.900
  23056669.023 8 121163582.657 8        45.900    23056675.742 7  94413222.98349
        44.400    23056674.92249  23056671.121 3  90479332.260 3        33.700
  21469864.563 9 112824924.953 9        49.500                    87915536.29949
        41.100    21469867.40249
  24231265.375 6 127336166.325 6        38.100    24231270.410 7  99223009.98346
        21.800    24231269.19146  24231269.508 1  95088699.491 1        30.100
  25267960.602 5 132784032.099 5        36.100                   103468082.57745
        16.900    25267963.62545
  25123753.180 5 132026195.208 5        36.600                   102877584.39745
        16.900    25123756.08645
  20359802.422 9 106991507.144 9        51.300    20359809.363 9  83370021.13249
        55.700    20359808.37949  20359804.523 7  79896281.153 7        42.800
  24310260.680 5 127751288.918 5        37.200    24310265.258 6  99546464.01346
        20.900    24310265.32446  24310265.020 1  95398688.499 1        30.100
  23570862.836 7 123865713.179 7        42.100                    96518764.59648
        30.600    23570864.65648
  24313960.008 2 127770728.085 2        31.900

  21815359.547 9 114640505.868 9        48.900    21815365.766 9  89330339.89949
        53.000    21815365.44949  21815360.777 6  85608139.491 6        39.200
  21196951.852 9 111390741.086 9        49.500    21196958.227 9  86798009.14149
        54.900    21196957.54349  21196954.059 6  83181379.337 6        40.900
 21  1  3  1 32  0.0000000  0 12G01G32G21G23G16G28G08G14G22G20G10G27
  22279874.781 7 117081537.338 7        43.900    22279881.406 8  91232404.61349
        43.800    22279881.05949  22279877.332 5  87431058.099 5        37.200
  23043841.859 7 121096177.271 7        44.500    23043848.789 7  94360699.31149
        44.000    23043848.15249  23043844.281 3  90428997.078 3        33.900
  21462655.828 9 112787040.084 9        49.600                    87886015.63049
        41.300    21462658.22749
  24251098.461 5 127440391.549 5        36.600    24251103.926 7  99304224.40546
        22.500    24251103.24646  24251102.988 1  95166530.01511        28.700
  25289525.633 5 132897360.65315        35.300                   103556390.78655
        15.600    25289528.66045
  25108876.211 5 131948015.998 5        36.700                   102816665.52245
        15.600    25108879.44145
  20358284.500 9 106983529.866 9        50.800    20358291.523 9  83363805.07349
        55.900    20358290.38349  20358286.742 7  79890324.083 7        42.900
  24296547.750 6 127679225.500 6        38.600    24296551.477 6  99490310.69346
        22.500    24296551.70346  24296552.223 1  95344874.884 1        30.100
  23551614.852 7 123764559.425 7        42.400                    96439943.49848
        30.300    23551615.56348
  24333600.383 3 127873929.610 3        33.800                    99642029.46455
        16.300    24333602.17245
  21828014.758 9 114707007.200 9        50.000    21828020.219 9  89382159.13149
        53.000    21828020.05149  21828015.590 6  85657799.615 6        39.600
  21209953.305 9 111459065.048 9        49.900    21209959.930 9  86851248.58949
        54.900    21209959.13749  21209955.422 6  83232400.457 6        40.900
 21  1  3  1 32 30.0000000  0 12G01G32G21G23G16G28G08G14G22G20G10G27
  22263979.922 7 116998010.987 7        43.000    22263986.680 7  91167319.15349
        43.300    22263985.96949  22263982.117 5  87368684.539 5        36.200
  23031087.523 8 121029152.068 8        45.300    23031094.477 7  94308471.89249
        44.300    23031093.47749  23031090.109 4  90378945.793 4        34.700
  21455487.242 9 112749370.665 9        49.500                    87856662.84049
        41.400    21455490.08249
  24270957.570 5 127544747.046 5        37.800    24270962.109 6  99385540.33246
        21.800    24270961.85946  24270961.719 1  95244457.81211        29.900
  25311079.813 4 133010628.98114        34.800                   103644651.78355
        17.800    25311083.63345
  25094056.008 5 131870135.170 5        36.800                   102755979.11945
        17.400    25094058.96545
  20356860.531 9 106976048.302 9        51.100    20356867.719 9  83357975.27349
        55.700    20356866.68049  20356863.172 7  79884737.178 7        42.600
  24282916.445 5 127607592.426 5        37.800    24282920.324 6  99434492.69846
        20.400    24282920.57846  24282921.738 1  95291382.66111        30.900
  23532405.234 7 123663614.592 7        42.600                    96361285.17748
        30.200    23532406.53548
  24353257.516 3 127977231.336 3        33.500                    99722524.30644
        14.800    24353260.20744
  21840740.875 9 114773885.224 9        48.700    21840746.867 9  89434271.87849
        52.800    21840746.56649  21840742.262 6  85707740.988 6        38.800
  21223030.594 9 111527787.520 9        48.900    21223037.371 9  86904798.55149
        55.000    21223036.85549  21223032.906 6  83283719.171 6        40.900
