     2.10           OBSERVATION DATA    G (GPS)             RINEX VERSION / TYPE
goGPS                                                       PGM / RUN BY / DATE 
yamatogawa_master                                           MARKER NAME         
                                                            OBSERVER / AGENCY   
                                                            REC # / TYPE / VERS 
                                                            ANT # / TYPE        
 -3749943.5172  3683398.2394  3600629.5295                  APPROX POSITION XYZ 
        0.0000        0.0000        0.0000                  ANTENNA: DELTA H/E/N
     1     1                                                WAVELENGTH FACT L1/2
     6    C1    P2    L1    L2    S1    S2                  # / TYPES OF OBSERV 
  2010     1     6     5    57   14.0000000     GPS         TIME OF FIRST OBS   
                                                            END OF HEADER       
 10  1  6  5 57 14.0000000  0  9G02G04G05G07G10G12G13G17G23
  21124906.520 8  21124902.780 7 111012132.702 8  86502960.907 7        51.000 8
        44.000 7
  20671985.904 8  20671984.224 7 108632018.816 8  84648326.266 7        52.000 8
        47.000 7
  22607020.170 7  22607017.890 6 118800693.281 7  92571968.600 6        47.000 7
        37.000 6
  24673504.216 6  24673503.956 4 129660139.474 6 101033875.005 4        40.000 6
        26.000 4
  21253529.700 8  21253528.320 7 111688052.582 8  87029651.252 7        50.000 8
        42.000 7
  24805300.076 5  24805297.576 3 130352731.892 5 101573556.763 3        34.000 5
        22.000 3
  21526986.738 8  21526984.458 6 113125079.089 8  88149411.698 6        49.000 8
        40.000 6
  22497497.110 7  22497496.810 6 118225145.588 7  92123490.267 6        47.000 7
        37.000 6
  23995925.980 7  23995921.160 4 126099442.525 7  98259305.729 4        42.000 7
        27.000 4
 10  1  6  5 57 15.0000000  0  9G02G04G05G07G10G12G13G17G23
  21124517.060 8  21124513.420 7 111010087.332 8  86501367.108 7        51.000 8
        44.000 7
  20672086.304 8  20672084.804 7 108632545.744 8  84648736.859 7        52.000 8
        47.000 7
  22606604.070 7  22606602.090 6 118798508.222 7  92570265.956 6        47.000 7
        36.000 6
  24673081.556 6  24673080.916 4 129657916.347 6 101032142.708 4        40.000 6
        25.000 4
  21253224.340 8  21253222.800 7 111686447.310 8  87028400.391 7        50.000 8
        42.000 7
  24805583.296 5  24805581.056 3 130354221.665 5 101574717.667 3        34.000 5
        22.000 3
  21527284.218 8  21527282.218 6 113126642.242 8  88150629.739 6        49.000 8
        40.000 6
  22498144.310 7  22498144.050 6 118228546.610 7  92126140.406 6        47.000 7
        37.000 6
  23996498.720 7  23996494.000 4 126102452.901 7  98261651.480 4        42.000 7
        27.000 4
 10  1  6  5 57 16.0000000  0  9G02G04G05G07G10G12G13G17G23
  21124127.800 8  21124123.900 7 111008042.256 8  86499773.547 7        52.000 8
        44.000 7
  20672186.484 8  20672185.224 7 108633073.113 8  84649147.794 7        53.000 8
        47.000 7
  22606188.290 7  22606186.530 6 118796323.528 7  92568563.605 6        47.000 7
        36.000 6
  24672658.736 6  24672657.736 4 129655693.454 6 101030410.616 4        40.000 6
        25.000 4
  21252918.820 8  21252917.520 7 111684842.515 8  87027149.911 7        50.000 8
        42.000 7
  24805867.356 5  24805864.656 3 130355711.875 5 101575878.843 3        35.000 5
        22.000 3
  21527581.518 8  21527579.458 6 113128206.124 8  88151848.345 6        49.000 8
        40.000 6
  22498791.730 7  22498791.330 6 118231948.052 7  92128790.887 6        46.000 7
        37.000 6
  23997071.560 7  23997066.980 4 126105463.687 7  98263997.517 4        42.000 7
        27.000 4
 10  1  6  5 57 17.0000000  0  9G02G04G05G07G10G12G13G17G23
  21123738.880 8  21123735.020 7 111005996.991 8  86498179.832 7        52.000 8
        44.000 7
  20672286.744 8  20672285.064 7 108633600.458 8  84649558.721 7        53.000 8
        47.000 7
  22605772.450 7  22605770.850 6 118794138.697 7  92566861.152 6        47.000 7
        36.000 6
  24672235.276 6  24672234.836 4 129653470.369 6 101028678.330 4        40.000 6
        26.000 4
  21252613.440 8  21252612.200 7 111683237.682 8  87025899.382 7        51.000 8
        42.000 7
  24806150.496 5  24806148.396 3 130357202.098 5 101577040.064 3        35.000 5
        22.000 3
  21527879.158 8  21527877.658 6 113129770.241 8  88153067.145 6        50.000 8
        41.000 6
  22499438.730 7  22499438.530 6 118235349.353 7  92131441.253 6        47.000 7
        37.000 6
  23997644.120 7  23997639.840 4 126108474.429 7  98266343.563 4        42.000 7
        26.000 4
 10  1  6  5 57 18.0000000  0  9G02G04G05G07G10G12G13G17G23
  21123349.480 8  21123345.660 7 111003950.922 8  86496585.496 7        52.000 8
        44.000 7
  20672386.984 8  20672385.264 7 108634127.105 8  84649969.095 7        53.000 8
        47.000 7
  22605356.490 7  22605355.030 6 118791953.085 7  92565158.078 6        47.000 7
        36.000 6
  24671812.376 6  24671811.796 4 129651246.377 6 101026945.299 4        40.000 6
        26.000 4
  21252307.960 8  21252306.800 7 111681632.171 8  87024648.326 7        51.000 8
        43.000 7
  24806433.916 5  24806432.036 3 130358691.591 5 101578200.691 3        35.000 5
        22.000 3
  21528176.618 8  21528174.938 6 113131333.950 8  88154285.624 6        50.000 8
        41.000 6
  22500085.810 7  22500085.270 6 118238749.897 7  92134091.019 6        47.000 7
        37.000 6
  23998217.300 7  23998212.860 4 126111484.368 7  98268688.961 4        42.000 7
        27.000 4
 10  1  6  5 57 19.0000000  0  9G02G04G05G07G10G12G13G17G23
  21122960.120 8  21122955.960 7 111001904.338 8  86494990.751 7        52.000 8
        45.000 7
  20672487.164 8  20672485.824 8 108634653.365 8  84650379.170 8        53.000 8
        48.000 8
  22604940.770 7  22604938.930 6 118789767.030 7  92563454.646 6        47.000 7
        37.000 6
  24671388.416 6  24671388.436 4 129649021.887 6 101025211.948 4        40.000 6
        26.000 4
  21252002.680 8  21252000.900 7 111680026.319 8  87023397.032 7        51.000 8
        43.000 7
  24806717.616 6  24806715.216 3 130360180.765 6 101579361.050 3        36.000 6
        22.000 3
  21528474.158 8  21528472.578 6 113132897.563 8  88155504.015 6        50.000 8
        41.000 6
  22500732.750 7  22500732.210 6 118242150.036 7  92136740.474 6        46.000 7
        37.000 6
  23998789.920 7  23998785.360 4 126114493.953 7  98271034.112 4        43.000 7
        27.000 4
 10  1  6  5 57 20.0000000  0  9G02G04G05G07G10G12G13G17G23
  21122571.000 8  21122567.200 7 110999860.751 8  86493398.355 7        52.000 8
        44.000 7
  20672587.824 8  20672586.444 7 108635182.731 8  84650791.654 7        52.000 8
        47.000 7
  22604525.050 7  22604523.470 6 118787583.999 7  92561753.589 6        47.000 7
        36.000 6
  24670965.716 6  24670965.736 4 129646800.331 6 101023480.888 4        41.000 6
        25.000 4
  21251697.420 8  21251695.860 7 111678423.599 8  87022148.148 7        50.000 8
        42.000 7
  24807001.096 6  24806999.396 3 130361673.019 6 101580523.845 3        36.000 6
        22.000 3
  21528772.478 8  21528771.018 6 113134464.572 8  88156725.059 6        49.000 8
        40.000 6
  22501380.630 7  22501379.770 6 118245553.221 7  92139392.313 6        46.000 7
        37.000 6
  23999363.000 7  23999358.860 4 126117506.623 7  98273381.641 4        42.000 7
        26.000 4
 10  1  6  5 57 21.0000000  0  9G02G04G05G07G10G12G13G17G23
  21122181.980 8  21122177.920 7 110997815.302 8  86491804.488 7        52.000 8
        44.000 7
  20672688.244 8  20672686.904 7 108635710.421 8  84651202.845 7        52.000 8
        47.000 7
  22604109.430 7  22604107.710 6 118785399.160 7  92560051.118 6        47.000 7
        36.000 6
  24670542.876 6  24670542.616 4 129644576.854 6 101021748.317 4        40.000 6
        25.000 4
  21251391.980 8  21251390.700 7 111676819.179 8  87020897.947 7        50.000 8
        42.000 7
  24807285.256 6  24807282.936 3 130363163.576 6 101581685.338 3        36.000 6
        22.000 3
  21529070.538 8  21529068.598 6 113136030.147 8  88157944.994 6        48.000 8
        40.000 6
  22502027.570 7  22502027.390 6 118248954.637 7  92142042.759 6        46.000 7
        37.000 6
  23999936.000 7  23999931.720 4 126120517.522 7  98275727.786 4        42.000 7
        27.000 4
 10  1  6  5 57 22.0000000  0  9G02G04G05G07G10G12G13G17G23
  21121792.760 8  21121788.900 7 110995770.445 8  86490211.103 7        52.000 8
        44.000 7
  20672788.824 8  20672787.104 7 108636238.807 8  84651614.573 7        52.000 8
        47.000 7
  22603693.650 7  22603692.170 6 118783214.934 7  92558349.127 6        47.000 7
        36.000 6
  24670119.876 6  24670119.416 4 129642353.924 6 101020016.135 4        41.000 6
        25.000 4
  21251086.720 8  21251085.440 7 111675215.468 8  87019648.314 7        50.000 8
        42.000 7
  24807568.596 5  24807567.036 3 130364654.889 5 101582847.374 3        35.000 5
        22.000 3
  21529368.598 8  21529366.898 6 113137596.699 8  88159165.680 6        49.000 8
        40.000 6
  22502675.170 7  22502674.750 6 118252356.695 7  92144693.713 6        46.000 7
        37.000 6
  24000509.380 7  24000504.840 4 126123529.088 7  98278074.481 4        42.000 7
        26.000 4
 10  1  6  5 57 23.0000000  0  9G02G04G05G07G10G12G13G17G23
  21121404.000 8  21121400.040 7 110993725.863 8  86488617.922 7        52.000 8
        44.000 7
  20672889.184 8  20672887.944 7 108636767.623 8  84652026.638 7        53.000 8
        47.000 7
  22603278.090 7  22603276.390 6 118781031.054 7  92556647.409 6        47.000 7
        36.000 6
  24669696.956 6  24669696.276 4 129640131.239 6 101018284.203 4        41.000 6
        25.000 4
  21250781.940 8  21250780.420 7 111673612.217 8  87018399.024 7        50.000 8
        42.000 7
  24807852.336 6  24807850.696 3 130366146.631 6 101584009.836 3        36.000 6
        22.000 3
  21529666.918 8  21529665.098 6 113139163.966 8  88160386.927 6        49.000 8
        40.000 6
  22503322.470 7  22503322.030 6 118255759.123 7  92147344.951 6        46.000 7
        37.000 6
  24001082.000 7  24001077.980 4 126126541.036 7  98280421.437 4        42.000 7
        26.000 4
 10  1  6  5 57 24.0000000  0  9G02G04G05G07G10G12G13G17G23
  21121014.700 8  21121010.880 7 110991680.159 8  86487023.859 7        52.000 8
        44.000 7
  20672989.904 8  20672988.324 7 108637295.444 8  84652437.927 7        52.000 8
        47.000 7
  22602862.010 7  22602860.770 6 118778846.102 7  92554944.838 6        47.000 7
        36.000 6
  24669274.036 6  24669273.256 4 129637907.402 6 101016551.335 4        41.000 6
        25.000 4
  21250476.520 8  21250474.840 7 111672007.976 8  87017148.962 7        51.000 8
        42.000 7
  24808136.136 6  24808134.296 3 130367637.385 6 101585171.431 3        36.000 6
        22.000 3
  21529965.138 8  21529963.238 6 113140730.524 8  88161607.621 6        49.000 8
        40.000 6
  22503970.190 7  22503969.310 6 118259160.492 7  92149995.364 6        46.000 7
        37.000 6
  24001655.300 7  24001650.760 4 126129551.982 7  98282767.643 4        42.000 7
        27.000 4
 10  1  6  5 57 25.0000000  0  9G02G04G05G07G10G12G13G17G23
  21120625.740 8  21120621.480 7 110989636.993 8  86485431.784 7        52.000 8
        44.000 7
  20673090.844 8  20673089.404 7 108637825.938 8  84652851.292 7        52.000 8
        47.000 7
  22602447.030 7  22602445.610 6 118776663.728 7  92553244.293 6        47.000 7
        36.000 6
  24668851.196 6  24668850.656 4 129635686.031 6 101014820.404 4        41.000 6
        24.000 4
  21250171.700 8  21250170.280 7 111670406.436 8  87015901.016 7        51.000 8
        42.000 7
  24808419.776 6  24808418.136 3 130369130.832 6 101586335.132 3        37.000 6
        22.000 3
  21530263.638 8  21530262.158 6 113142300.032 8  88162830.615 6        49.000 8
        40.000 6
  22504617.690 7  22504617.190 6 118262564.467 7  92152647.809 6        46.000 7
        36.000 6
  24002228.600 7  24002224.160 4 126132565.529 7  98285115.866 4        42.000 7
        27.000 4
 10  1  6  5 57 26.0000000  0  9G02G04G05G07G10G12G13G17G23
  21120236.940 8  21120232.960 7 110987593.307 8  86483839.305 7        52.000 8
        44.000 7
  20673191.504 8  20673190.404 7 108638356.026 8  84653264.360 7        52.000 8
        47.000 7
  22602031.450 7  22602030.010 6 118774480.862 7  92551543.365 6        47.000 7
        36.000 6
  24668427.436 6  24668427.296 4 129633464.107 6 101013089.042 4        41.000 6
        25.000 4
  21249867.120 8  21249865.360 7 111668804.488 8  87014652.743 7        51.000 8
        42.000 7
  24808704.276 6  24808702.536 3 130370623.853 6 101587498.531 3        36.000 6
        23.000 3
  21530562.338 8  21530560.418 6 113143869.414 8  88164053.506 6        49.000 8
        41.000 6
  22505265.270 7  22505264.870 6 118265967.983 7  92155299.909 6        47.000 7
        36.000 6
  24002801.980 6  24002797.420 4 126135578.627 6  98287463.714 4        41.000 6
        27.000 4
 10  1  6  5 57 27.0000000  0  9G02G04G05G07G10G12G13G17G23
  21119847.700 8  21119843.880 7 110985548.986 8  86482246.323 7        51.000 8
        44.000 7
  20673292.444 8  20673291.144 7 108638885.595 8  84653677.005 7        53.000 8
        47.000 7
  22601616.090 7  22601614.690 6 118772297.424 7  92549841.987 6        47.000 7
        37.000 6
  24668004.856 6  24668004.576 4 129631241.506 6 101011357.150 4        41.000 6
        25.000 4
  21249562.060 8  21249560.500 7 111667202.070 8  87013404.112 7        51.000 8
        42.000 7
  24808987.976 6  24808986.356 3 130372116.441 6 101588661.570 3        37.000 6
        23.000 3
  21530861.058 8  21530858.918 6 113145438.576 8  88165276.239 6        50.000 8
        41.000 6
  22505912.910 7  22505911.930 6 118269370.934 7  92157951.551 6        47.000 7
        36.000 6
  24003375.260 7  24003370.980 4 126138591.236 7  98289811.216 4        42.000 7
        26.000 4
 10  1  6  5 57 28.0000000  0  9G02G04G05G07G10G12G13G17G23
  21119458.860 8  21119454.980 7 110983506.035 8  86480654.420 7        52.000 8
        44.000 7
  20673393.424 8  20673392.184 7 108639416.668 8  84654090.824 7        53.000 8
        47.000 7
  22601200.910 7  22601199.630 6 118770115.386 7  92548141.706 6        47.000 7
        37.000 6
  24667582.756 6  24667581.836 4 129629020.197 6 101009626.236 4        41.000 6
        25.000 4
  21249257.380 8  21249255.760 7 111665601.165 8  87012156.642 7        51.000 8
        42.000 7
  24809272.696 6  24809271.236 3 130373610.516 6 101589825.815 3        37.000 6
        23.000 3
  21531159.818 8  21531158.078 6 113147009.522 8  88166500.346 6        50.000 8
        41.000 6
  22506560.950 7  22506560.030 6 118272775.322 7  92160604.313 6        46.000 7
        36.000 6
  24003948.760 7  24003944.160 4 126141605.286 7  98292159.838 4        42.000 7
        27.000 4
 10  1  6  5 57 29.0000000  0  9G02G04G05G07G10G12G13G17G23
  21119069.760 8  21119065.760 7 110981461.075 8  86479060.951 7        52.000 8
        44.000 7
  20673494.304 9  20673492.964 7 108639945.871 9  84654503.193 7        54.000 9
        47.000 7
  22600785.270 7  22600784.030 6 118767931.396 7  92546439.889 6        47.000 7
        36.000 6
  24667159.556 6  24667158.676 4 129626796.888 6 101007893.761 4        41.000 6
        24.000 4
  21248952.520 8  21248950.680 7 111663998.424 8  87010907.761 7        51.000 8
        42.000 7
  24809556.676 6  24809554.896 3 130375102.728 6 101590988.520 3        37.000 6
        22.000 3
  21531458.598 8  21531456.558 6 113148578.877 8  88167723.223 6        50.000 8
        40.000 6
  22507208.310 7  22507207.250 6 118276177.786 7  92163255.588 6        46.000 7
        36.000 6
  24004522.300 7  24004517.520 4 126144617.422 7  98294506.945 4        42.000 7
        26.000 4
 10  1  6  5 57 30.0000000  0  9G02G04G05G07G10G12G13G17G23
  21118681.000 8  21118676.820 7 110979417.489 8  86477468.538 7        52.000 8
        44.000 7
  20673595.304 8  20673593.744 7 108640476.585 8  84654916.738 7        53.000 8
        47.000 7
  22600370.230 7  22600368.750 6 118765748.817 7  92544739.192 6        47.000 7
        36.000 6
  24666736.856 7  24666735.716 4 129624574.889 7 101006162.364 4        42.000 7
        26.000 4
  21248647.720 8  21248646.200 7 111662397.186 8  87009660.038 7        51.000 8
        42.000 7
  24809840.616 6  24809839.016 3 130376596.443 6 101592152.474 3        37.000 6
        22.000 3
  21531757.558 8  21531755.578 6 113150150.010 8  88168947.486 6        50.000 8
        41.000 6
  22507856.090 7  22507855.070 6 118279581.691 7  92165907.979 6        47.000 7
        36.000 6
  24005095.780 7  24005091.180 4 126147631.030 7  98296855.217 4        42.000 7
        26.000 4
 10  1  6  5 57 31.0000000  0  9G02G04G05G07G10G12G13G17G23
  21118292.480 8  21118288.480 7 110977376.733 8  86475878.332 7        52.000 8
        44.000 7
  20673696.644 8  20673695.284 8 108641010.258 8  84655332.591 8        53.000 8
        48.000 8
  22599955.270 8  22599954.070 6 118763569.112 8  92543040.711 6        48.000 8
        37.000 6
  24666314.136 7  24666313.496 4 129622355.669 7 101004433.124 4        42.000 7
        25.000 4
  21248343.560 8  21248342.080 7 111660798.927 8  87008414.650 7        51.000 8
        42.000 7
  24810125.816 6  24810123.556 3 130378093.155 6 101593318.754 3        38.000 6
        22.000 3
  21532057.018 8  21532054.998 6 113151724.379 8  88170174.253 6        50.000 8
        40.000 6
  22508504.070 7  22508503.490 6 118282988.491 7  92168562.626 6        47.000 7
        36.000 6
  24005669.660 7  24005665.180 4 126150647.583 7  98299205.790 4        43.000 7
        27.000 4
 10  1  6  5 57 32.0000000  0  9G02G04G05G07G10G12G13G17G23
  21117903.900 8  21117899.580 7 110975333.312 8  86474286.070 7        53.000 8
        44.000 7
  20673797.964 8  20673796.764 8 108641541.421 8  84655746.480 8        52.000 8
        48.000 8
  22599539.510 8  22599538.590 6 118761386.804 8  92541340.217 6        48.000 8
        37.000 6
  24665891.216 7  24665890.596 4 129620133.766 7 101002701.753 4        42.000 7
        26.000 4
  21248038.900 8  21248037.000 7 111659198.167 8  87007167.305 7        50.000 8
        42.000 7
  24810410.456 6  24810408.056 3 130379587.346 6 101594483.038 3        38.000 6
        22.000 3
  21532356.258 8  21532354.578 6 113153296.515 8  88171399.302 6        49.000 8
        41.000 6
  22509151.910 7  22509151.150 6 118286392.700 7  92171215.261 6        46.000 7
        37.000 6
  24006243.200 7  24006238.580 4 126153661.538 7  98301554.324 4        43.000 7
        26.000 4
 10  1  6  5 57 33.0000000  0  9G02G04G05G07G10G12G13G17G23
  21117514.740 8  21117510.600 7 110973289.427 8  86472693.424 7        52.000 8
        44.000 7
  20673898.824 8  20673897.444 7 108642072.216 8  84656160.083 7        53.000 8
        47.000 7
  22599124.670 8  22599123.570 6 118759204.067 8  92539639.385 6        48.000 8
        37.000 6
  24665468.296 7  24665467.796 4 129617911.322 7 101000969.991 4        42.000 7
        25.000 4
  21247734.600 8  21247732.460 7 111657597.071 8  87005919.691 7        50.000 8
        42.000 7
  24810694.136 6  24810692.616 3 130381081.213 6 101595647.095 3        38.000 6
        22.000 3
  21532655.438 8  21532653.398 6 113154868.579 8  88172624.290 6        50.000 8
        41.000 6
  22509800.070 7  22509799.190 6 118289796.497 7  92173867.566 6        46.000 7
        37.000 6
  24006816.680 7  24006811.880 4 126156675.130 7  98303902.586 4        43.000 7
        27.000 4
 10  1  6  5 57 34.0000000  0  9G02G04G05G07G10G12G13G17G23
  21117126.220 8  21117122.160 7 110971247.861 8  86471102.600 7        52.000 8
        44.000 7
  20674000.464 8  20673998.744 7 108642605.476 8  84656575.614 7        52.000 8
        47.000 7
  22598709.290 8  22598708.510 6 118757023.705 8  92537940.415 6        48.000 8
        37.000 6
  24665046.536 7  24665045.216 4 129615691.186 7 100999240.012 4        42.000 7
        25.000 4
  21247430.040 8  21247428.300 7 111655998.453 8  87004674.023 7        51.000 8
        42.000 7
  24810979.776 6  24810977.476 3 130382577.490 6 101596813.027 3        38.000 6
        22.000 3
  21532954.938 8  21532952.878 6 113156443.369 8  88173851.392 6        49.000 8
        41.000 6
  22510447.990 7  22510447.030 6 118293202.709 7  92176521.747 6        46.000 7
        37.000 6
  24007390.120 7  24007385.900 4 126159691.121 7  98306252.707 4        43.000 7
        26.000 4
 10  1  6  5 57 35.0000000  0  9G02G04G05G07G10G12G13G17G23
  21116737.640 8  21116733.660 7 110969205.208 8  86469510.918 7        52.000 8
        44.000 7
  20674101.784 8  20674100.064 7 108643137.788 8  84656990.396 7        52.000 8
        47.000 7
  22598294.130 8  22598293.150 6 118754842.306 8  92536240.623 6        48.000 8
        37.000 6
  24664623.356 7  24664622.396 4 129613469.887 7 100997509.138 4        42.000 7
        25.000 4
  21247125.780 8  21247123.800 7 111654398.875 8  87003427.596 7        51.000 8
        42.000 7
  24811263.696 6  24811261.936 3 130384072.897 6 101597978.306 3        37.000 6
        21.000 3
  21533254.578 8  21533252.678 6 113158017.502 8  88175077.991 6        49.000 8
        41.000 6
  22511096.050 7  22511094.910 6 118296607.882 7  92179175.135 6        46.000 7
        37.000 6
  24007964.220 7  24007959.660 4 126162706.169 7  98308602.076 4        42.000 7
        27.000 4
 10  1  6  5 57 36.0000000  0  9G02G04G05G07G10G12G13G17G23
  21116349.220 8  21116345.320 7 110967164.580 8  86467920.823 7        52.000 8
        44.000 7
  20674203.304 8  20674201.844 7 108643672.241 8  84657406.859 7        51.000 8
        47.000 7
  22597879.590 8  22597878.570 6 118752662.953 8  92534542.420 6        48.000 8
        37.000 6
  24664201.416 7  24664200.456 4 129611250.560 7 100995779.782 4        42.000 7
        25.000 4
  21246821.680 8  21246820.100 7 111652801.462 8  87002182.857 7        50.000 8
        42.000 7
  24811548.496 6  24811547.036 3 130385570.414 6 101599145.200 3        36.000 6
        21.000 3
  21533554.818 8  21533552.718 6 113159594.054 8  88176306.472 6        48.000 8
        41.000 6
  22511744.550 7  22511743.510 6 118300015.137 7  92181830.139 6        46.000 7
        37.000 6
  24008537.980 7  24008533.360 4 126165723.271 7  98310953.045 4        42.000 7
        26.000 4
 10  1  6  5 57 37.0000000  0  9G02G04G05G07G10G12G13G17G23
  21115960.720 8  21115956.660 7 110965123.104 8  86466330.060 7        52.000 8
        45.000 7
  20674304.964 8  20674303.624 7 108644205.971 8  84657822.757 7        51.000 8
        47.000 7
  22597464.590 8  22597463.490 6 118750482.815 8  92532843.615 6        48.000 8
        37.000 6
  24663779.276 7  24663778.196 4 129609030.362 7 100994049.729 4        43.000 7
        25.000 4
  21246517.540 8  21246516.020 7 111651203.388 8  87000937.598 7        51.000 8
        42.000 7
  24811833.856 6  24811831.936 3 130387067.248 6 101600311.513 3        36.000 6
        21.000 3
  21533854.558 7  21533852.818 6 113161170.160 7  88177534.615 6        47.000 7
        41.000 6
  22512393.070 7  22512391.990 6 118303421.635 7  92184484.540 6        46.000 7
        37.000 6
  24009112.400 7  24009107.480 4 126168739.635 7  98313303.493 4        42.000 7
        26.000 4
 10  1  6  5 57 38.0000000  0  9G02G04G05G07G10G12G13G17G23
  21115572.340 8  21115568.240 7 110963081.920 8  86464739.525 7        52.000 8
        45.000 7
  20674406.784 8  20674405.344 8 108644740.140 8  84658238.986 8        52.000 8
        48.000 8
  22597049.950 8  22597048.710 6 118748303.011 8  92531145.072 6        48.000 8
        37.000 6
  24663356.576 7  24663355.076 4 129606810.420 7 100992319.910 4        42.000 7
        26.000 4
  21246213.540 8  21246212.000 7 111649605.731 8  86999692.669 7        51.000 8
        42.000 7
  24812118.736 6  24812116.476 3 130388564.515 6 101601478.257 3        36.000 6
        22.000 3
  21534154.358 8  21534152.818 6 113162746.997 8  88178763.310 6        48.000 8
        41.000 6
  22513040.970 7  22513040.190 6 118306828.495 7  92187139.231 6        46.000 7
        37.000 6
  24009686.080 7  24009681.480 4 126171756.396 7  98315654.218 4        42.000 7
        24.000 4
 10  1  6  5 57 39.0000000  0  9G02G04G05G07G10G12G13G17G23
  21115183.560 8  21115179.540 7 110961038.641 8  86463147.361 7        52.000 8
        44.000 7
  20674507.964 8  20674506.244 8 108645272.326 8  84658653.678 8        52.000 8
        48.000 8
  22596634.750 7  22596633.650 6 118746121.157 7  92529444.922 6        47.000 7
        37.000 6
  24662934.076 7  24662932.556 4 129604588.323 7 100990588.406 4        42.000 7
        25.000 4
  21245909.300 8  21245907.520 7 111648006.135 8  86998446.236 7        50.000 8
        42.000 7
  24812403.036 5  24812401.556 3 130390059.862 5 101602643.409 3        35.000 5
        22.000 3
  21534454.518 8  21534452.218 6 113164322.139 8  88179990.699 6        48.000 8
        40.000 6
  22513688.930 7  22513687.970 6 118310233.312 7  92189792.338 6        46.000 7
        37.000 6
  24010259.540 6  24010255.080 4 126174771.149 6  98318003.370 4        41.000 6
        26.000 4
 10  1  6  5 57 40.0000000  0  9G02G04G05G07G10G12G13G17G23
  21114795.040 8  21114791.040 7 110958997.249 8  86461556.672 7        52.000 8
        45.000 7
  20674609.524 8  20674608.004 8 108645806.518 8  84659069.932 8        52.000 8
        48.000 8
  22596219.910 7  22596218.590 6 118743941.232 7  92527746.283 6        47.000 7
        37.000 6
  24662511.056 7  24662510.096 4 129602368.089 7 100988858.382 4        42.000 7
        25.000 4
  21245605.400 8  21245603.220 7 111646408.546 8  86997201.364 7        51.000 8
        42.000 7
  24812688.436 6  24812686.736 3 130391557.250 6 101603810.230 3        36.000 6
        22.000 3
  21534754.698 8  21534752.418 6 113165899.577 8  88181219.874 6        48.000 8
        40.000 6
  22514337.570 7  22514336.530 6 118313640.104 7  92192446.986 6        46.000 7
        37.000 6
  24010833.840 6  24010829.280 4 126177787.897 6  98320354.056 4        41.000 6
        26.000 4
 10  1  6  5 57 41.0000000  0  9G02G04G05G07G10G12G13G17G23
  21114407.120 8  21114403.240 7 110956959.228 8  86459968.594 7        51.000 8
        45.000 7
  20674711.664 8  20674710.344 8 108646344.245 8  84659488.940 8        52.000 8
        48.000 8
  22595805.730 7  22595804.850 6 118741764.722 7  92526050.312 6        47.000 7
        37.000 6
  24662089.296 7  24662087.976 4 129600151.165 7 100987130.907 4        43.000 7
        25.000 4
  21245301.960 8  21245300.260 7 111644814.478 8  86995959.236 7        51.000 8
        42.000 7
  24812974.236 5  24812972.216 3 130393058.154 5 101604979.757 3        35.000 5
        23.000 3
  21535055.618 8  21535053.658 6 113167480.780 8  88182451.972 6        48.000 8
        41.000 6
  22514986.110 7  22514985.250 6 118317050.317 7  92195104.289 6        46.000 7
        37.000 6
  24011408.520 6  24011404.140 4 126180808.108 6  98322707.502 4        41.000 6
        26.000 4
 10  1  6  5 57 42.0000000  0  9G02G04G05G07G10G12G13G17G23
  21114018.660 8  21114014.800 7 110954917.746 8  86458377.835 7        51.000 8
        45.000 7
  20674813.504 8  20674812.024 8 108646878.614 8  84659905.338 8        52.000 8
        48.000 8
  22595390.750 7  22595389.710 6 118739584.802 7  92524351.671 6        47.000 7
        37.000 6
  24661666.456 7  24661665.656 4 129597930.721 7 100985400.705 4        43.000 7
        25.000 4
  21244997.880 8  21244996.240 7 111643217.108 8  86994714.535 7        52.000 8
        42.000 7
  24813258.256 6  24813257.596 3 130394555.689 6 101606146.713 3        36.000 6
        22.000 3
  21535355.818 8  21535353.598 6 113169058.938 8  88183681.716 6        49.000 8
        41.000 6
  22515634.790 7  22515633.710 6 118320457.136 7  92197758.950 6        46.000 7
        37.000 6
  24011983.060 6  24011977.840 4 126183824.945 6  98325058.263 4        41.000 6
        26.000 4
 10  1  6  5 57 43.0000000  0  9G02G04G05G07G10G12G13G17G23
  21113630.060 8  21113625.860 7 110952875.556 8  86456786.514 7        51.000 8
        45.000 7
  20674915.224 8  20674913.764 7 108647412.447 8  84660321.305 7        52.000 8
        47.000 7
  22594976.210 7  22594974.730 6 118737404.217 7  92522652.516 6        47.000 7
        37.000 6
  24661244.336 7  24661243.116 4 129595709.536 7 100983669.895 4        43.000 7
        26.000 4
  21244693.900 8  21244691.900 7 111641619.173 8  86993469.389 7        51.000 8
        42.000 7
  24813542.936 6  24813542.116 3 130396052.696 6 101607313.134 3        37.000 6
        22.000 3
  21535656.158 8  21535653.778 6 113170636.807 8  88184911.219 6        49.000 8
        41.000 6
  22516282.650 7  22516281.750 6 118323863.331 7  92200413.121 6        47.000 7
        37.000 6
  24012557.220 7  24012552.300 4 126186841.149 7  98327408.548 4        42.000 7
        25.000 4
 10  1  6  5 57 44.0000000  0  9G02G04G05G07G10G12G13G17G23
  21113242.280 8  21113238.040 7 110950836.384 8  86455197.557 7        51.000 8
        45.000 7
  20675017.164 8  20675015.664 7 108647949.406 8  84660739.721 7        52.000 8
        47.000 7
  22594562.110 7  22594560.510 6 118735226.680 7  92520955.732 6        47.000 7
        37.000 6
  24660822.376 7  24660821.176 4 129593491.341 7 100981941.448 4        43.000 7
        25.000 4
  21244390.320 8  21244388.700 7 111640024.411 8  86992226.718 7        52.000 8
        42.000 7
  24813828.296 6  24813827.776 3 130397552.825 6 101608482.092 3        36.000 6
        22.000 3
  21535956.838 8  21535954.898 6 113172218.087 8  88186143.382 6        49.000 8
        41.000 6
  22516931.350 7  22516930.170 6 118327272.596 7  92203069.699 6        47.000 7
        37.000 6
  24013131.380 7  24013126.540 4 126189860.490 7  98329761.308 4        42.000 7
        25.000 4
 10  1  6  5 57 45.0000000  0  9G02G04G05G07G10G12G13G17G23
  21112854.040 8  21112850.000 7 110948796.539 8  86453608.063 7        51.000 8
        45.000 7
  20675119.324 8  20675117.664 7 108648485.832 8  84661157.714 7        52.000 8
        47.000 7
  22594147.250 7  22594145.550 6 118733048.518 7  92519258.467 6        47.000 7
        37.000 6
  24660399.716 7  24660398.816 4 129591272.392 7 100980212.407 4        44.000 7
        24.000 4
  21244086.700 8  21244085.440 7 111638429.109 8  86990983.627 7        51.000 8
        42.000 7
  24814113.976 6  24814113.536 3 130399052.418 6 101609650.586 3        36.000 6
        22.000 3
  21536258.098 8  21536255.718 6 113173799.109 8  88187375.350 6        48.000 8
        41.000 6
  22517580.070 7  22517578.970 6 118330681.251 7  92205725.787 6        46.000 7
        37.000 6
  24013705.240 7  24013701.040 4 126192879.205 7  98332113.576 4        42.000 7
        26.000 4
 10  1  6  5 57 46.0000000  0  9G02G04G05G07G10G12G13G17G23
  21112465.800 8  21112461.500 7 110946756.419 8  86452018.359 7        52.000 8
        45.000 7
  20675221.384 8  20675220.184 7 108649022.098 8  84661575.577 7        52.000 8
        47.000 7
  22593732.970 7  22593731.470 6 118730870.140 7  92517561.040 6        47.000 7
        37.000 6
  24659977.156 7  24659976.676 4 129589053.153 7 100978483.120 4        44.000 7
        26.000 4
  21243783.180 8  21243781.460 7 111636833.680 8  86989740.442 7        52.000 8
        42.000 7
  24814399.996 6  24814399.056 3 130400551.908 6 101610819.030 3        37.000 6
        23.000 3
  21536558.878 8  21536556.438 6 113175380.257 8  88188607.417 6        48.000 8
        41.000 6
  22518228.770 7  22518227.530 6 118334089.701 7  92208381.727 6        46.000 7
        36.000 6
  24014279.860 7  24014275.520 4 126195897.782 7  98334465.640 4        42.000 7
        25.000 4
 10  1  6  5 57 47.0000000  0  9G02G04G05G07G10G12G13G17G23
  21112077.700 8  21112073.640 7 110944717.885 8  86450429.892 7        52.000 8
        45.000 7
  20675323.704 8  20675322.304 7 108649560.082 8  84661994.792 7        52.000 8
        47.000 7
  22593318.530 7  22593317.130 6 118728693.373 7  92515864.864 6        47.000 7
        37.000 6
  24659555.276 7  24659554.476 4 129586835.449 7 100976755.045 4        43.000 7
        26.000 4
  21243480.020 8  21243478.340 7 111635239.972 8  86988498.585 7        51.000 8
        42.000 7
  24814685.256 6  24814684.936 4 130402053.132 6 101611988.837 4        37.000 6
        24.000 4
  21536860.118 8  21536857.978 6 113176963.400 8  88189841.031 6        49.000 8
        41.000 6
  22518877.710 7  22518876.630 6 118337499.807 7  92211038.946 6        46.000 7
        36.000 6
  24014854.380 7  24014850.160 4 126198918.008 7  98336819.121 4        42.000 7
        25.000 4
 10  1  6  5 57 48.0000000  0  9G02G04G05G07G10G12G13G17G23
  21111689.920 8  21111685.780 7 110942679.024 8  86448841.164 7        51.000 8
        45.000 7
  20675426.004 8  20675424.544 7 108650097.898 8  84662413.867 7        52.000 8
        47.000 7
  22592903.930 7  22592902.770 6 118726516.348 7  92514168.479 6        47.000 7
        37.000 6
  24659133.376 7  24659132.456 4 129584617.396 7 100975026.641 4        43.000 7
        25.000 4
  21243176.680 8  21243175.300 7 111633646.091 8  86987256.598 7        51.000 8
        42.000 7
  24814970.916 6  24814970.756 4 130403554.120 6 101613158.422 4        37.000 6
        25.000 4
  21537161.398 8  21537159.378 6 113178546.637 8  88191074.718 6        49.000 8
        41.000 6
  22519526.630 7  22519525.790 6 118340909.655 7  92213695.966 6        46.000 7
        37.000 6
  24015429.900 7  24015424.960 4 126201938.009 7  98339172.350 4        42.000 7
        25.000 4
 10  1  6  5 57 49.0000000  0  9G02G04G05G07G10G12G13G17G23
  21111301.760 8  21111297.960 7 110940640.472 8  86447252.690 7        51.000 8
        45.000 7
  20675528.604 8  20675527.304 7 108650636.135 8  84662833.270 7        52.000 8
        47.000 7
  22592490.130 8  22592488.550 6 118724339.676 8  92512472.372 6        48.000 8
        37.000 6
  24658711.056 7  24658710.456 4 129582399.614 7 100973298.558 4        43.000 7
        25.000 4
  21242873.140 8  21242871.760 7 111632052.680 8  86986014.989 7        51.000 8
        43.000 7
  24815256.956 6  24815256.396 4 130405055.607 6 101614328.422 4        37.000 6
        24.000 4
  21537462.678 8  21537460.398 6 113180130.591 8  88192308.974 6        49.000 8
        41.000 6
  22520175.630 7  22520174.730 6 118344319.863 7  92216353.263 6        46.000 7
        37.000 6
  24016004.440 7  24016000.160 4 126204958.425 7  98341525.929 4        42.000 7
        26.000 4
 10  1  6  5 57 50.0000000  0  9G02G04G05G07G10G12G13G17G23
  21110913.800 8  21110909.740 7 110938601.463 8  86445663.850 7        52.000 8
        45.000 7
  20675630.884 8  20675629.604 7 108651174.075 8  84663252.446 7        52.000 8
        47.000 7
  22592075.810 8  22592074.690 6 118722162.583 8  92510775.934 6        48.000 8
        37.000 6
  24658289.516 7  24658288.456 4 129580181.298 7 100971570.002 4        43.000 7
        24.000 4
  21242569.860 8  21242568.580 7 111630458.938 8  86984773.108 7        51.000 8
        43.000 7
  24815543.076 6  24815541.976 4 130406556.753 6 101615498.105 4        37.000 6
        24.000 4
  21537764.098 8  21537761.958 6 113181714.493 8  88193543.186 6        49.000 8
        41.000 6
  22520824.590 7  22520823.250 6 118347729.684 7  92219010.267 6        47.000 7
        37.000 6
  24016579.000 6  24016574.560 4 126207978.436 6  98343879.170 4        41.000 6
        25.000 4
 10  1  6  5 57 51.0000000  0  9G02G04G05G07G10G12G13G17G23
  21110525.860 8  21110521.800 7 110936561.629 8  86444074.371 7        51.000 8
        45.000 7
  20675733.304 8  20675731.884 7 108651711.294 8  84663671.056 7        53.000 8
        47.000 7
  22591661.310 8  22591659.690 6 118719984.712 8  92509078.905 6        48.000 8
        37.000 6
  24657866.236 7  24657865.876 4 129577962.141 7 100969840.805 4        43.000 7
        25.000 4
  21242266.780 8  21242265.180 7 111628864.524 8  86983530.712 7        51.000 8
        42.000 7
  24815828.476 6  24815827.356 4 130408057.215 6 101616667.317 4        38.000 6
        25.000 4
  21538065.518 8  21538063.378 6 113183297.975 8  88194777.063 6        49.000 8
        41.000 6
  22521472.970 7  22521472.190 6 118351138.757 7  92221666.689 6        46.000 7
        36.000 6
  24017153.380 6  24017148.920 4 126210997.766 6  98346231.884 4        41.000 6
        26.000 4
 10  1  6  5 57 52.0000000  0  9G02G04G05G07G10G12G13G17G23
  21110138.020 8  21110134.140 7 110934524.307 8  86442486.837 7        51.000 8
        45.000 7
  20675835.864 8  20675834.724 7 108652251.154 8  84664091.735 7        53.000 8
        47.000 7
  22591247.690 8  22591245.970 6 118717809.401 8  92507383.851 6        48.000 8
        37.000 6
  24657444.816 7  24657444.036 4 129575745.446 7 100968113.478 4        43.000 7
        26.000 4
  21241963.820 8  21241962.480 7 111627272.781 8  86982290.391 7        51.000 8
        43.000 7
  24816113.816 6  24816113.796 4 130409560.326 6 101617838.574 4        38.000 6
        25.000 4
  21538367.338 8  21538365.038 6 113184884.391 8  88196013.238 6        49.000 8
        41.000 6
  22522122.210 7  22522121.230 6 118354550.426 7  92224325.126 6        46.000 7
        37.000 6
  24017728.700 6  24017724.060 4 126214019.685 6  98348586.669 4        41.000 6
        24.000 4
 10  1  6  5 57 53.0000000  0  9G02G04G05G07G10G12G13G17G23
  21109750.040 8  21109746.200 7 110932485.366 8  86440898.059 7        52.000 8
        45.000 7
  20675938.204 8  20675936.704 7 108652789.533 8  84664511.244 7        53.000 8
        47.000 7
  22590832.930 8  22590831.470 6 118715632.516 8  92505687.574 6        48.000 8
        37.000 6
  24657022.976 7  24657022.156 4 129573527.085 7 100966384.885 4        43.000 7
        26.000 4
  21241660.720 8  21241659.020 7 111625679.544 8  86981048.901 7        51.000 8
        43.000 7
  24816399.876 6  24816399.476 4 130411061.953 6 101619008.675 4        37.000 6
        25.000 4
  21538669.098 8  21538666.718 6 113186469.591 8  88197248.448 6        49.000 8
        41.000 6
  22522771.110 7  22522770.310 6 118357960.516 7  92226982.349 6        46.000 7
        36.000 6
  24018303.500 6  24018298.940 4 126217040.053 6  98350940.148 4        41.000 6
        25.000 4
 10  1  6  5 57 54.0000000  0  9G02G04G05G07G10G12G13G17G23
  21109362.320 8  21109358.400 7 110930448.451 8  86439310.852 7        52.000 8
        45.000 7
  20676041.224 8  20676039.924 7 108653330.087 8  84664932.447 7        53.000 8
        47.000 7
  22590419.450 8  22590417.870 6 118713457.714 8  92503992.926 6        48.000 8
        37.000 6
  24656601.296 7  24656600.336 4 129571310.708 7 100964657.842 4        42.000 7
        26.000 4
  21241358.040 8  21241356.380 7 111624088.506 8  86979809.131 7        50.000 8
        43.000 7
  24816685.896 6  24816685.876 4 130412565.744 6 101620180.454 4        37.000 6
        26.000 4
  21538970.958 8  21538968.878 6 113188057.218 8  88198485.563 6        49.000 8
        41.000 6
  22523420.050 7  22523419.550 6 118361372.718 7  92229641.194 6        46.000 7
        37.000 6
  24018878.080 6  24018874.180 4 126220062.561 6  98353295.361 4        41.000 6
        25.000 4
 10  1  6  5 57 55.0000000  0  9G02G04G05G07G10G12G13G17G23
  21108974.400 8  21108970.380 7 110928409.750 8  86437722.256 7        52.000 8
        44.000 7
  20676143.704 8  20676142.364 7 108653868.946 8  84665352.346 7        52.000 8
        47.000 7
  22590005.410 8  22590003.450 6 118711281.141 8  92502296.901 6        48.000 8
        37.000 6
  24656179.536 7  24656178.076 4 129569092.484 7 100962929.348 4        42.000 7
        25.000 4
  21241054.960 8  21241053.540 7 111622495.783 8  86978568.049 7        50.000 8
        43.000 7
  24816972.516 6  24816971.576 4 130414067.891 6 101621350.944 4        37.000 6
        24.000 4
  21539272.958 8  21539271.018 6 113189643.461 8  88199721.606 6        49.000 8
        41.000 6
  22524069.530 7  22524068.650 6 118364783.181 7  92232298.695 6        46.000 7
        37.000 6
  24019452.940 6  24019449.260 4 126223083.323 6  98355649.255 4        40.000 6
        25.000 4
 10  1  6  5 57 56.0000000  0  9G02G04G05G07G10G12G13G17G23
  21108586.720 8  21108582.860 7 110926372.496 8  86436134.783 7        52.000 8
        45.000 7
  20676246.584 8  20676245.164 7 108654409.382 8  84665773.458 7        52.000 8
        47.000 7
  22589591.110 8  22589589.630 6 118709106.087 8  92500602.060 6        48.000 8
        37.000 6
  24655757.476 7  24655756.536 4 129566875.698 7 100961202.000 4        42.000 7
        26.000 4
  21240752.000 8  21240750.460 7 111620904.679 8  86977328.236 7        50.000 8
        43.000 7
  24817258.396 6  24817257.636 3 130415571.659 6 101622522.725 3        38.000 6
        23.000 3
  21539575.218 8  21539572.998 6 113191231.562 8  88200959.083 6        48.000 8
        41.000 6
  22524718.810 7  22524717.830 6 118368195.165 7  92234957.384 6        46.000 7
        36.000 6
  24020028.180 6  24020024.280 4 126226105.702 6  98358004.336 4        41.000 6
        25.000 4
 10  1  6  5 57 57.0000000  0  9G02G04G05G07G10G12G13G17G23
  21108198.900 8  21108194.840 7 110924333.923 8  86434546.287 7        52.000 8
        44.000 7
  20676349.184 8  20676347.864 7 108654948.648 8  84666193.664 7        52.000 8
        47.000 7
  22589177.130 8  22589175.070 6 118706929.746 8  92498906.206 6        49.000 8
        37.000 6
  24655335.056 7  24655333.956 4 129564657.542 7 100959473.559 4        42.000 7
        24.000 4
  21240448.980 8  21240447.260 7 111619312.406 8  86976087.507 7        51.000 8
        43.000 7
  24817544.516 6  24817543.736 4 130417074.186 6 101623693.547 4        37.000 6
        24.000 4
  21539877.258 8  21539875.118 6 113192818.764 8  88202195.866 6        49.000 8
        41.000 6
  22525367.830 7  22525366.430 6 118371605.904 7  92237615.103 6        46.000 7
        37.000 6
  24020603.280 6  24020599.220 4 126229126.816 6  98360358.437 4        41.000 6
        25.000 4
 10  1  6  5 57 58.0000000  0  9G02G04G05G07G10G12G13G17G23
  21107811.400 8  21107807.460 7 110922297.327 8  86432959.322 7        52.000 8
        45.000 7
  20676452.364 8  20676450.904 7 108655490.035 8  84666615.518 7        52.000 8
        47.000 7
  22588763.410 8  22588761.370 6 118704755.433 8  92497211.934 6        48.000 8
        37.000 6
  24654913.636 7  24654912.416 3 129562441.315 7 100957746.618 3        42.000 7
        23.000 3
  21240146.580 8  21240145.120 7 111617722.256 8  86974848.423 7        50.000 8
        43.000 7
  24817831.316 6  24817830.016 4 130418578.866 6 101624866.002 4        38.000 6
        24.000 4
  21540179.778 8  21540177.878 6 113194408.357 8  88203434.498 6        49.000 8
        40.000 6
  22526017.190 7  22526016.410 6 118375018.695 7  92240274.406 6        46.000 7
        37.000 6
  24021178.460 6  24021174.720 4 126232149.983 6  98362714.143 4        41.000 6
        26.000 4
 10  1  6  5 57 59.0000000  0  9G02G04G05G07G10G12G13G17G23
  21107423.800 8  21107420.020 7 110920260.856 8  86431372.470 7        52.000 8
        44.000 7
  20676555.264 8  20676553.884 7 108656031.645 8  84667037.562 7        53.000 8
        47.000 7
  22588349.510 8  22588347.350 6 118702581.249 8  92495517.768 6        48.000 8
        37.000 6
  24654491.776 7  24654490.276 4 129560225.174 7 100956019.786 4        43.000 7
        24.000 4
  21239843.920 8  21239842.180 7 111616132.361 8  86973609.552 7        50.000 8
        42.000 7
  24818117.056 6  24818116.496 4 130420083.779 6 101626038.643 4        39.000 6
        25.000 4
  21540482.198 8  21540480.498 6 113195998.455 8  88204673.537 6        49.000 8
        40.000 6
  22526666.850 7  22526665.770 6 118378431.643 7  92242933.852 6        46.000 7
        36.000 6
  24021754.000 6  24021750.200 4 126235173.384 6  98365070.040 4        41.000 6
        25.000 4
 10  1  6  5 58  0.0000000  0  9G02G04G05G07G10G12G13G17G23
  21107036.140 8  21107032.340 7 110918224.304 8  86429785.544 7        52.000 8
        44.000 7
  20676658.444 8  20676656.964 7 108656573.350 8  84667459.659 7        53.000 8
        47.000 7
  22587935.910 8  22587933.950 6 118700407.101 8  92493823.627 6        49.000 8
        37.000 6
  24654069.816 7  24654068.596 4 129558008.897 7 100954292.807 4        43.000 7
        24.000 4
  21239541.440 8  21239539.700 7 111614542.555 8  86972370.742 7        50.000 8
        43.000 7
  24818403.056 6  24818402.916 4 130421588.834 6 101627211.438 4        39.000 6
        24.000 4
  21540784.758 8  21540782.698 6 113197588.909 8  88205912.854 6        49.000 8
        40.000 6
  22527315.870 7  22527315.410 6 118381844.615 7  92245593.309 6        46.000 7
        37.000 6
  24022329.560 6  24022325.400 4 126238196.776 6  98367425.930 4        40.000 6
        25.000 4
 10  1  6  5 58  1.0000000  0  9G02G04G05G07G10G12G13G17G23
  21106648.360 8  21106644.840 7 110916187.278 8  86428198.254 7        52.000 8
        44.000 7
  20676761.584 8  20676760.064 7 108657114.682 8  84667881.488 7        53.000 8
        47.000 7
  22587522.410 8  22587520.330 6 118698232.484 8  92492129.122 6        49.000 8
        37.000 6
  24653647.976 7  24653646.816 4 129555792.103 7 100952565.451 4        43.000 7
        25.000 4
  21239238.940 8  21239237.160 7 111612952.397 8  86971131.660 7        50.000 8
        43.000 7
  24818689.416 6  24818688.916 4 130423093.456 6 101628383.852 4        40.000 6
        24.000 4
  21541087.578 8  21541085.258 6 113199179.286 8  88207152.111 6        49.000 8
        41.000 6
  22527965.510 7  22527964.830 6 118385257.154 7  92248252.432 6        46.000 7
        37.000 6
  24022904.300 6  24022901.040 4 126241219.796 6  98369781.524 4        41.000 6
        25.000 4
 10  1  6  5 58  2.0000000  0  9G02G04G05G07G10G12G13G17G23
  21106261.040 8  21106257.220 7 110914150.645 8  86426611.267 7        52.000 8
        44.000 7
  20676864.604 8  20676863.204 7 108657656.513 8  84668303.694 7        52.000 8
        47.000 7
  22587108.190 8  22587106.630 6 118696058.286 8  92490434.951 6        48.000 8
        37.000 6
  24653226.596 7  24653225.076 4 129553575.652 7 100950838.336 4        43.000 7
        25.000 4
  21238936.340 8  21238934.860 7 111611362.778 8  86969892.992 7        50.000 8
        43.000 7
  24818976.016 6  24818975.596 4 130424598.622 6 101629556.696 4        40.000 6
        25.000 4
  21541390.618 8  21541388.058 6 113200770.437 8  88208391.965 6        49.000 8
        41.000 6
  22528614.990 7  22528613.630 6 118388670.123 7  92250911.881 6        46.000 7
        37.000 6
  24023479.600 6  24023476.280 4 126244243.294 6  98372137.531 4        40.000 6
        26.000 4
 10  1  6  5 58  3.0000000  0  9G02G04G05G07G10G12G13G17G23
  21105873.540 8  21105869.780 7 110912114.510 8  86425024.666 7        52.000 8
        44.000 7
  20676967.864 8  20676966.224 7 108658199.011 8  84668726.410 7        52.000 8
        47.000 7
  22586694.730 8  22586692.770 6 118693884.667 8  92488741.219 6        48.000 8
        37.000 6
  24652804.356 7  24652803.476 4 129551359.682 7 100949111.648 4        43.000 7
        24.000 4
  21238634.000 8  21238632.720 7 111609773.813 8  86968654.835 7        51.000 8
        43.000 7
  24819262.516 6  24819261.936 4 130426104.455 6 101630730.109 4        39.000 6
        24.000 4
  21541693.678 8  21541691.178 6 113202362.521 8  88209632.551 6        49.000 8
        41.000 6
  22529264.510 7  22529263.610 6 118392083.700 7  92253571.815 6        46.000 7
        36.000 6
  24024055.040 6  24024051.600 4 126247267.409 6  98374493.954 4        40.000 6
        26.000 4
 10  1  6  5 58  4.0000000  0  9G02G04G05G07G10G12G13G17G23
  21105486.600 8  21105483.320 7 110910081.913 8  86423440.828 7        52.000 8
        44.000 7
  20677071.784 8  20677070.784 7 108658745.143 8  84669151.970 7        53.000 8
        47.000 7
  22586281.990 8  22586279.890 6 118691714.605 8  92487050.264 6        49.000 8
        37.000 6
  24652383.176 7  24652382.716 4 129549147.194 7 100947387.590 4        43.000 7
        25.000 4
  21238332.220 8  21238330.820 7 111608188.537 8  86967419.555 7        50.000 8
        43.000 7
  24819549.556 6  24819549.196 4 130427613.940 6 101631906.319 4        40.000 6
        24.000 4
  21541996.898 8  21541994.878 6 113203958.538 8  88210876.205 6        49.000 8
        41.000 6
  22529914.590 7  22529913.990 6 118395500.858 7  92256234.541 6        46.000 7
        37.000 6
  24024631.280 6  24024627.720 4 126250295.095 6  98376853.194 4        40.000 6
        26.000 4
 10  1  6  5 58  5.0000000  0  9G02G04G05G07G10G12G13G17G23
  21105099.040 8  21105095.280 7 110908044.267 8  86421853.042 7        52.000 8
        44.000 7
  20677174.684 8  20677173.244 7 108659286.357 8  84669573.694 7        52.000 8
        47.000 7
  22585867.830 8  22585865.890 6 118689539.557 8  92485355.419 6        48.000 8
        37.000 6
  24651961.436 7  24651960.536 4 129546929.625 7 100945659.634 4        43.000 7
        24.000 4
  21238029.780 8  21238028.140 7 111606598.347 8  86966180.456 7        51.000 8
        43.000 7
  24819836.296 6  24819835.596 4 130429118.541 6 101633078.731 4        39.000 6
        25.000 4
  21542299.798 8  21542297.858 6 113205549.923 8  88212116.244 6        50.000 8
        40.000 6
  22530564.190 7  22530563.310 6 118398913.034 7  92258893.365 6        46.000 7
        37.000 6
  24025206.040 6  24025203.320 4 126253317.857 6  98379208.591 4        40.000 6
        26.000 4
 10  1  6  5 58  6.0000000  0  9G02G04G05G07G10G12G13G17G23
  21104711.560 8  21104707.740 7 110906008.230 8  86420266.530 7        52.000 8
        44.000 7
  20677277.864 8  20677276.784 7 108659829.323 8  84669996.787 7        52.000 8
        47.000 7
  22585454.290 8  22585451.930 6 118687366.150 8  92483661.862 6        49.000 8
        37.000 6
  24651539.656 7  24651538.916 4 129544713.594 7 100943932.837 4        44.000 7
        25.000 4
  21237727.400 8  21237726.020 7 111605009.913 8  86964942.715 7        51.000 8
        43.000 7
  24820122.676 6  24820122.216 4 130430624.823 6 101634252.466 4        38.000 6
        24.000 4
  21542603.278 8  21542600.518 6 113207143.313 8  88213357.844 6        50.000 8
        41.000 6
  22531213.670 7  22531212.610 6 118402326.891 7  92261553.520 6        46.000 7
        37.000 6
  24025781.980 6  24025778.120 4 126256342.317 6  98381565.294 4        41.000 6
        27.000 4
 10  1  6  5 58  7.0000000  0  9G02G04G05G07G10G12G13G17G23
  21104324.180 8  21104320.400 7 110903972.952 8  86418680.593 7        53.000 8
        44.000 7
  20677381.444 8  20677380.024 7 108660373.193 8  84670420.576 7        52.000 8
        47.000 7
  22585041.110 8  22585039.010 6 118685193.550 8  92481968.923 6        48.000 8
        37.000 6
  24651117.436 7  24651116.996 4 129542498.292 7 100942206.646 4        43.000 7
        26.000 4
  21237425.300 8  21237423.880 7 111603422.369 8  86963705.662 7        51.000 8
        43.000 7
  24820409.576 6  24820409.236 4 130432132.067 6 101635426.944 4        38.000 6
        26.000 4
  21542906.618 8  21542904.278 6 113208737.877 8  88214600.354 6        50.000 8
        41.000 6
  22531863.430 7  22531862.390 6 118405741.561 7  92264214.297 6        47.000 7
        37.000 6
  24026358.400 7  24026354.180 4 126259367.593 7  98383922.671 4        42.000 7
        26.000 4
 10  1  6  5 58  8.0000000  0  9G02G04G05G07G10G12G13G17G23
  21103937.060 8  21103933.480 7 110901938.951 8  86417095.657 7        52.000 8
        45.000 7
  20677485.084 8  20677483.964 7 108660918.479 8  84670845.482 7        52.000 8
        47.000 7
  22584627.770 8  22584625.390 6 118683022.278 8  92480277.028 6        48.000 8
        37.000 6
  24650696.776 7  24650695.716 4 129540284.243 7 100940481.407 4        43.000 7
        26.000 4
  21237123.320 8  21237122.040 7 111601836.258 8  86962469.744 7        51.000 8
        43.000 7
  24820695.896 6  24820696.176 4 130433640.706 6 101636602.511 4        39.000 6
        25.000 4
  21543210.578 8  21543207.858 6 113210334.102 8  88215844.171 6        49.000 8
        41.000 6
  22532513.270 7  22532512.490 6 118409157.597 7  92266876.137 6        47.000 7
        37.000 6
  24026934.040 6  24026930.140 4 126262394.260 6  98386281.116 4        41.000 6
        26.000 4
 10  1  6  5 58  9.0000000  0  9G02G04G05G07G10G12G13G17G23
  21103549.740 8  21103546.160 7 110899903.206 8  86415509.364 7        52.000 8
        45.000 7
  20677588.764 8  20677587.384 7 108661462.120 8  84671269.092 7        52.000 8
        47.000 7
  22584214.090 8  22584211.970 6 118680849.281 8  92478583.775 6        48.000 8
        37.000 6
  24650274.836 7  24650274.296 4 129538068.405 7 100938754.759 4        43.000 7
        25.000 4
  21236821.200 8  21236819.680 7 111600248.554 8  86961232.566 7        50.000 8
        43.000 7
  24820983.556 6  24820983.156 4 130435147.732 6 101637776.786 4        39.000 6
        25.000 4
  21543513.718 8  21543511.058 6 113211929.013 8  88217086.955 6        50.000 8
        41.000 6
  22533163.590 7  22533162.290 6 118412571.930 7  92269536.659 6        47.000 7
        37.000 6
  24027509.000 6  24027505.600 4 126265419.263 6  98388638.274 4        41.000 6
        25.000 4
 10  1  6  5 58 10.0000000  0  9G02G04G05G07G10G12G13G17G23
  21103162.540 8  21103158.860 7 110897868.083 8  86413923.554 7        52.000 8
        45.000 7
  20677692.324 8  20677690.724 7 108662006.534 8  84671693.315 7        52.000 8
        47.000 7
  22583801.130 8  22583798.890 6 118678676.970 8  92476891.080 6        48.000 8
        37.000 6
  24649853.396 7  24649852.596 4 129535853.163 7 100937028.631 4        43.000 7
        24.000 4
  21236519.220 8  21236517.860 7 111598661.633 8  86959996.006 7        51.000 8
        43.000 7
  24821270.036 6  24821270.176 4 130436655.518 6 101638951.709 4        39.000 6
        26.000 4
  21543817.618 8  21543815.218 6 113213524.954 8  88218330.550 6        49.000 8
        41.000 6
  22533813.330 7  22533812.090 6 118415986.967 7  92272197.729 6        47.000 7
        37.000 6
  24028085.200 6  24028081.700 4 126268444.979 6  98390995.964 4        41.000 6
        26.000 4
 10  1  6  5 58 11.0000000  0  9G02G04G05G07G10G12G13G17G23
  21102775.900 8  21102772.580 7 110895835.540 8  86412339.759 7        52.000 8
        45.000 7
  20677796.384 8  20677795.124 7 108662553.644 8  84672119.638 7        52.000 8
        47.000 7
  22583388.210 8  22583385.970 6 118676507.279 8  92475200.408 6        48.000 8
        37.000 6
  24649432.236 7  24649431.516 4 129533640.431 7 100935304.430 4        43.000 7
        25.000 4
  21236217.460 8  21236216.200 7 111597077.408 8  86958761.543 7        51.000 8
        43.000 7
  24821558.236 6  24821557.616 4 130438166.025 6 101640128.727 4        39.000 6
        24.000 4
  21544121.678 8  21544119.298 6 113215123.880 8  88219576.476 6        50.000 8
        41.000 6
  22534463.610 7  22534462.650 6 118419404.627 7  92274860.828 6        47.000 7
        37.000 6
  24028661.620 7  24028657.620 4 126271473.382 7  98393355.733 4        42.000 7
        27.000 4
 10  1  6  5 58 12.0000000  0  9G02G04G05G07G10G12G13G17G23
  21102388.680 8  21102385.040 7 110893801.132 8  86410754.506 7        52.000 8
        45.000 7
  20677900.144 8  20677898.904 7 108663099.027 8  84672544.608 7        53.000 8
        47.000 7
  22582974.690 8  22582972.510 6 118674335.780 8  92473508.335 6        48.000 8
        37.000 6
  24649010.476 7  24649009.956 4 129531425.801 7 100933578.698 4        42.000 7
        25.000 4
  21235915.780 8  21235914.540 7 111595491.480 8  86957525.757 7        51.000 8
        43.000 7
  24821845.036 6  24821844.476 4 130439674.832 6 101641304.430 4        36.000 6
        25.000 4
  21544425.958 8  21544423.458 6 113216721.330 8  88220821.226 6        50.000 8
        41.000 6
  22535113.530 7  22535112.630 6 118422820.502 7  92277522.557 6        47.000 7
        37.000 6
  24029237.180 6  24029233.860 4 126274499.991 6  98395714.125 4        40.000 6
        27.000 4
 10  1  6  5 58 13.0000000  0  9G02G04G05G07G10G12G13G17G23
  21102001.840 8  21101998.260 7 110891768.156 8  86409170.368 7        52.000 8
        45.000 7
  20678004.004 8  20678002.784 7 108663645.940 8  84672970.772 7        52.000 8
        47.000 7
  22582562.090 7  22582559.530 6 118672165.708 7  92471817.373 6        47.000 7
        37.000 6
  24648589.896 7  24648588.676 4 129529212.567 7 100931854.145 4        42.000 7
        26.000 4
  21235614.220 8  21235613.300 7 111593907.103 8  86956291.181 7        51.000 8
        43.000 7
  24822131.756 5  24822132.016 4 130441185.143 5 101642481.285 4        35.000 5
        24.000 4
  21544729.998 8  21544727.558 6 113218320.605 8  88222067.425 6        50.000 8
        40.000 6
  22535763.710 7  22535762.930 6 118426237.841 7  92280185.407 6        47.000 7
        37.000 6
  24029813.380 6  24029809.920 4 126277528.123 6  98398073.715 4        40.000 6
        27.000 4
 10  1  6  5 58 14.0000000  0  9G02G04G05G07G10G12G13G17G23
  21101614.500 8  21101610.940 7 110889733.264 8  86407584.734 7        52.000 8
        45.000 7
  20678108.064 8  20678106.664 7 108664191.092 8  84673395.566 7        53.000 8
        47.000 7
  22582148.350 8  22582146.390 6 118669993.797 8  92470124.971 6        48.000 8
        37.000 6
  24648168.456 7  24648167.356 3 129526997.372 7 100930127.966 3        42.000 7
        23.000 3
  21235312.560 8  21235311.540 7 111592320.989 8  86955055.246 7        51.000 8
        43.000 7
  24822419.336 5  24822418.956 4 130442693.722 5 101643656.792 4        35.000 5
        25.000 4
  21545034.138 8  21545031.678 6 113219918.378 8  88223312.438 6        50.000 8
        41.000 6
  22536414.110 7  22536412.770 6 118429653.344 7  92282846.843 6        47.000 7
        37.000 6
  24030389.520 6  24030385.680 4 126280554.398 6  98400431.886 4        40.000 6
        25.000 4
 10  1  6  5 58 15.0000000  0  9G02G04G05G07G10G12G13G17G23
  21101227.660 8  21101223.840 7 110887699.324 8  86405999.852 7        52.000 8
        45.000 7
  20678211.864 8  20678210.604 7 108664737.308 8  84673821.195 7        53.000 8
        47.000 7
  22581735.490 8  22581733.130 6 118667822.873 8  92468433.344 6        48.000 8
        37.000 6
  24647747.156 7  24647745.876 4 129524783.074 7 100928402.608 4        42.000 7
        24.000 4
  21235010.960 8  21235009.640 7 111590735.959 8  86953820.156 7        50.000 8
        43.000 7
  24822706.296 6  24822706.216 4 130444203.328 6 101644833.119 4        36.000 6
        25.000 4
  21545338.458 8  21545336.078 6 113221517.495 8  88224558.506 6        50.000 8
        41.000 6
  22537064.150 7  22537062.970 6 118433069.858 7  92285509.058 6        47.000 7
        37.000 6
  24030965.300 6  24030962.300 4 126283581.725 6  98402790.829 4        40.000 6
        26.000 4
 10  1  6  5 58 16.0000000  0  9G02G04G05G07G10G12G13G17G23
  21100840.580 8  21100836.500 7 110885665.399 8  86404414.971 7        52.000 8
        45.000 7
  20678315.864 8  20678314.244 7 108665283.706 8  84674246.953 7        53.000 8
        47.000 7
  22581322.190 8  22581320.290 6 118665651.997 8  92466741.752 6        48.000 8
        37.000 6
  24647325.596 7  24647324.556 4 129522568.751 7 100926677.142 4        42.000 7
        25.000 4
  21234709.400 8  21234707.860 7 111589151.093 8  86952585.196 7        51.000 8
        43.000 7
  24822993.676 6  24822993.436 4 130445713.160 6 101646009.607 4        36.000 6
        25.000 4
  21545642.718 8  21545640.178 6 113223117.055 8  88225804.909 6        50.000 8
        41.000 6
  22537714.010 7  22537713.050 6 118436486.448 7  92288171.344 6        47.000 7
        37.000 6
  24031541.080 6  24031538.200 4 126286609.166 6  98405149.858 4        41.000 6
        27.000 4
 10  1  6  5 58 17.0000000  0  9G02G04G05G07G10G12G13G17G23
  21100453.740 8  21100450.140 7 110883632.226 8  86402830.687 7        52.000 8
        45.000 7
  20678420.004 8  20678418.544 7 108665830.957 8  84674673.379 7        53.000 8
        47.000 7
  22580909.530 8  22580907.170 6 118663481.914 8  92465050.769 6        48.000 8
        37.000 6
  24646904.376 7  24646903.176 4 129520355.152 7 100924952.263 4        42.000 7
        25.000 4
  21234407.980 8  21234406.700 7 111587567.121 8  86951350.927 7        51.000 8
        43.000 7
  24823281.036 6  24823280.956 4 130447223.814 6 101647186.776 4        36.000 6
        26.000 4
  21545947.438 8  21545944.638 6 113224717.765 8  88227052.216 6        50.000 8
        40.000 6
  22538364.790 7  22538363.530 6 118439903.837 7  92290834.226 6        47.000 7
        38.000 6
  24032117.540 6  24032114.640 4 126289637.436 6  98407509.571 4        41.000 6
        27.000 4
 10  1  6  5 58 18.0000000  0  9G02G04G05G07G10G12G13G17G23
  21100067.140 8  21100063.360 7 110881600.989 8  86401247.899 7        52.000 8
        45.000 7
  20678524.324 8  20678523.104 7 108666380.282 8  84675101.428 7        53.000 8
        47.000 7
  22580496.670 8  22580494.830 6 118661313.826 8  92463361.363 6        48.000 8
        37.000 6
  24646483.396 7  24646482.156 4 129518143.413 7 100923228.842 4        43.000 7
        25.000 4
  21234106.720 8  21234105.340 7 111585985.218 8  86950118.284 7        51.000 8
        43.000 7
  24823568.676 6  24823568.576 4 130448736.584 6 101648365.545 4        36.000 6
        25.000 4
  21546252.538 8  21546249.998 6 113226320.795 8  88228301.333 6        49.000 8
        40.000 6
  22539015.210 7  22539014.130 6 118443323.217 7  92293498.683 6        47.000 7
        37.000 6
  24032694.720 6  24032691.600 4 126292667.739 6  98409870.820 4        41.000 6
        26.000 4
 10  1  6  5 58 19.0000000  0  9G02G04G05G07G10G12G13G17G23
  21099679.860 8  21099676.240 7 110879566.991 8  86399662.969 7        52.000 8
        45.000 7
  20678628.584 8  20678627.304 7 108666926.995 8  84675527.438 7        53.000 8
        47.000 7
  22580083.990 8  22580081.350 6 118659143.018 8  92461669.819 6        48.000 8
        37.000 6
  24646061.956 7  24646060.736 4 129515928.891 7 100921503.218 4        43.000 7
        25.000 4
  21233805.380 8  21233803.960 7 111584400.717 8  86948883.612 7        50.000 8
        43.000 7
  24823856.096 6  24823856.056 4 130450246.711 6 101649542.261 4        36.000 6
        25.000 4
  21546557.178 8  21546554.498 6 113227921.500 8  88229548.641 6        49.000 8
        40.000 6
  22539665.430 7  22539663.970 6 118446739.923 7  92296161.053 6        47.000 7
        37.000 6
  24033270.340 6  24033267.640 4 126295695.380 6  98412230.013 4        41.000 6
        26.000 4
 10  1  6  5 58 20.0000000  0  9G02G04G05G07G10G12G13G17G23
  21099293.200 8  21099289.460 7 110877534.835 8  86398079.473 7        52.000 8
        45.000 7
  20678732.944 8  20678731.724 7 108667475.636 8  84675954.955 7        53.000 8
        47.000 7
  22579670.850 8  22579668.350 6 118656974.065 8  92459979.740 6        48.000 8
        36.000 6
  24645641.076 7  24645639.716 4 129513716.158 7 100919779.040 4        43.000 7
        24.000 4
  21233504.140 8  21233502.920 7 111582818.177 8  86947650.464 7        50.000 8
        43.000 7
  24824143.896 6  24824143.696 4 130451758.842 6 101650720.543 4        36.000 6
        25.000 4
  21546862.358 8  21546859.818 6 113229524.430 8  88230797.678 6        49.000 8
        40.000 6
  22540316.470 7  22540314.990 6 118450158.516 7  92298824.893 6        47.000 7
        38.000 6
  24033847.040 6  24033844.060 4 126298724.919 6  98414590.735 4        40.000 6
        26.000 4
 10  1  6  5 58 21.0000000  0  9G02G04G05G07G10G12G13G17G23
  21098906.400 8  21098903.100 7 110875502.715 8  86396495.999 7        52.000 8
        45.000 7
  20678837.564 8  20678836.004 7 108668024.443 8  84676382.595 7        53.000 8
        47.000 7
  22579258.110 8  22579255.590 6 118654805.231 8  92458289.733 6        48.000 8
        37.000 6
  24645219.756 7  24645219.076 4 129511503.428 7 100918054.826 4        43.000 7
        26.000 4
  21233203.220 8  21233201.940 7 111581235.843 8  86946417.479 7        51.000 8
        43.000 7
  24824431.936 5  24824431.116 4 130453271.096 5 101651898.896 4        35.000 5
        25.000 4
  21547167.458 8  21547164.918 6 113231127.799 8  88232047.046 6        50.000 8
        40.000 6
  22540966.770 7  22540965.590 6 118453577.234 7  92301488.819 6        47.000 7
        37.000 6
  24034423.440 6  24034420.580 4 126301754.562 6  98416951.472 4        41.000 6
        26.000 4
 10  1  6  5 58 22.0000000  0  9G02G04G05G07G10G12G13G17G23
  21098519.720 8  21098516.320 7 110873471.142 8  86394912.957 7        52.000 8
        45.000 7
  20678942.164 8  20678940.704 8 108668573.925 8  84676810.761 8        53.000 8
        48.000 8
  22578845.630 8  22578843.010 6 118652636.956 8  92456600.166 6        48.000 8
        36.000 6
  24644798.776 7  24644798.036 4 129509291.190 7 100916330.988 4        43.000 7
        25.000 4
  21232902.120 8  21232900.760 7 111579654.180 8  86945185.022 7        51.000 8
        43.000 7
  24824720.356 6  24824718.736 4 130454784.042 6 101653077.838 4        36.000 6
        24.000 4
  21547472.598 8  21547470.178 6 113232732.130 8  88233297.184 6        49.000 8
        40.000 6
  22541617.190 7  22541616.450 6 118456996.518 7  92304153.200 6        47.000 7
        38.000 6
  24035000.700 6  24034997.580 4 126304784.870 6  98419312.755 4        41.000 6
        26.000 4
 10  1  6  5 58 23.0000000  0  9G02G04G05G07G10G12G13G17G23
  21098133.200 8  21098129.740 7 110871439.566 8  86393329.917 7        52.000 8
        45.000 7
  20679046.584 8  20679044.884 8 108669123.549 8  84677239.045 8        53.000 8
        48.000 8
  22578432.750 8  22578430.610 6 118650468.746 8  92454910.656 6        49.000 8
        37.000 6
  24644377.616 7  24644376.956 4 129507078.941 7 100914607.176 4        43.000 7
        25.000 4
  21232601.280 8  21232599.880 7 111578072.667 8  86943952.668 7        51.000 8
        43.000 7
  24825007.756 6  24825006.976 4 130456297.127 6 101654256.879 4        36.000 6
        25.000 4
  21547777.918 8  21547775.638 6 113234336.863 8  88234547.619 6        49.000 8
        40.000 6
  22542267.830 7  22542266.770 6 118460415.906 7  92306817.653 6        47.000 7
        37.000 6
  24035577.060 6  24035573.800 4 126307815.268 6  98421674.094 4        41.000 6
        26.000 4
 10  1  6  5 58 24.0000000  0  9G02G04G05G07G10G12G13G17G23
  21097746.620 8  21097742.840 7 110869407.071 8  86391746.144 7        52.000 8
        45.000 7
  20679151.044 8  20679149.484 8 108669672.385 8  84677666.708 8        53.000 8
        48.000 8
  22578020.390 8  22578018.310 6 118648299.657 8  92453220.467 6        48.000 8
        36.000 6
  24643956.816 7  24643955.556 3 129504865.714 7 100912882.577 3        43.000 7
        23.000 3
  21232299.960 8  21232298.520 7 111576490.407 8  86942719.732 7        51.000 8
        43.000 7
  24825295.516 6  24825294.876 4 130457809.419 6 101655435.241 4        36.000 6
        25.000 4
  21548083.218 8  21548080.838 6 113235941.088 8  88235797.665 6        50.000 8
        40.000 6
  22542918.430 7  22542917.270 6 118463834.422 7  92309481.434 6        47.000 7
        37.000 6
  24036153.880 6  24036150.380 4 126310844.825 6  98424034.771 4        40.000 6
        25.000 4
 10  1  6  5 58 25.0000000  0  9G02G04G05G07G10G12G13G17G23
  21097360.020 8  21097356.360 7 110867375.766 8  86390163.309 7        51.000 8
        45.000 7
  20679255.624 8  20679254.324 8 108670222.506 8  84678095.371 8        53.000 8
        48.000 8
  22577607.450 8  22577605.370 6 118646131.760 8  92451531.180 6        49.000 8
        36.000 6
  24643535.896 7  24643534.736 4 129502653.607 7 100911158.847 4        42.000 7
        25.000 4
  21231999.240 8  21231997.680 7 111574909.435 8  86941487.810 7        51.000 8
        43.000 7
  24825583.256 6  24825582.856 4 130459323.000 6 101656614.647 4        36.000 6
        26.000 4
  21548388.718 8  21548385.998 6 113237546.859 8  88237048.913 6        50.000 8
        40.000 6
  22543569.510 7  22543568.050 6 118467254.166 7  92312146.160 6        47.000 7
        37.000 6
  24036730.960 6  24036727.500 4 126313875.656 6  98426396.470 4        40.000 6
        26.000 4
 10  1  6  5 58 26.0000000  0  9G02G04G05G07G10G12G13G17G23
  21096973.440 8  21096969.660 7 110865344.258 8  86388580.320 7        52.000 8
        45.000 7
  20679360.544 8  20679359.124 8 108670772.601 8  84678524.010 8        53.000 8
        48.000 8
  22577194.970 8  22577193.010 6 118643963.727 8  92449841.818 6        48.000 8
        36.000 6
  24643115.376 7  24643113.896 4 129500441.305 7 100909435.002 4        42.000 7
        25.000 4
  21231698.580 8  21231696.780 7 111573328.415 8  86940255.859 7        51.000 8
        42.000 7
  24825871.416 5  24825871.016 4 130460836.629 5 101657794.137 4        34.000 5
        25.000 4
  21548694.198 8  21548692.018 6 113239152.879 8  88238300.364 6        50.000 8
        40.000 6
  22544220.270 8  22544218.810 6 118470673.788 8  92314810.805 6        48.000 8
        37.000 6
  24037307.360 6  24037303.880 4 126316906.364 6  98428758.056 4        41.000 6
        26.000 4
 10  1  6  5 58 27.0000000  0  9G02G04G05G07G10G12G13G17G23
  21096587.140 8  21096583.380 7 110863313.686 8  86386998.057 7        52.000 8
        44.000 7
  20679465.304 8  20679464.064 8 108671323.746 8  84678953.484 8        52.000 8
        48.000 8
  22576782.710 8  22576780.390 6 118641796.682 8  92448153.201 6        49.000 8
        36.000 6
  24642694.196 7  24642693.176 4 129498229.873 7 100907711.772 4        42.000 7
        24.000 4
  21231397.900 8  21231396.540 7 111571748.473 8  86939024.733 7        51.000 8
        42.000 7
  24826159.996 5  24826159.096 4 130462351.225 5 101658974.315 4        35.000 5
        24.000 4
  21549000.338 8  21548997.698 6 113240760.229 8  88239552.834 6        48.000 8
        40.000 6
  22544871.050 7  22544870.010 6 118474094.390 7  92317476.204 6        47.000 7
        37.000 6
  24037884.440 6  24037880.860 4 126319938.107 6  98431120.461 4        40.000 6
        27.000 4
 10  1  6  5 58 28.0000000  0  9G02G04G05G07G10G12G13G17G23
  21096201.100 8  21096197.480 7 110861285.238 8  86385417.445 7        51.000 8
        44.000 7
  20679570.304 8  20679569.044 7 108671877.183 8  84679384.734 7        52.000 8
        47.000 7
  22576370.530 8  22576368.810 6 118639631.778 8  92446466.271 6        49.000 8
        36.000 6
  24642274.276 7  24642272.676 4 129496020.515 7 100905990.239 4        43.000 7
        24.000 4
  21231097.540 8  21231095.940 7 111570170.817 8  86937795.382 7        51.000 8
        43.000 7
  24826448.016 6  24826448.056 4 130463868.107 6 101660156.268 4        36.000 6
        24.000 4
  21549306.438 8  21549304.258 6 113242370.091 8  88240807.278 6        49.000 8
        40.000 6
  22545522.150 7  22545521.390 6 118477517.189 7  92320143.310 6        47.000 7
        37.000 6
  24038461.340 6  24038458.180 4 126322972.012 6  98433484.525 4        41.000 6
        27.000 4
 10  1  6  5 58 29.0000000  0  9G02G04G05G07G10G12G13G17G23
  21095814.560 8  21095810.860 7 110859254.899 8  86383835.367 7        51.000 8
        44.000 7
  20679675.544 8  20679674.164 7 108672428.833 8  84679814.589 7        52.000 8
        47.000 7
  22575957.930 8  22575956.030 6 118637465.051 8  92444777.906 6        48.000 8
        37.000 6
  24641852.736 7  24641851.716 3 129493809.235 7 100904267.135 3        43.000 7
        23.000 3
  21230796.840 8  21230795.600 7 111568591.398 8  86936564.664 7        50.000 8
        42.000 7
  24826736.076 6  24826736.376 4 130465383.257 6 101661336.941 4        36.000 6
        24.000 4
  21549612.538 8  21549610.278 6 113243978.500 8  88242060.583 6        49.000 8
        40.000 6
  22546173.230 7  22546172.330 6 118480938.165 7  92322809.011 6        47.000 7
        37.000 6
  24039038.160 6  24039035.400 4 126326004.154 6  98435847.235 4        41.000 6
        28.000 4
 10  1  6  5 58 30.0000000  0  9G02G04G05G07G10G12G13G17G23
  21095428.120 8  21095424.300 7 110857223.720 8  86382252.628 7        51.000 8
        44.000 7
  20679780.444 8  20679779.144 7 108672979.794 8  84680243.905 7        52.000 8
        47.000 7
  22575545.870 8  22575543.590 6 118635297.509 8  92443088.927 6        49.000 8
        37.000 6
  24641431.816 7  24641431.076 4 129491597.083 7 100902543.393 4        44.000 7
        24.000 4
  21230496.000 8  21230494.880 7 111567011.282 8  86935333.415 7        51.000 8
        43.000 7
  24827024.676 6  24827024.376 3 130466897.661 6 101662516.990 3        36.000 6
        23.000 3
  21549918.838 8  21549916.398 6 113245586.454 8  88243313.536 6        48.000 8
        41.000 6
  22546823.830 7  22546823.010 6 118484358.371 7  92325474.096 6        47.000 7
        37.000 6
  24039615.700 6  24039612.300 4 126329035.551 6  98438209.356 4        40.000 6
        27.000 4
 10  1  6  5 58 31.0000000  0  9G02G04G05G07G10G12G13G17G23
  21095041.980 8  21095038.040 7 110855193.414 8  86380670.569 7        51.000 8
        44.000 7
  20679885.304 8  20679884.024 7 108673531.733 8  84680673.988 7        52.000 8
        47.000 7
  22575133.370 8  22575131.590 6 118633130.908 8  92441400.668 6        49.000 8
        37.000 6
  24641010.736 7  24641010.216 4 129489385.762 7 100900820.271 4        43.000 7
        25.000 4
  21230195.740 8  21230194.220 7 111565432.202 8  86934102.959 7        51.000 8
        43.000 7
  24827313.396 6  24827312.996 3 130468413.108 6 101663697.873 3        37.000 6
        23.000 3
  21550224.978 8  21550222.598 6 113247195.693 8  88244567.485 6        49.000 8
        41.000 6
  22547475.030 7  22547473.990 6 118487779.480 7  92328139.906 6        47.000 7
        37.000 6
  24040191.900 6  24040189.200 4 126332067.869 6  98440572.214 4        40.000 6
        27.000 4
 10  1  6  5 58 32.0000000  0  9G02G04G05G07G10G12G13G17G23
  21094655.640 8  21094651.900 7 110853163.959 8  86379089.172 7        52.000 8
        45.000 7
  20679990.644 8  20679989.324 7 108674084.631 8  84681104.815 7        52.000 8
        47.000 7
  22574721.490 8  22574719.830 6 118630965.174 8  92439713.081 6        49.000 8
        37.000 6
  24640590.716 7  24640589.416 4 129487175.226 7 100899097.779 4        43.000 7
        25.000 4
  21229895.540 8  21229894.040 7 111563854.080 8  86932873.258 7        51.000 8
        43.000 7
  24827602.316 6  24827601.256 3 130469929.472 6 101664879.435 3        36.000 6
        23.000 3
  21550531.218 8  21550529.258 6 113248806.151 8  88245822.387 6        49.000 8
        41.000 6
  22548126.290 7  22548125.090 6 118491201.517 7  92330806.418 6        47.000 7
        37.000 6
  24040769.340 6  24040766.160 4 126335101.154 6  98442935.807 4        40.000 6
        26.000 4
 10  1  6  5 58 33.0000000  0  9G02G04G05G07G10G12G13G17G23
  21094268.940 8  21094264.980 7 110851131.579 8  86377505.499 7        52.000 8
        45.000 7
  20680095.364 8  20680093.744 7 108674634.760 8  84681533.491 7        52.000 8
        47.000 7
  22574308.750 8  22574306.770 6 118628796.570 8  92438023.254 6        48.000 8
        37.000 6
  24640169.316 7  24640168.476 4 129484961.729 7 100897373.007 4        43.000 7
        25.000 4
  21229594.820 8  21229593.060 7 111562273.182 8  86931641.385 7        51.000 8
        43.000 7
  24827889.596 6  24827889.376 3 130471443.148 6 101666058.894 3        37.000 6
        23.000 3
  21550837.458 8  21550834.738 6 113250414.110 8  88247075.349 6        49.000 8
        40.000 6
  22548777.050 7  22548775.750 6 118494620.661 7  92333470.696 6        46.000 7
        37.000 6
  24041346.400 6  24041343.460 4 126338131.578 6  98445297.182 4        40.000 6
        27.000 4
 10  1  6  5 58 34.0000000  0  9G02G04G05G07G10G12G13G17G23
  21093883.200 8  21093879.260 7 110849103.745 8  86375925.375 7        52.000 8
        45.000 7
  20680200.684 8  20680199.524 7 108675189.574 8  84681965.807 7        53.000 8
        47.000 7
  22573897.330 8  22573895.210 6 118626632.536 8  92436337.006 6        49.000 8
        37.000 6
  24639749.156 7  24639748.096 4 129482752.761 7 100895651.713 4        43.000 7
        24.000 4
  21229294.800 8  21229293.280 7 111560696.973 8  86930413.169 7        51.000 8
        42.000 7
  24828178.416 6  24828178.476 4 130472961.457 6 101667241.989 4        36.000 6
        24.000 4
  21551144.478 8  21551141.898 6 113252027.010 8  88248332.153 6        49.000 8
        40.000 6
  22549428.690 7  22549427.550 6 118498044.433 7  92336138.562 6        47.000 7
        38.000 6
  24041923.280 6  24041920.840 4 126341166.634 6  98447662.171 4        41.000 6
        27.000 4
 10  1  6  5 58 35.0000000  0  9G02G04G05G07G10G12G13G17G23
  21093497.380 8  21093493.360 7 110847075.882 8  86374345.222 7        52.000 8
        45.000 7
  20680306.544 8  20680304.984 7 108675744.471 8  84682398.201 7        52.000 8
        47.000 7
  22573484.990 8  22573483.290 6 118624468.547 8  92434650.777 6        49.000 8
        37.000 6
  24639328.416 7  24639327.616 3 129480543.723 7 100893930.395 3        43.000 7
        23.000 3
  21228994.700 8  21228993.340 7 111559120.896 8  86929185.061 7        50.000 8
        42.000 7
  24828467.756 6  24828467.536 4 130474479.863 6 101668425.204 4        37.000 6
        26.000 4
  21551451.038 8  21551449.118 6 113253640.303 8  88249589.263 6        49.000 8
        40.000 6
  22550079.790 7  22550078.870 6 118501468.238 7  92338806.454 6        46.000 7
        37.000 6
  24042500.700 6  24042498.280 4 126344201.777 6  98450027.191 4        40.000 6
        27.000 4
 10  1  6  5 58 36.0000000  0  9G02G04G05G07G10G12G13G17G23
  21093110.800 8  21093106.800 7 110845045.817 8  86372763.347 7        53.000 8
        45.000 7
  20680411.744 8  20680410.164 7 108676297.319 8  84682828.998 7        51.000 8
        47.000 7
  22573072.990 8  22573071.010 6 118622302.397 8  92432962.870 6        49.000 8
        37.000 6
  24638907.976 7  24638906.876 3 129478332.425 7 100892207.310 3        43.000 7
        23.000 3
  21228694.600 8  21228693.260 7 111557542.741 8  86927955.329 7        51.000 8
        42.000 7
  24828756.596 6  24828755.976 4 130475996.190 6 101669606.747 4        38.000 6
        24.000 4
  21551757.758 7  21551755.858 6 113255251.778 7  88250844.956 6        47.000 7
        40.000 6
  22550731.290 7  22550729.990 6 118504889.894 7  92341472.680 6        46.000 7
        38.000 6
  24043078.240 6  24043075.180 4 126347234.761 6  98452390.553 4        41.000 6
        27.000 4
 10  1  6  5 58 37.0000000  0  9G02G04G05G07G10G12G13G17G23
  21092724.520 8  21092720.480 7 110843014.922 8  86371180.841 7        52.000 8
        45.000 7
  20680516.844 8  20680515.144 7 108676849.426 8  84683259.205 7        51.000 8
        47.000 7
  22572660.870 8  22572658.630 6 118620135.436 8  92431274.337 6        49.000 8
        37.000 6
  24638486.736 7  24638485.796 4 129476120.284 7 100890483.543 4        43.000 7
        24.000 4
  21228394.020 8  21228392.320 7 111555963.905 8  86926725.071 7        51.000 8
        42.000 7
  24829045.056 6  24829044.376 4 130477511.842 6 101670787.742 4        38.000 6
        24.000 4
  21552064.598 7  21552062.158 6 113256862.825 7  88252100.325 6        47.000 7
        40.000 6
  22551382.370 7  22551381.150 6 118508310.775 7  92344138.303 6        46.000 7
        38.000 6
  24043655.720 6  24043652.400 4 126350267.029 6  98454753.380 4        41.000 6
        28.000 4
 10  1  6  5 58 38.0000000  0  9G02G04G05G07G10G12G13G17G23
  21092338.920 8  21092334.880 7 110840988.349 8  86369601.681 7        52.000 8
        45.000 7
  20680622.724 8  20680621.304 7 108677405.964 8  84683692.873 7        51.000 8
        47.000 7
  22572249.510 8  22572247.190 6 118617972.839 8  92429589.191 6        49.000 8
        37.000 6
  24638066.536 7  24638065.796 3 129473912.407 7 100888763.134 3        43.000 7
        23.000 3
  21228094.340 8  21228093.020 7 111554389.509 8  86925498.270 7        51.000 8
        42.000 7
  24829334.536 6  24829333.896 4 130479031.919 6 101671972.256 4        39.000 6
        25.000 4
  21552371.898 8  21552369.658 6 113258478.588 8  88253359.359 6        48.000 8
        40.000 6
  22552033.790 7  22552032.850 6 118511736.036 7  92346807.338 6        47.000 7
        38.000 6
  24044233.220 6  24044230.320 4 126353303.678 6  98457119.579 4        41.000 6
        27.000 4
 10  1  6  5 58 39.0000000  0  9G02G04G05G07G10G12G13G17G23
  21091952.840 8  21091948.460 7 110838959.742 8  86368020.959 7        51.000 8
        45.000 7
  20680728.204 8  20680726.764 7 108677960.638 8  84684125.090 7        50.000 8
        47.000 7
  22571837.250 8  22571835.190 6 118615808.256 8  92427902.500 6        49.000 8
        37.000 6
  24637646.236 7  24637645.316 4 129471702.446 7 100887041.113 4        43.000 7
        25.000 4
  21227794.660 8  21227793.160 7 111552813.248 8  86924270.012 7        51.000 8
        42.000 7
  24829623.616 6  24829622.856 4 130480550.080 6 101673155.233 4        39.000 6
        25.000 4
  21552679.138 7  21552676.918 6 113260092.714 7  88254617.116 6        47.000 7
        40.000 6
  22552685.050 7  22552684.370 6 118515159.324 7  92349474.830 6        47.000 7
        38.000 6
  24044810.600 6  24044807.720 4 126356338.379 6  98459484.273 4        40.000 6
        27.000 4
 10  1  6  5 58 40.0000000  0  9G02G04G05G07G10G12G13G17G23
  21091566.880 8  21091563.060 7 110836931.963 8  86366440.866 7        52.000 8
        45.000 7
  20680834.064 8  20680832.524 7 108678516.250 8  84684558.027 7        50.000 8
        47.000 7
  22571425.650 8  22571423.850 6 118613644.543 8  92426216.510 6        48.000 8
        37.000 6
  24637225.856 7  24637224.716 4 129469493.258 7 100885319.643 4        43.000 7
        25.000 4
  21227494.940 8  21227492.900 7 111551237.944 8  86923042.500 7        51.000 8
        42.000 7
  24829912.136 6  24829911.576 4 130482069.240 6 101674338.998 4        39.000 6
        25.000 4
  21552986.318 7  21552984.438 6 113261708.091 7  88255875.859 6        46.000 7
        40.000 6
  22553336.650 7  22553335.730 6 118518583.479 7  92352142.993 6        47.000 7
        38.000 6
  24045388.160 6  24045385.300 4 126359373.987 6  98461849.694 4        40.000 6
        27.000 4
 10  1  6  5 58 41.0000000  0  9G02G04G05G07G10G12G13G17G23
  21091180.800 8  21091176.800 7 110834903.801 8  86364860.485 7        52.000 8
        44.000 7
  20680939.464 8  20680938.104 7 108679071.621 8  84684990.783 7        50.000 8
        47.000 7
  22571013.950 8  22571012.070 6 118611480.487 8  92424530.227 6        48.000 8
        37.000 6
  24636805.076 7  24636804.076 4 129467283.703 7 100883597.918 4        43.000 7
        26.000 4
  21227195.180 8  21227193.380 7 111549662.424 8  86921814.828 7        51.000 8
        42.000 7
  24830200.856 6  24830200.756 4 130483588.148 6 101675522.558 4        39.000 6
        25.000 4
  21553294.098 7  21553291.638 6 113263323.491 7  88257134.604 6        46.000 7
        40.000 6
  22553988.350 7  22553987.730 6 118522007.368 7  92354810.957 6        47.000 7
        38.000 6
  24045966.440 6  24045962.840 4 126362409.309 6  98464214.886 4        40.000 6
        28.000 4
 10  1  6  5 58 42.0000000  0  9G02G04G05G07G10G12G13G17G23
  21090795.240 8  21090791.500 7 110832877.435 8  86363281.497 7        52.000 8
        44.000 7
  20681045.544 8  20681044.204 7 108679628.896 8  84685425.026 7        51.000 8
        47.000 7
  22570602.190 7  22570600.370 6 118609318.261 7  92422845.367 6        47.000 7
        37.000 6
  24636384.976 7  24636383.916 4 129465075.844 7 100881877.480 4        43.000 7
        25.000 4
  21226895.520 8  21226893.700 7 111548088.801 8  86920588.627 7        51.000 8
        42.000 7
  24830490.216 6  24830490.256 4 130485108.939 6 101676707.574 4        39.000 6
        26.000 4
  21553601.698 7  21553599.538 6 113264941.059 7  88258395.047 6        47.000 7
        40.000 6
  22554640.150 7  22554639.170 6 118525433.049 7  92357480.331 6        47.000 7
        38.000 6
  24046544.100 6  24046541.080 4 126365446.498 6  98466581.513 4        40.000 6
        27.000 4
 10  1  6  5 58 43.0000000  0  9G02G04G05G07G10G12G13G17G23
  21090409.540 8  21090405.760 7 110830850.692 8  86361702.214 7        53.000 8
        44.000 7
  20681151.604 8  20681150.204 7 108680185.969 8  84685859.105 7        51.000 8
        47.000 7
  22570190.590 8  22570188.850 6 118607155.701 8  92421160.272 6        48.000 8
        37.000 6
  24635964.536 7  24635963.476 4 129462867.613 7 100880156.808 4        43.000 7
        25.000 4
  21226595.840 8  21226594.640 7 111546514.996 8  86919362.290 7        51.000 8
        42.000 7
  24830779.316 6  24830779.396 4 130486629.526 6 101677892.453 4        39.000 6
        25.000 4
  21553909.438 7  21553907.318 6 113266558.670 7  88259655.523 6        47.000 7
        40.000 6
  22555292.130 7  22555290.970 6 118528858.431 7  92360149.450 6        47.000 7
        38.000 6
  24047122.380 6  24047118.940 4 126368483.415 6  98468947.923 4        40.000 6
        28.000 4
 10  1  6  5 58 44.0000000  0  9G02G04G05G07G10G12G13G17G23
  21090023.540 8  21090019.660 7 110828823.239 8  86360122.381 7        52.000 8
        44.000 7
  20681257.564 8  20681256.004 7 108680742.441 8  84686292.721 7        51.000 8
        47.000 7
  22569779.050 8  22569777.530 6 118604992.487 8  92419474.655 6        48.000 8
        37.000 6
  24635544.256 7  24635543.256 4 129460658.648 7 100878435.537 4        43.000 7
        25.000 4
  21226296.320 8  21226294.840 7 111544940.596 8  86918135.486 7        51.000 8
        42.000 7
  24831068.676 6  24831068.896 4 130488149.547 6 101679076.877 4        38.000 6
        25.000 4
  21554217.298 7  21554215.238 6 113268175.983 7  88260915.767 6        47.000 7
        40.000 6
  22555943.730 7  22555942.870 6 118532283.177 7  92362818.087 6        46.000 7
        37.000 6
  24047699.640 6  24047696.520 4 126371519.701 6  98471313.860 4        40.000 6
        28.000 4
 10  1  6  5 58 45.0000000  0  9G02G04G05G07G10G12G13G17G23
  21089638.040 8  21089634.260 7 110826796.382 8  86358543.010 7        52.000 8
        45.000 7
  20681363.544 8  20681362.064 7 108681299.593 8  84686726.867 7        52.000 8
        47.000 7
  22569367.390 8  22569365.990 6 118602829.900 8  92417789.520 6        48.000 8
        37.000 6
  24635124.476 7  24635123.016 4 129458450.188 7 100876714.635 4        43.000 7
        24.000 4
  21225997.020 8  21225995.380 7 111543366.938 8  86916909.268 7        51.000 8
        42.000 7
  24831359.016 6  24831358.436 4 130489670.228 6 101680261.783 4        37.000 6
        26.000 4
  21554524.978 8  21554523.078 6 113269794.279 8  88262176.781 6        48.000 8
        40.000 6
  22556595.630 7  22556595.010 6 118535708.559 7  92365487.201 6        46.000 7
        38.000 6
  24048277.940 6  24048274.240 4 126374556.638 6  98473680.313 4        41.000 6
        28.000 4
 10  1  6  5 58 46.0000000  0  9G02G04G05G07G10G12G13G17G23
  21089252.340 8  21089248.800 7 110824770.579 8  86356964.460 7        52.000 8
        45.000 7
  20681469.804 8  20681468.344 7 108681857.969 8  84687161.970 7        52.000 8
        47.000 7
  22568955.810 8  22568954.550 6 118600668.394 8  92416105.232 6        48.000 8
        37.000 6
  24634704.156 7  24634703.056 3 129456242.752 7 100874994.586 3        43.000 7
        23.000 3
  21225697.540 8  21225696.220 7 111541794.469 8  86915683.955 7        51.000 8
        42.000 7
  24831648.876 6  24831647.996 4 130491192.137 6 101681447.744 4        37.000 6
        25.000 4
  21554833.578 8  21554831.238 6 113271414.020 8  88263438.921 6        48.000 8
        40.000 6
  22557247.370 7  22557247.010 6 118539135.068 7  92368157.215 6        46.000 7
        38.000 6
  24048856.500 6  24048852.760 4 126377594.724 6  98476047.649 4        41.000 6
        28.000 4
 10  1  6  5 58 47.0000000  0  9G02G04G05G07G10G12G13G17G23
  21088866.700 8  21088862.900 7 110822741.928 8  86355383.695 7        52.000 8
        45.000 7
  20681575.664 8  20681573.864 7 108682413.623 8  84687594.933 7        52.000 8
        47.000 7
  22568544.250 8  22568542.890 6 118598504.118 8  92414418.777 6        48.000 8
        37.000 6
  24634283.796 7  24634282.376 4 129454032.453 7 100873272.248 4        43.000 7
        24.000 4
  21225397.760 8  21225396.540 7 111540219.325 8  86914456.571 7        51.000 8
        42.000 7
  24831937.876 6  24831937.056 4 130492711.354 6 101682631.526 4        38.000 6
        26.000 4
  21555141.278 8  21555138.938 6 113273031.342 8  88264699.171 6        49.000 8
        40.000 6
  22557899.230 7  22557898.590 6 118542558.805 7  92370825.055 6        47.000 7
        37.000 6
  24049433.980 6  24049430.480 4 126380630.048 6  98478412.834 4        41.000 6
        28.000 4
 10  1  6  5 58 48.0000000  0  9G02G04G05G07G10G12G13G17G23
  21088481.000 8  21088477.140 7 110820716.332 8  86353805.307 7        52.000 8
        45.000 7
  20681681.944 8  20681680.464 8 108682972.462 8  84688030.398 8        52.000 8
        48.000 8
  22568132.490 8  22568131.550 6 118596342.916 8  92412734.734 6        48.000 8
        37.000 6
  24633863.916 7  24633862.276 4 129451825.130 7 100871552.283 4        43.000 7
        25.000 4
  21225099.060 8  21225097.240 7 111538647.344 8  86913231.653 7        51.000 8
        42.000 7
  24832227.556 6  24832226.676 4 130494233.722 6 101683817.766 4        38.000 6
        26.000 4
  21555449.378 8  21555447.338 6 113274652.084 8  88265962.081 6        49.000 8
        40.000 6
  22558551.290 7  22558550.510 6 118545985.617 7  92373495.308 6        47.000 7
        37.000 6
  24050012.120 6  24050008.520 4 126383668.528 6  98480780.471 4        41.000 6
        28.000 4
 10  1  6  5 58 49.0000000  0  9G02G04G05G07G10G12G13G17G23
  21088095.460 8  21088091.780 7 110818690.332 8  86352226.614 7        52.000 8
        45.000 7
  20681788.064 8  20681786.804 7 108683531.017 8  84688465.636 7        52.000 8
        47.000 7
  22567721.770 8  22567720.370 6 118594181.352 8  92411050.394 6        48.000 8
        37.000 6
  24633443.296 7  24633442.096 4 129449617.348 7 100869831.921 4        42.000 7
        24.000 4
  21224799.980 8  21224798.400 7 111537075.113 8  86912006.537 7        52.000 8
        42.000 7
  24832517.156 6  24832516.216 4 130495755.841 6 101685003.824 4        38.000 6
        25.000 4
  21555758.218 8  21555755.978 6 113276272.834 8  88267225.004 6        48.000 8
        40.000 6
  22559203.350 7  22559202.650 6 118549412.089 7  92376165.283 6        46.000 7
        37.000 6
  24050590.100 6  24050586.700 4 126386706.672 6  98483147.860 4        41.000 6
        28.000 4
 10  1  6  5 58 50.0000000  0  9G02G04G05G07G10G12G13G17G23
  21087710.320 8  21087706.720 7 110816666.006 8  86350649.214 7        52.000 8
        45.000 7
  20681894.604 8  20681893.704 8 108684091.364 8  84688902.262 8        52.000 8
        48.000 8
  22567310.770 8  22567309.330 6 118592021.464 8  92409367.373 6        48.000 8
        37.000 6
  24633023.336 7  24633022.236 4 129447411.226 7 100868112.865 4        42.000 7
        24.000 4
  21224500.880 8  21224499.460 7 111535504.688 8  86910782.833 7        52.000 8
        42.000 7
  24832807.356 6  24832806.176 4 130497279.735 6 101686191.316 4        38.000 6
        25.000 4
  21556066.678 8  21556064.418 6 113277895.642 8  88268489.531 6        48.000 8
        40.000 6
  22559855.590 7  22559854.810 6 118552840.277 7  92378836.604 6        47.000 7
        38.000 6
  24051168.340 6  24051165.260 4 126389746.555 6  98485516.612 4        41.000 6
        29.000 4
 10  1  6  5 58 51.0000000  0  9G02G04G05G07G10G12G13G17G23
  21087324.620 8  21087320.860 7 110814639.173 8  86349069.866 7        52.000 8
        45.000 7
  20682001.024 8  20681999.684 8 108684649.365 8  84689337.069 8        52.000 8
        48.000 8
  22566899.150 8  22566897.950 6 118589859.164 8  92407682.455 6        48.000 8
        37.000 6
  24632603.156 7  24632601.796 4 129445202.569 7 100866391.848 4        42.000 7
        24.000 4
  21224201.560 8  21224199.860 7 111533931.932 8  86909557.309 7        52.000 8
        42.000 7
  24833096.076 6  24833095.456 4 130498801.312 6 101687376.958 4        39.000 6
        26.000 4
  21556375.138 8  21556373.018 6 113279516.394 8  88269752.453 6        48.000 8
        41.000 6
  22560507.270 7  22560506.590 6 118556266.066 7  92381506.036 6        47.000 7
        37.000 6
  24051746.440 6  24051743.040 5 126392784.047 6  98487883.456 5        41.000 6
        30.000 5
 10  1  6  5 58 52.0000000  0  9G02G04G05G07G10G12G13G17G23
  21086938.540 8  21086934.800 7 110812610.989 8  86347489.461 7        52.000 8
        44.000 7
  20682107.304 8  20682105.504 7 108685206.113 8  84689770.903 7        52.000 8
        47.000 7
  22566487.450 8  22566486.230 6 118587695.519 8  92405996.500 6        48.000 8
        38.000 6
  24632182.496 7  24632181.076 4 129442992.522 7 100864669.704 4        42.000 7
        24.000 4
  21223902.320 8  21223900.260 7 111532357.939 8  86908330.810 7        51.000 8
        43.000 7
  24833385.956 6  24833385.116 4 130500321.599 6 101688561.548 4        39.000 6
        25.000 4
  21556683.458 8  21556681.258 6 113281136.138 8  88271014.593 6        48.000 8
        41.000 6
  22561159.530 7  22561158.430 6 118559690.513 7  92384174.436 6        47.000 7
        37.000 6
  24052324.280 6  24052321.040 4 126395820.254 6  98490249.389 4        41.000 6
        29.000 4
 10  1  6  5 58 53.0000000  0  9G02G04G05G07G10G12G13G17G23
  21086553.600 8  21086549.980 7 110810587.601 8  86345912.797 7        52.000 8
        45.000 7
  20682214.004 8  20682212.324 7 108685767.821 8  84690208.597 7        52.000 8
        47.000 7
  22566076.390 8  22566074.990 6 118585536.722 8  92404314.328 6        48.000 8
        37.000 6
  24631762.316 7  24631761.396 4 129440787.223 7 100862951.275 4        43.000 7
        24.000 4
  21223603.420 8  21223601.940 7 111530788.898 8  86907108.195 7        51.000 8
        43.000 7
  24833675.996 6  24833675.236 4 130501846.808 6 101689750.082 4        39.000 6
        25.000 4
  21556992.798 8  21556990.758 6 113282761.113 8  88272280.810 6        49.000 8
        40.000 6
  22561812.110 7  22561811.010 6 118563119.820 7  92386846.619 6        47.000 7
        37.000 6
  24052902.940 6  24052899.600 4 126398861.327 6  98492619.038 4        41.000 6
        29.000 4
 10  1  6  5 58 54.0000000  0  9G02G04G05G07G10G12G13G17G23
  21086168.120 8  21086164.460 7 110808562.360 8  86344334.685 7        52.000 8
        45.000 7
  20682320.684 8  20682319.004 7 108686327.781 8  84690644.926 7        52.000 8
        47.000 7
  22565665.590 8  22565664.290 6 118583376.122 8  92402630.744 6        48.000 8
        37.000 6
  24631343.116 7  24631341.196 3 129438580.026 7 100861231.384 3        42.000 7
        23.000 3
  21223304.620 8  21223302.900 7 111529218.123 8  86905884.215 7        52.000 8
        43.000 7
  24833966.336 6  24833965.376 4 130503370.340 6 101690937.204 4        39.000 6
        26.000 4
  21557301.618 8  21557299.578 6 113284384.620 8  88273545.878 6        48.000 8
        40.000 6
  22562463.810 7  22562463.290 6 118566547.351 7  92389517.423 6        47.000 7
        37.000 6
  24053481.700 6  24053478.440 4 126401900.611 6  98494987.336 4        41.000 6
        29.000 4
 10  1  6  5 58 55.0000000  0  9G02G04G05G07G10G12G13G17G23
  21085783.160 8  21085779.380 7 110806538.325 8  86342757.522 7        52.000 8
        44.000 7
  20682427.224 8  20682425.684 7 108686889.072 8  84691082.297 7        52.000 8
        47.000 7
  22565254.530 8  22565253.490 6 118581216.754 8  92400948.124 6        48.000 8
        37.000 6
  24630922.876 7  24630921.256 4 129436373.983 7 100859512.430 4        42.000 7
        24.000 4
  21223005.860 8  21223004.160 7 111527648.715 8  86904661.303 7        52.000 8
        43.000 7
  24834256.256 6  24834255.556 4 130504895.222 6 101692125.422 4        39.000 6
        27.000 4
  21557610.818 8  21557608.858 6 113286009.732 8  88274812.205 6        48.000 8
        40.000 6
  22563116.430 7  22563116.010 6 118569976.131 7  92392189.197 6        47.000 7
        37.000 6
  24054060.580 6  24054056.860 5 126404941.190 6  98497356.592 5        41.000 6
        30.000 5
 10  1  6  5 58 56.0000000  0  9G02G04G05G07G10G12G13G17G23
  21085397.560 8  21085393.700 7 110804512.512 8  86341178.968 7        52.000 8
        44.000 7
  20682533.684 8  20682532.344 7 108687448.725 8  84691518.391 7        51.000 8
        47.000 7
  22564843.190 8  22564841.970 6 118579055.631 8  92399264.134 6        48.000 8
        38.000 6
  24630503.116 7  24630501.316 4 129434166.177 7 100857792.070 4        42.000 7
        25.000 4
  21222707.100 8  21222705.160 7 111526077.672 8  86903437.108 7        51.000 8
        42.000 7
  24834545.736 6  24834545.236 4 130506418.413 6 101693312.312 4        38.000 6
        26.000 4
  21557920.038 7  21557917.778 6 113287633.480 7  88276077.453 6        47.000 7
        40.000 6
  22563768.850 7  22563767.730 6 118573403.176 7  92394859.619 6        47.000 7
        37.000 6
  24054638.080 6  24054634.920 4 126407980.049 6  98499724.533 4        41.000 6
        29.000 4
 10  1  6  5 58 57.0000000  0  9G02G04G05G07G10G12G13G17G23
  21085012.420 8  21085008.840 7 110802489.586 8  86339602.660 7        52.000 8
        45.000 7
  20682640.764 8  20682639.424 7 108688011.382 8  84691956.827 7        51.000 8
        47.000 7
  22564432.350 8  22564431.270 6 118576897.467 8  92397582.448 6        48.000 8
        37.000 6
  24630083.556 7  24630081.936 4 129431961.175 7 100856073.874 4        42.000 7
        24.000 4
  21222408.720 8  21222406.680 7 111524509.653 8  86902215.282 7        51.000 8
        42.000 7
  24834836.556 6  24834835.576 4 130507944.627 6 101694501.568 4        36.000 6
        26.000 4
  21558229.558 7  21558227.658 6 113289260.497 7  88277345.264 6        47.000 7
        41.000 6
  22564421.410 7  22564420.770 6 118576833.182 7  92397532.348 6        46.000 7
        37.000 6
  24055217.400 7  24055213.840 4 126411021.900 7  98502094.794 4        42.000 7
        29.000 4
 10  1  6  5 58 58.0000000  0  9G02G04G05G07G10G12G13G17G23
  21084627.320 8  21084623.720 7 110800465.120 8  86338025.148 7        52.000 8
        45.000 7
  20682747.664 8  20682746.184 7 108688572.664 8  84692394.190 7        51.000 8
        47.000 7
  22564021.550 8  22564020.430 6 118574737.823 8  92395899.615 6        48.000 8
        37.000 6
  24629663.316 7  24629661.636 3 129429754.636 7 100854354.501 3        42.000 7
        23.000 3
  21222109.900 8  21222108.240 7 111522940.245 8  86900992.362 7        51.000 8
        42.000 7
  24835126.176 6  24835125.896 4 130509469.502 6 101695689.796 4        37.000 6
        25.000 4
  21558538.978 7  21558537.078 6 113290886.402 7  88278612.199 6        47.000 7
        40.000 6
  22565074.030 7  22565072.990 6 118580261.714 7  92400203.931 6        47.000 7
        37.000 6
  24055795.680 6  24055792.040 4 126414062.282 6  98504463.938 4        41.000 6
        28.000 4
 10  1  6  5 58 59.0000000  0  9G02G04G05G07G10G12G13G17G23
  21084242.240 8  21084238.760 7 110798441.934 8  86336448.643 7        52.000 8
        45.000 7
  20682854.704 8  20682853.204 7 108689135.321 8  84692832.619 7        51.000 8
        47.000 7
  22563610.770 8  22563609.690 6 118572579.441 8  92394217.769 6        48.000 8
        38.000 6
  24629243.336 7  24629241.916 3 129427549.297 7 100852636.053 3        43.000 7
        23.000 3
  21221811.440 8  21221809.580 7 111521372.245 8  86899770.548 7        51.000 8
        42.000 7
  24835417.076 6  24835416.236 4 130510995.704 6 101696879.071 4        38.000 6
        26.000 4
  21558848.758 8  21558846.818 6 113292513.957 8  88279880.428 6        48.000 8
        40.000 6
  22565726.330 7  22565726.150 6 118583691.571 7  92402876.547 6        47.000 7
        37.000 6
  24056374.780 6  24056371.260 4 126417104.049 6  98506834.117 4        41.000 6
        29.000 4
 10  1  6  5 59  0.0000000  0  9G02G04G05G07G10G12G13G17G23
  21083857.260 8  21083853.600 7 110796418.323 8  86334871.805 7        52.000 8
        45.000 7
  20682961.784 8  20682960.544 7 108689697.668 8  84693270.814 7        52.000 8
        47.000 7
  22563200.070 8  22563198.970 6 118570420.699 8  92392535.634 6        48.000 8
        38.000 6
  24628824.016 7  24628822.176 3 129425343.519 7 100850917.264 3        42.000 7
        23.000 3
  21221512.860 8  21221511.320 7 111519803.979 8  86898548.519 7        51.000 8
        42.000 7
  24835707.696 6  24835706.716 4 130512521.603 6 101698068.030 4        38.000 6
        25.000 4
  21559158.398 8  21559156.338 6 113294141.521 8  88281148.662 6        48.000 8
        40.000 6
  22566379.110 7  22566378.570 6 118587121.070 7  92405548.875 6        47.000 7
        37.000 6
  24056953.340 6  24056950.020 4 126420145.458 6  98509204.061 4        41.000 6
        29.000 4
 10  1  6  5 59  1.0000000  0  9G02G04G05G07G10G12G13G17G23
  21083471.900 8  21083468.360 7 110794393.239 8  86333293.820 7        52.000 8
        45.000 7
  20683068.584 8  20683067.124 7 108690258.664 8  84693707.953 7        52.000 8
        47.000 7
  22562789.430 8  22562788.050 6 118568260.522 8  92390852.379 6        48.000 8
        37.000 6
  24628404.136 7  24628402.196 3 129423136.192 7 100849197.262 3        43.000 7
        23.000 3
  21221214.500 8  21221212.880 7 111518234.366 8  86897325.441 7        51.000 8
        42.000 7
  24835998.136 6  24835996.836 4 130514046.204 6 101699256.060 4        38.000 6
        26.000 4
  21559467.638 8  21559465.738 6 113295767.970 8  88282416.031 6        48.000 8
        40.000 6
  22567031.970 7  22567030.950 6 118590549.129 7  92408220.064 6        46.000 7
        37.000 6
  24057532.040 6  24057528.580 4 126423185.468 6  98511572.901 4        41.000 6
        29.000 4
 10  1  6  5 59  2.0000000  0  9G02G04G05G07G10G12G13G17G23
  21083087.040 8  21083083.540 7 110792370.390 8  86331717.572 7        52.000 8
        45.000 7
  20683175.584 8  20683174.324 7 108690822.035 8  84694146.950 7        52.000 8
        47.000 7
  22562378.530 8  22562377.370 6 118566102.626 8  92389170.902 6        48.000 8
        37.000 6
  24627984.176 7  24627982.556 3 129420931.110 7 100847479.045 3        43.000 7
        23.000 3
  21220916.460 8  21220914.420 7 111516667.131 8  86896104.219 7        51.000 8
        42.000 7
  24836288.136 6  24836287.096 4 130515573.157 6 101700445.897 4        38.000 6
        25.000 4
  21559777.758 8  21559775.698 6 113297397.078 8  88283685.460 6        49.000 8
        40.000 6
  22567684.330 7  22567683.750 6 118593979.467 7  92410893.085 6        47.000 7
        37.000 6
  24058111.480 6  24058107.840 4 126426227.797 6  98513943.531 4        40.000 6
        29.000 4
 10  1  6  5 59  3.0000000  0  9G02G04G05G07G10G12G13G17G23
  21082701.800 8  21082698.420 7 110790347.359 8  86330141.188 7        52.000 8
        45.000 7
  20683282.824 8  20683281.324 7 108691385.338 8  84694585.881 7        52.000 8
        47.000 7
  22561967.870 8  22561966.470 6 118563944.574 8  92387489.293 6        48.000 8
        37.000 6
  24627564.716 7  24627563.236 4 129418725.772 7 100845760.604 4        43.000 7
        25.000 4
  21220618.180 8  21220616.340 7 111515099.856 8  86894882.961 7        51.000 8
        42.000 7
  24836578.916 6  24836577.416 3 130517100.034 6 101701635.688 3        38.000 6
        23.000 3
  21560087.878 8  21560085.918 6 113299026.389 8  88284955.044 6        49.000 8
        40.000 6
  22568337.170 7  22568336.170 6 118597409.675 7  92413565.966 6        47.000 7
        36.000 6
  24058689.960 6  24058686.880 5 126429270.029 6  98516314.097 5        40.000 6
        30.000 5
 10  1  6  5 59  4.0000000  0  9G02G04G05G07G10G12G13G17G23
  21082317.180 8  21082313.560 7 110788325.526 8  86328565.732 7        52.000 8
        45.000 7
  20683390.324 8  20683388.924 7 108691949.981 8  84695025.861 7        52.000 8
        47.000 7
  22561557.090 8  22561556.070 6 118561787.776 8  92385808.681 6        48.000 8
        37.000 6
  24627145.416 7  24627143.576 4 129416521.608 7 100844043.071 4        43.000 7
        24.000 4
  21220320.020 8  21220318.600 7 111513533.936 8  86893662.775 7        52.000 8
        42.000 7
  24836869.376 6  24836868.576 4 130518628.290 6 101702826.508 4        38.000 6
        24.000 4
  21560398.278 8  21560396.298 6 113300657.310 8  88286225.898 6        49.000 8
        40.000 6
  22568990.070 7  22568989.490 6 118600841.169 7  92416239.860 6        47.000 7
        37.000 6
  24059269.220 6  24059266.200 4 126432313.540 6  98518685.659 4        40.000 6
        29.000 4
 10  1  6  5 59  5.0000000  0  9G02G04G05G07G10G12G13G17G23
  21081932.540 8  21081928.920 7 110786304.305 8  86326990.753 7        52.000 8
        44.000 7
  20683497.744 8  20683496.524 7 108692515.336 8  84695466.397 7        52.000 8
        47.000 7
  22561146.870 8  22561145.670 6 118559631.606 8  92384128.563 6        48.000 8
        37.000 6
  24626726.196 7  24626724.416 3 129414318.003 7 100842325.997 3        43.000 7
        23.000 3
  21220021.900 8  21220020.800 7 111511968.729 8  86892443.137 7        52.000 8
        42.000 7
  24837160.516 6  24837159.496 4 130520157.209 6 101704017.855 4        38.000 6
        25.000 4
  21560708.398 8  21560706.618 6 113302289.204 8  88287497.501 6        49.000 8
        40.000 6
  22569643.310 7  22569642.410 6 118604273.269 7  92418914.219 6        46.000 7
        37.000 6
  24059848.200 6  24059845.100 5 126435357.706 6  98521057.758 5        41.000 6
        30.000 5
 10  1  6  5 59  6.0000000  0  9G02G04G05G07G10G12G13G17G23
  21081547.240 8  21081543.940 7 110784279.813 8  86325413.229 7        53.000 8
        45.000 7
  20683604.984 8  20683603.424 7 108693077.604 8  84695904.528 7        52.000 8
        47.000 7
  22560735.870 8  22560734.710 6 118557472.241 8  92382445.933 6        48.000 8
        37.000 6
  24626305.876 7  24626304.056 4 129412111.090 7 100840606.319 4        43.000 7
        25.000 4
  21219723.860 8  21219722.160 7 111510400.427 8  86891221.088 7        52.000 8
        42.000 7
  24837450.376 6  24837449.896 3 130521683.035 6 101705206.822 3        37.000 6
        23.000 3
  21561018.918 8  21561016.718 6 113303918.265 8  88288766.910 6        48.000 8
        41.000 6
  22570295.550 7  22570294.910 6 118607702.219 7  92421586.127 6        47.000 7
        37.000 6
  24060427.120 6  24060424.060 4 126438398.766 6  98523427.426 4        41.000 6
        29.000 4
 10  1  6  5 59  7.0000000  0  9G02G04G05G07G10G12G13G17G23
  21081162.260 8  21081159.180 7 110782258.945 8  86323838.524 7        53.000 8
        44.000 7
  20683712.524 8  20683711.044 7 108693643.597 8  84696345.566 7        52.000 8
        47.000 7
  22560325.710 8  22560324.910 6 118555316.518 8  92380766.157 6        48.000 8
        38.000 6
  24625887.096 7  24625884.776 4 129409907.741 7 100838889.433 4        43.000 7
        24.000 4
  21219426.060 8  21219424.540 7 111508835.869 8  86890001.953 7        51.000 8
        42.000 7
  24837742.256 6  24837741.336 4 130523212.586 6 101706398.675 4        37.000 6
        24.000 4
  21561329.638 8  21561327.238 6 113305551.306 8  88290039.414 6        49.000 8
        41.000 6
  22570948.530 7  22570947.970 6 118611134.806 7  92424260.865 6        46.000 7
        37.000 6
  24061006.660 6  24061003.280 4 126441443.455 6  98525799.888 4        40.000 6
        28.000 4
 10  1  6  5 59  8.0000000  0  9G02G04G05G07G10G12G13G17G23
  21080777.840 8  21080774.140 7 110780236.552 8  86322262.629 7        52.000 8
        44.000 7
  20683820.064 8  20683818.584 7 108694208.209 8  84696785.521 7        52.000 8
        47.000 7
  22559915.150 8  22559914.130 6 118553159.323 8  92379085.226 6        48.000 8
        37.000 6
  24625467.196 7  24625465.216 4 129407702.872 7 100837171.317 4        42.000 7
        25.000 4
  21219128.000 8  21219126.460 7 111507269.945 8  86888781.746 7        52.000 8
        43.000 7
  24838032.256 6  24838031.896 4 130524740.738 6 101707589.411 4        38.000 6
        24.000 4
  21561640.138 8  21561637.998 6 113307183.271 8  88291311.068 6        49.000 8
        41.000 6
  22571601.350 7  22571601.230 6 118614565.945 7  92426934.480 6        46.000 7
        37.000 6
  24061585.240 6  24061582.460 4 126444486.709 6  98528171.249 4        41.000 6
        29.000 4
 10  1  6  5 59  9.0000000  0  9G02G04G05G07G10G12G13G17G23
  21080392.900 8  21080389.580 7 110778213.616 8  86320686.315 7        53.000 8
        44.000 7
  20683927.744 8  20683925.944 7 108694772.400 8  84697225.140 7        52.000 8
        47.000 7
  22559504.810 8  22559503.670 6 118551001.616 8  92377403.892 6        48.000 8
        37.000 6
  24625047.676 7  24625045.496 4 129405497.395 7 100835452.781 4        42.000 7
        25.000 4
  21218829.780 8  21218828.320 7 111505703.608 8  86887561.222 7        51.000 8
        43.000 7
  24838323.116 6  24838322.396 4 130526268.484 6 101708779.904 4        38.000 6
        24.000 4
  21561950.638 8  21561948.638 6 113308815.062 8  88292582.596 6        49.000 8
        41.000 6
  22572254.850 7  22572254.070 6 118617996.590 7  92429607.697 6        47.000 7
        37.000 6
  24062164.060 6  24062161.400 4 126447529.509 6  98530542.268 4        41.000 6
        29.000 4
 10  1  6  5 59 10.0000000  0  9G02G04G05G07G10G12G13G17G23
  21080008.260 8  21080005.000 7 110776192.019 8  86319111.051 7        53.000 8
        45.000 7
  20684035.044 8  20684033.484 7 108695338.031 8  84697665.900 7        51.000 8
        47.000 7
  22559094.230 8  22559093.170 6 118548845.291 8  92375723.641 6        48.000 8
        37.000 6
  24624628.376 7  24624626.276 4 129403293.257 7 100833735.263 4        42.000 7
        25.000 4
  21218532.160 8  21218530.440 7 111504138.745 8  86886341.853 7        51.000 8
        43.000 7
  24838614.296 6  24838613.116 4 130527797.726 6 101709971.496 4        38.000 6
        25.000 4
  21562261.498 7  21562259.158 6 113310448.597 7  88293855.481 6        46.000 7
        41.000 6
  22572907.910 7  22572907.030 6 118621428.627 7  92432282.022 6        47.000 7
        37.000 6
  24062743.980 6  24062740.980 4 126450573.743 6  98532914.386 4        41.000 6
        29.000 4
 10  1  6  5 59 11.0000000  0  9G02G04G05G07G10G12G13G17G23
  21079623.720 8  21079619.940 7 110774170.854 8  86317536.109 7        52.000 8
        44.000 7
  20684142.844 8  20684141.424 7 108695904.251 8  84698107.114 7        50.000 8
        47.000 7
  22558683.990 7  22558682.870 6 118546689.450 7  92374043.774 6        47.000 7
        37.000 6
  24624208.716 7  24624206.896 4 129401089.466 7 100832018.017 4        42.000 7
        24.000 4
  21218234.340 8  21218232.780 7 111502574.481 8  86885122.948 7        51.000 8
        42.000 7
  24838905.116 6  24838904.536 4 130529327.527 6 101711163.566 4        38.000 6
        25.000 4
  21562572.558 7  21562570.238 6 113312082.971 7  88295129.023 6        46.000 7
        40.000 6
  22573560.490 7  22573559.810 6 118624861.161 7  92434956.708 6        47.000 7
        37.000 6
  24063323.340 6  24063320.120 5 126453618.471 6  98535286.899 5        41.000 6
        30.000 5
 10  1  6  5 59 12.0000000  0  9G02G04G05G07G10G12G13G17G23
  21079239.200 8  21079235.920 7 110772151.473 8  86315962.565 7        52.000 8
        44.000 7
  20684250.664 8  20684249.404 7 108696472.354 8  84698549.790 7        51.000 8
        47.000 7
  22558274.530 7  22558273.170 6 118544535.408 7  92372365.302 6        47.000 7
        37.000 6
  24623789.736 7  24623787.756 4 129398887.451 7 100830302.172 4        42.000 7
        24.000 4
  21217937.040 8  21217935.860 7 111501012.112 8  86883905.519 7        51.000 8
        42.000 7
  24839197.076 6  24839196.076 4 130530859.225 6 101712357.084 4        37.000 6
        24.000 4
  21562883.758 7  21562881.658 6 113313719.486 7  88296404.221 6        46.000 7
        40.000 6
  22574214.670 7  22574213.770 6 118628295.503 7  92437632.820 6        47.000 7
        37.000 6
  24063902.760 6  24063899.780 5 126456665.062 6  98537660.883 5        41.000 6
        30.000 5
 10  1  6  5 59 13.0000000  0  9G02G04G05G07G10G12G13G17G23
  21078854.380 8  21078850.700 7 110770128.431 8  86314386.169 7        52.000 8
        44.000 7
  20684358.384 8  20684356.844 7 108697036.911 8  84698989.702 7        50.000 8
        47.000 7
  22557863.710 8  22557862.590 6 118542377.746 8  92370684.003 6        48.000 8
        37.000 6
  24623370.196 7  24623368.016 4 129396681.702 7 100828583.402 4        42.000 7
        24.000 4
  21217639.140 8  21217637.720 7 111499446.232 8  86882685.335 7        51.000 8
        42.000 7
  24839487.436 6  24839486.856 4 130532387.358 6 101713547.817 4        37.000 6
        26.000 4
  21563194.918 7  21563192.478 6 113315352.757 7  88297676.897 6        45.000 7
        40.000 6
  22574867.150 7  22574866.410 6 118631726.266 7  92440306.140 6        47.000 7
        37.000 6
  24064482.160 6  24064479.100 4 126459708.061 6  98540032.055 4        41.000 6
        29.000 4
 10  1  6  5 59 14.0000000  0  9G02G04G05G07G10G12G13G17G23
  21078469.860 8  21078466.420 7 110768107.394 8  86312811.344 7        52.000 8
        44.000 7
  20684466.244 8  20684464.844 7 108697603.645 8  84699431.316 7        51.000 8
        47.000 7
  22557453.710 8  22557452.210 6 118540222.162 8  92369004.335 6        48.000 8
        37.000 6
  24622950.456 6  24622948.876 4 129394477.935 6 100826866.183 4        41.000 6
        24.000 4
  21217341.800 8  21217340.060 7 111497882.499 8  86881466.856 7        51.000 8
        42.000 7
  24839778.836 6  24839778.036 4 130533917.672 6 101714740.263 4        38.000 6
        26.000 4
  21563506.218 7  21563503.878 6 113316988.455 7  88298951.467 6        46.000 7
        40.000 6
  22575520.730 7  22575519.850 6 118635159.070 7  92442981.051 6        47.000 7
        37.000 6
  24065061.180 7  24065058.780 4 126462753.155 7  98542404.851 4        42.000 7
        29.000 4
 10  1  6  5 59 15.0000000  0  9G02G04G05G07G10G12G13G17G23
  21078085.420 8  21078081.900 7 110766087.238 8  86311237.194 7        52.000 8
        44.000 7
  20684574.264 8  20684572.304 7 108698171.375 8  84699873.703 7        51.000 8
        47.000 7
  22557043.010 8  22557042.390 6 118538067.468 8  92367325.362 6        48.000 8
        37.000 6
  24622531.896 6  24622529.456 4 129392275.011 6 100825149.660 4        41.000 6
        24.000 4
  21217044.080 8  21217042.820 7 111496319.788 8  86880249.165 7        51.000 8
        43.000 7
  24840070.256 6  24840069.316 4 130535448.968 6 101715933.530 4        37.000 6
        24.000 4
  21563817.878 7  21563815.238 6 113318625.419 7  88300227.028 6        47.000 7
        40.000 6
  22576173.850 7  22576173.230 6 118638592.805 7  92445656.688 6        46.000 7
        38.000 6
  24065641.420 7  24065638.400 5 126465799.212 7  98544778.396 5        42.000 7
        30.000 5
 10  1  6  5 59 16.0000000  0  9G02G04G05G07G10G12G13G17G23
  21077700.880 8  21077697.400 7 110764067.084 8  86309663.046 7        52.000 8
        44.000 7
  20684682.244 8  20684680.824 7 108698739.219 8  84700316.182 7        50.000 8
        47.000 7
  22556633.550 8  22556632.350 6 118535912.807 8  92365646.396 6        48.000 8
        37.000 6
  24622112.436 6  24622110.616 4 129390072.058 6 100823433.049 4        41.000 6
        24.000 4
  21216747.160 8  21216745.200 7 111494757.206 8  86879031.565 7        51.000 8
        43.000 7
  24840362.016 5  24840360.776 4 130536980.375 5 101717126.803 4        35.000 5
        25.000 4
  21564128.878 7  21564126.798 6 113320262.762 7  88301502.876 6        45.000 7
        40.000 6
  22576827.370 7  22576826.550 6 118642026.611 7  92448332.375 6        46.000 7
        37.000 6
  24066221.000 7  24066217.900 4 126468845.349 7  98547152.032 4        43.000 7
        29.000 4
 10  1  6  5 59 17.0000000  0  9G02G04G05G07G10G12G13G17G23
  21077316.660 8  21077312.980 7 110762047.632 8  86308089.442 7        52.000 8
        45.000 7
  20684790.204 8  20684788.864 7 108699307.892 8  84700759.296 7        50.000 8
        47.000 7
  22556223.430 8  22556222.130 6 118533758.894 8  92363968.027 6        48.000 8
        36.000 6
  24621693.316 6  24621691.156 4 129387869.741 6 100821716.929 4        41.000 6
        25.000 4
  21216449.920 8  21216448.320 7 111493195.494 8  86877814.650 7        51.000 8
        43.000 7
  24840653.216 6  24840652.576 4 130538512.633 6 101718320.768 4        36.000 6
        25.000 4
  21564440.858 7  21564438.858 6 113321901.224 7  88302779.612 6        46.000 7
        40.000 6
  22577481.110 7  22577480.230 6 118645461.155 7  92451008.641 6        47.000 7
        37.000 6
  24066801.080 7  24066797.580 4 126471892.253 7  98549526.209 4        42.000 7
        29.000 4
 10  1  6  5 59 18.0000000  0  9G02G04G05G07G10G12G13G17G23
  21076932.280 8  21076928.600 7 110760027.967 8  86306515.675 7        52.000 8
        44.000 7
  20684898.664 8  20684897.344 7 108699876.469 8  84701202.345 7        49.000 8
        47.000 7
  22555813.690 8  22555812.630 6 118531604.821 8  92362289.528 6        48.000 8
        37.000 6
  24621274.096 6  24621271.916 4 129385667.216 6 100820000.715 4        41.000 6
        25.000 4
  21216152.620 8  21216150.980 7 111491633.676 8  86876597.645 7        51.000 8
        43.000 7
  24840944.676 6  24840943.696 4 130540044.807 6 101719514.668 4        36.000 6
        26.000 4
  21564752.598 7  21564750.538 6 113323539.871 7  88304056.465 6        46.000 7
        40.000 6
  22578134.590 7  22578133.790 6 118648895.541 7  92453684.778 6        46.000 7
        37.000 6
  24067380.520 7  24067377.440 4 126474939.014 7  98551900.334 4        43.000 7
        29.000 4
 10  1  6  5 59 19.0000000  0  9G02G04G05G07G10G12G13G17G23
  21076547.860 8  21076544.360 7 110758007.077 8  86304940.962 7        52.000 8
        44.000 7
  20685006.444 8  20685005.004 7 108700443.944 8  84701644.538 7        50.000 8
        47.000 7
  22555403.510 8  22555402.390 6 118529449.528 8  92360610.090 6        48.000 8
        37.000 6
  24620854.876 7  24620852.796 4 129383463.399 7 100818283.491 4        42.000 7
        25.000 4
  21215855.200 8  21215853.400 7 111490070.776 8  86875379.793 7        51.000 8
        43.000 7
  24841235.836 6  24841234.956 4 130541575.874 6 101720707.740 4        37.000 6
        25.000 4
  21565064.518 7  21565061.878 6 113325177.684 7  88305332.695 6        46.000 7
        40.000 6
  22578787.970 7  22578787.010 6 118652328.743 7  92456360.014 6        47.000 7
        37.000 6
  24067960.280 7  24067956.900 4 126477984.649 7  98554273.538 4        43.000 7
        29.000 4
 10  1  6  5 59 20.0000000  0  9G02G04G05G07G10G12G13G17G23
  21076163.520 8  21076159.620 7 110755987.241 8  86303367.070 7        52.000 8
        44.000 7
  20685114.884 8  20685113.284 7 108701012.610 8  84702087.648 7        50.000 8
        47.000 7
  22554993.770 8  22554992.330 6 118527295.355 8  92358931.519 6        48.000 8
        37.000 6
  24620435.596 7  24620433.616 3 129381260.577 7 100816566.993 3        42.000 7
        23.000 3
  21215558.020 8  21215556.500 7 111488509.077 8  86874162.892 7        50.000 8
        43.000 7
  24841527.476 6  24841526.656 4 130543108.090 6 101721901.644 4        37.000 6
        24.000 4
  21565376.558 7  21565373.918 6 113326816.953 7  88306610.041 6        47.000 7
        40.000 6
  22579441.170 7  22579440.750 6 118655763.055 7  92459036.096 6        46.000 7
        37.000 6
  24068539.720 7  24068536.820 4 126481031.385 7  98556647.607 4        42.000 7
        28.000 4
 10  1  6  5 59 21.0000000  0  9G02G04G05G07G10G12G13G17G23
  21075779.600 8  21075775.800 7 110753969.568 8  86301794.849 7        52.000 8
        45.000 7
  20685223.444 8  20685222.124 7 108701583.578 8  84702532.558 7        51.000 8
        47.000 7
  22554584.030 8  22554582.750 6 118525143.389 8  92357254.653 6        48.000 8
        37.000 6
  24620016.656 7  24620014.656 4 129379059.900 7 100814852.177 4        42.000 7
        25.000 4
  21215261.260 8  21215259.740 7 111486949.700 8  86872947.792 7        51.000 8
        43.000 7
  24841819.516 6  24841818.676 4 130544642.634 6 101723097.366 4        38.000 6
        24.000 4
  21565688.878 8  21565686.738 6 113328458.773 8  88307889.384 6        48.000 8
        40.000 6
  22580095.270 7  22580094.490 6 118659199.604 7  92461713.920 6        46.000 7
        37.000 6
  24069119.760 7  24069116.820 4 126484080.390 7  98559023.468 4        42.000 7
        28.000 4
 10  1  6  5 59 22.0000000  0  9G02G04G05G07G10G12G13G17G23
  21075395.380 8  21075391.340 7 110751950.194 8  86300221.317 7        52.000 8
        45.000 7
  20685331.724 8  20685330.224 7 108702152.969 8  84702976.245 7        52.000 8
        47.000 7
  22554174.510 8  22554172.950 6 118522989.752 8  92355576.494 6        49.000 8
        37.000 6
  24619597.696 7  24619595.696 4 129376857.475 7 100813135.990 4        42.000 7
        24.000 4
  21214964.020 8  21214962.560 7 111485388.744 8  86871731.458 7        51.000 8
        43.000 7
  24842110.956 6  24842110.276 3 130546175.583 6 101724291.870 3        37.000 6
        23.000 3
  21566000.618 8  21565998.778 6 113330099.293 8  88309167.709 6        48.000 8
        40.000 6
  22580749.230 7  22580748.370 6 118662634.503 7  92464390.462 6        46.000 7
        37.000 6
  24069700.220 7  24069696.880 4 126487127.756 7  98561398.045 4        42.000 7
        29.000 4
 10  1  6  5 59 23.0000000  0  9G02G04G05G07G10G12G13G17G23
  21075011.040 8  21075007.200 7 110749931.254 8  86298648.111 7        52.000 8
        45.000 7
  20685440.444 8  20685438.884 7 108702722.914 8  84703420.358 7        52.000 8
        47.000 7
  22553764.370 8  22553763.030 6 118520836.578 8  92353898.700 6        48.000 8
        37.000 6
  24619178.556 6  24619177.036 4 129374655.463 6 100811420.138 4        41.000 6
        25.000 4
  21214667.380 8  21214665.760 7 111483828.356 8  86870515.580 7        51.000 8
        43.000 7
  24842403.376 6  24842401.936 4 130547709.137 6 101725486.853 4        38.000 6
        24.000 4
  21566313.078 8  21566310.858 6 113331740.640 8  88310446.672 6        49.000 8
        40.000 6
  22581402.590 7  22581401.890 6 118666069.862 7  92467067.365 6        46.000 7
        37.000 6
  24070279.960 7  24070277.080 4 126490175.627 7  98563772.989 4        42.000 7
        29.000 4
 10  1  6  5 59 24.0000000  0  9G02G04G05G07G10G12G13G17G23
  21074626.920 8  21074623.100 7 110747912.832 8  86297075.317 7        52.000 8
        45.000 7
  20685548.864 8  20685547.244 7 108703293.480 8  84703864.953 7        52.000 8
        47.000 7
  22553355.070 8  22553353.550 6 118518683.957 8  92352221.335 6        48.000 8
        36.000 6
  24618759.356 6  24618757.636 4 129372453.908 6 100809704.642 4        41.000 6
        24.000 4
  21214370.320 8  21214368.660 7 111482268.617 8  86869300.198 7        51.000 8
        43.000 7
  24842694.656 6  24842693.936 3 130549243.250 6 101726682.265 3        38.000 6
        23.000 3
  21566625.518 8  21566623.358 6 113333382.875 8  88311726.349 6        49.000 8
        40.000 6
  22582056.590 7  22582055.950 6 118669505.788 7  92469744.704 6        46.000 7
        37.000 6
  24070860.200 7  24070857.080 4 126493224.092 7  98566148.438 4        43.000 7
        29.000 4
 10  1  6  5 59 25.0000000  0  9G02G04G05G07G10G12G13G17G23
  21074243.100 8  21074238.800 7 110745894.987 8  86295502.966 7        53.000 8
        45.000 7
  20685657.344 8  20685655.964 7 108703864.775 8  84704310.114 7        53.000 8
        47.000 7
  22552945.390 8  22552944.070 6 118516531.971 8  92350544.464 6        49.000 8
        37.000 6
  24618340.616 7  24618338.776 4 129370252.894 7 100807989.581 4        42.000 7
        24.000 4
  21214073.720 8  21214072.080 7 111480709.608 8  86868085.391 7        51.000 8
        42.000 7
  24842987.156 6  24842986.156 3 130550778.138 6 101727878.266 3        37.000 6
        23.000 3
  21566938.158 8  21566936.098 6 113335026.125 8  88313006.805 6        50.000 8
        40.000 6
  22582710.190 7  22582709.750 6 118672942.360 7  92472422.551 6        46.000 7
        37.000 6
  24071440.520 7  24071437.180 4 126496273.210 7  98568524.354 4        43.000 7
        29.000 4
 10  1  6  5 59 26.0000000  0  9G02G04G05G07G10G12G13G17G23
  21073859.160 8  21073855.400 7 110743877.955 8  86293931.259 7        52.000 8
        45.000 7
  20685766.402 8  20685765.422 7 108704437.017 8  84704756.009 7        52.000 8
        47.000 7
  22552536.190 8  22552534.790 6 118514380.817 8  92348868.236 6        48.000 8
        37.000 6
  24617922.016 7  24617920.436 4 129368052.687 7 100806275.111 4        42.000 7
        24.000 4
  21213777.240 8  21213775.640 7 111479151.535 8  86866871.303 7        52.000 8
        42.000 7
  24843278.856 6  24843278.296 3 130552313.890 6 101729074.936 3        38.000 6
        23.000 3
  21567251.198 8  21567249.058 6 113336670.546 8  88314288.166 6        49.000 8
        40.000 6
  22583364.470 7  22583363.690 6 118676379.797 7  92475101.075 6        46.000 7
        37.000 6
  24072021.000 7  24072017.400 4 126499323.225 7  98570901.001 4        43.000 7
        29.000 4
 10  1  6  5 59 27.0000000  0  9G02G04G05G07G10G12G13G17G23
  21073474.900 8  21073471.360 7 110741859.546 8  86292358.475 7        52.000 8
        45.000 7
  20685875.242 8  20685873.662 7 108705007.990 8  84705200.933 7        52.000 8
        47.000 7
  22552126.470 8  22552124.950 6 118512228.338 8  92347190.987 6        48.000 8
        36.000 6
  24617503.536 7  24617501.496 4 129365851.029 7 100804559.548 4        42.000 7
        24.000 4
  21213480.380 8  21213478.980 7 111477592.245 8  86865656.272 7        51.000 8
        43.000 7
  24843571.216 6  24843570.196 3 130553848.487 6 101730270.789 3        36.000 6
        22.000 3
  21567563.898 8  21567561.798 6 113338314.011 8  88315568.792 6        48.000 8
        40.000 6
  22584018.410 7  22584017.650 6 118679815.881 7  92477778.545 6        46.000 7
        37.000 6
  24072600.840 7  24072597.400 4 126502371.931 7  98573276.629 4        43.000 7
        29.000 4
 10  1  6  5 59 28.0000000  0  9G02G04G05G07G10G12G13G17G23
  21073091.000 8  21073086.780 7 110739840.443 8  86290785.142 7        52.000 8
        45.000 7
  20685983.822 8  20685982.202 7 108705578.429 8  84705645.429 7        52.000 8
        47.000 7
  22551716.590 8  22551715.530 6 118510075.221 8  92345513.229 6        48.000 8
        37.000 6
  24617084.576 7  24617082.216 4 129363648.670 7 100802843.445 4        42.000 7
        25.000 4
  21213183.940 8  21213182.080 7 111476032.395 8  86864440.815 7        51.000 8
        43.000 7
  24843863.176 6  24843862.076 3 130555382.434 6 101731466.007 3        37.000 6
        22.000 3
  21567876.738 8  21567874.798 6 113339957.190 8  88316849.185 6        49.000 8
        40.000 6
  22584671.930 7  22584671.690 6 118683251.376 7  92480455.546 6        46.000 7
        37.000 6
  24073180.780 7  24073177.380 4 126505420.036 7  98575651.753 4        43.000 7
        28.000 4
 10  1  6  5 59 29.0000000  0  9G02G04G05G07G10G12G13G17G23
  21072707.200 8  21072703.400 7 110737824.885 8  86289214.585 7        52.000 8
        45.000 7
  20686092.942 8  20686091.422 7 108706152.518 8  84706092.769 7        52.000 8
        47.000 7
  22551307.610 8  22551306.170 6 118507925.668 8  92343838.258 6        48.000 8
        37.000 6
  24616665.516 7  24616663.816 4 129361449.774 7 100801130.001 4        42.000 7
        25.000 4
  21212887.440 8  21212886.400 7 111474476.216 8  86863228.200 7        51.000 8
        43.000 7
  24844156.156 6  24844154.936 3 130556920.105 6 101732664.171 3        37.000 6
        22.000 3
  21568190.278 8  21568187.838 6 113341604.297 8  88318132.641 6        49.000 8
        40.000 6
  22585326.150 7  22585325.910 6 118686690.432 7  92483135.327 6        46.000 7
        37.000 6
  24073761.660 7  24073758.160 4 126508471.719 7  98578029.686 4        43.000 7
        29.000 4
 10  1  6  5 59 30.0000000  0  9G02G04G05G07G10G12G13G17G23
  21072323.300 8  21072319.380 7 110735806.623 8  86287641.905 7        52.000 8
        45.000 7
  20686201.742 8  20686200.182 7 108706724.027 8  84706538.103 7        52.000 8
        47.000 7
  22550898.090 7  22550896.270 6 118505773.460 7  92342161.213 6        47.000 7
        37.000 6
  24616246.836 7  24616245.136 4 129359248.187 7 100799414.452 4        42.000 7
        26.000 4
  21212591.120 8  21212589.580 7 111472917.499 8  86862013.615 7        52.000 8
        43.000 7
  24844447.316 5  24844446.976 3 130558455.174 5 101733860.346 3        35.000 5
        23.000 3
  21568503.038 8  21568500.918 6 113343249.105 8  88319414.317 6        49.000 8
        40.000 6
  22585980.350 7  22585979.810 6 118690126.865 7  92485813.066 6        47.000 7
        37.000 6
  24074341.600 7  24074338.740 4 126511520.801 7  98580405.590 4        42.000 7
        29.000 4
 10  1  6  5 59 31.0000000  0  9G02G04G05G07G10G12G13G17G23
  21071939.380 8  21071935.780 7 110733790.297 8  86286070.742 7        52.000 8
        45.000 7
  20686310.802 8  20686309.342 7 108707297.598 8  84706985.031 7        52.000 8
        47.000 7
  22550488.790 7  22550487.230 6 118503623.207 7  92340485.686 6        47.000 7
        37.000 6
  24615828.236 7  24615826.776 4 129357048.419 7 100797700.429 4        42.000 7
        25.000 4
  21212294.760 8  21212293.140 7 111471360.813 8  86860800.621 7        51.000 8
        43.000 7
  24844740.176 5  24844739.356 3 130559992.319 5 101735058.109 3        35.000 5
        23.000 3
  21568816.718 8  21568814.338 6 113344896.203 8  88320697.767 6        48.000 8
        40.000 6
  22586634.650 7  22586634.010 6 118693565.250 7  92488492.311 6        47.000 7
        37.000 6
  24074922.160 7  24074918.980 4 126514571.877 7  98582783.068 4        42.000 7
        29.000 4
 10  1  6  5 59 32.0000000  0  9G02G04G05G07G10G12G13G17G23
  21071555.320 8  21071551.520 7 110731771.562 8  86284497.708 7        52.000 8
        45.000 7
  20686419.482 8  20686417.922 7 108707868.900 8  84707430.211 7        52.000 8
        47.000 7
  22550079.390 7  22550077.710 6 118501470.605 7  92338808.342 6        47.000 7
        37.000 6
  24615408.916 7  24615407.656 4 129354846.302 7 100795984.461 4        42.000 7
        25.000 4
  21211998.260 8  21211996.520 7 111469801.886 8  86859585.867 7        51.000 8
        43.000 7
  24845032.896 6  24845031.556 3 130561527.139 6 101736254.119 3        36.000 6
        22.000 3
  21569129.978 8  21569127.478 6 113346541.324 8  88321979.677 6        48.000 8
        40.000 6
  22587288.950 7  22587287.830 6 118697001.302 7  92491169.762 6        47.000 7
        37.000 6
  24075502.480 7  24075499.200 4 126517620.654 7  98585158.742 4        43.000 7
        28.000 4
 10  1  6  5 59 33.0000000  0  9G02G04G05G07G10G12G13G17G23
  21071172.120 8  21071168.100 7 110729756.001 8  86282927.141 7        52.000 8
        45.000 7
  20686528.802 8  20686527.342 7 108708443.509 8  84707877.963 7        52.000 8
        47.000 7
  22549670.650 7  22549668.910 6 118499321.207 7  92337133.492 6        47.000 7
        36.000 6
  24614990.496 7  24614989.096 4 129352647.258 7 100794270.906 4        42.000 7
        25.000 4
  21211701.920 8  21211700.820 7 111468246.262 8  86858373.698 7        51.000 8
        43.000 7
  24845325.976 6  24845324.236 3 130563065.296 6 101737452.661 3        37.000 6
        22.000 3
  21569443.778 8  21569441.238 6 113348189.991 8  88323264.357 6        48.000 8
        40.000 6
  22587943.110 7  22587942.710 6 118700440.542 7  92493849.683 6        46.000 7
        37.000 6
  24076083.380 7  24076080.060 4 126520672.640 7  98587536.911 4        43.000 7
        28.000 4
 10  1  6  5 59 34.0000000  0  9G02G04G05G07G10G12G13G17G23
  21070787.920 8  21070783.980 7 110727739.589 8  86281355.909 7        52.000 8
        45.000 7
  20686638.002 8  20686636.482 7 108709017.388 8  84708325.133 7        52.000 8
        47.000 7
  22549261.230 7  22549259.910 6 118497170.959 7  92335457.970 6        47.000 7
        37.000 6
  24614572.056 6  24614570.476 4 129350447.317 6 100792556.703 4        41.000 6
        26.000 4
  21211405.780 8  21211404.220 7 111466689.917 8  86857160.962 7        51.000 8
        43.000 7
  24845617.716 6  24845616.836 3 130564602.667 6 101738650.598 3        38.000 6
        22.000 3
  21569757.158 8  21569754.718 6 113349838.210 8  88324548.679 6        49.000 8
        40.000 6
  22588597.850 7  22588596.670 6 118703878.985 7  92496528.993 6        47.000 7
        36.000 6
  24076664.260 7  24076660.760 4 126523723.866 7  98589914.465 4        43.000 7
        29.000 4
 10  1  6  5 59 35.0000000  0  9G02G04G05G07G10G12G13G17G23
  21070404.520 8  21070400.520 7 110725723.150 8  86279784.656 7        52.000 8
        45.000 7
  20686747.362 8  20686745.822 7 108709591.395 8  84708772.413 7        52.000 8
        47.000 7
  22548851.910 7  22548850.310 6 118495020.772 7  92333782.504 6        47.000 7
        37.000 6
  24614153.296 6  24614152.036 4 129348247.370 6 100790842.430 4        41.000 6
        26.000 4
  21211109.560 8  21211108.240 7 111465133.701 8  86855948.339 7        51.000 8
        43.000 7
  24845909.476 6  24845909.256 3 130566140.228 6 101739848.674 3        37.000 6
        22.000 3
  21570070.918 8  21570068.098 6 113351486.804 8  88325833.300 6        49.000 8
        40.000 6
  22589252.030 7  22589251.130 6 118707317.473 7  92499208.328 6        47.000 7
        37.000 6
  24077244.800 7  24077241.260 4 126526775.162 7  98592292.113 4        42.000 7
        28.000 4
 10  1  6  5 59 36.0000000  0  9G02G04G05G07G10G12G13G17G23
  21070020.760 8  21070016.800 7 110723706.972 8  86278213.610 7        51.000 8
        45.000 7
  20686856.802 8  20686855.242 7 108710165.747 8  84709219.964 7        52.000 8
        47.000 7
  22548442.910 7  22548441.250 6 118492870.845 7  92332107.224 6        47.000 7
        37.000 6
  24613734.336 6  24613733.336 4 129346047.609 6 100789128.320 4        41.000 6
        25.000 4
  21210813.520 8  21210812.060 7 111463577.875 8  86854736.002 7        51.000 8
        43.000 7
  24846202.736 6  24846201.956 3 130567678.098 6 101741047.054 3        37.000 6
        23.000 3
  21570384.818 8  21570381.958 6 113353136.049 8  88327118.420 6        48.000 8
        40.000 6
  22589906.390 7  22589905.450 6 118710756.250 7  92501887.897 6        47.000 7
        37.000 6
  24077824.920 7  24077821.960 4 126529826.748 7  98594669.962 4        43.000 7
        28.000 4
 10  1  6  5 59 37.0000000  0  9G02G04G05G07G10G12G13G17G23
  21069637.460 8  21069633.600 7 110721692.698 8  86276644.046 7        52.000 8
        45.000 7
  20686966.262 8  20686964.642 7 108710742.145 8  84709669.100 7        51.000 8
        47.000 7
  22548034.210 7  22548032.630 6 118490722.891 7  92330433.512 6        47.000 7
        37.000 6
  24613315.916 6  24613315.276 4 129343849.691 6 100787415.679 4        41.000 6
        25.000 4
  21210518.100 8  21210516.480 7 111462024.092 8  86853525.260 7        51.000 8
        43.000 7
  24846496.136 6  24846494.876 3 130569218.026 6 101742246.960 3        38.000 6
        23.000 3
  21570698.818 7  21570696.578 6 113354787.589 7  88328405.342 6        47.000 7
        40.000 6
  22590560.570 7  22590560.010 6 118714196.966 7  92504568.968 6        46.000 7
        37.000 6
  24078406.220 7  24078403.120 4 126532880.318 7  98597049.388 4        43.000 7
        28.000 4
 10  1  6  5 59 38.0000000  0  9G02G04G05G07G10G12G13G17G23
  21069253.940 8  21069249.740 7 110719676.399 8  86275072.906 7        52.000 8
        45.000 7
  20687075.682 8  20687074.102 7 108711316.631 8  84710116.747 7        51.000 8
        47.000 7
  22547625.010 7  22547623.550 6 118488572.933 7  92328758.209 6        47.000 7
        37.000 6
  24612896.976 6  24612896.596 4 129341649.738 6 100785701.437 4        40.000 6
        25.000 4
  21210221.980 8  21210220.580 7 111460468.425 8  86852313.055 7        51.000 8
        43.000 7
  24846788.996 6  24846787.296 3 130570755.988 6 101743445.366 3        38.000 6
        22.000 3
  21571013.058 7  21571010.658 6 113356437.491 7  88329690.980 6        47.000 7
        40.000 6
  22591215.430 7  22591214.710 6 118717635.743 7  92507248.543 6        46.000 7
        37.000 6
  24078986.800 7  24078983.720 4 126535931.959 7  98599427.292 4        43.000 7
        28.000 4
 10  1  6  5 59 39.0000000  0  9G02G04G05G07G10G12G13G17G23
  21068870.340 8  21068866.620 7 110717661.321 8  86273502.713 7        52.000 8
        45.000 7
  20687185.182 8  20687183.462 7 108711892.452 8  84710565.444 7        52.000 8
        47.000 7
  22547216.490 7  22547214.470 6 118486424.241 7  92327083.908 6        47.000 7
        37.000 6
  24612478.876 6  24612478.236 4 129339450.971 6 100783988.095 4        40.000 6
        26.000 4
  21209926.120 8  21209924.340 7 111458914.102 8  86851101.891 7        51.000 8
        43.000 7
  24847081.836 6  24847080.656 3 130572295.353 6 101744644.903 3        39.000 6
        23.000 3
  21571327.118 8  21571324.838 6 113358089.007 8  88330977.869 6        48.000 8
        40.000 6
  22591869.670 7  22591869.210 6 118721075.763 7  92509929.059 6        46.000 7
        37.000 6
  24079568.120 7  24079564.540 4 126538984.864 7  98601806.181 4        42.000 7
        29.000 4
 10  1  6  5 59 40.0000000  0  9G02G04G05G07G10G12G13G17G23
  21068487.180 8  21068483.640 7 110715648.596 8  86271934.360 7        52.000 8
        45.000 7
  20687295.222 8  20687293.822 7 108712470.760 8  84711016.073 7        52.000 8
        47.000 7
  22546807.730 7  22546806.350 6 118484277.958 7  92325411.474 6        47.000 7
        37.000 6
  24612060.616 6  24612060.316 4 129337254.516 6 100782276.584 4        41.000 6
        25.000 4
  21209631.060 8  21209629.360 7 111457362.292 8  86849892.689 7        51.000 8
        43.000 7
  24847374.916 6  24847374.196 3 130573837.210 6 101745846.347 3        39.000 6
        23.000 3
  21571641.678 8  21571639.498 6 113359743.279 8  88332266.915 6        48.000 8
        40.000 6
  22592524.610 7  22592524.110 6 118724518.200 7  92512611.488 6        46.000 7
        37.000 6
  24080149.320 7  24080145.960 4 126542040.236 7  98604186.982 4        43.000 7
        29.000 4
 10  1  6  5 59 41.0000000  0  9G02G04G05G07G10G12G13G17G23
  21068103.520 8  21068099.780 7 110713632.496 8  86270363.375 7        52.000 8
        45.000 7
  20687404.662 8  20687402.882 7 108713045.843 8  84711464.182 7        51.000 8
        47.000 7
  22546398.590 7  22546397.250 6 118482128.299 7  92323736.421 6        47.000 7
        37.000 6
  24611642.816 6  24611641.596 4 129335054.653 6 100780562.368 4        40.000 6
        25.000 4
  21209334.860 8  21209333.320 7 111455807.235 8  86848680.960 7        51.000 8
        43.000 7
  24847667.676 6  24847666.996 3 130575375.742 6 101747045.195 3        38.000 6
        23.000 3
  21571956.098 8  21571953.618 6 113361394.555 8  88333553.628 6        48.000 8
        40.000 6
  22593179.150 7  22593178.470 6 118727957.308 7  92515291.304 6        46.000 7
        37.000 6
  24080730.440 7  24080727.100 4 126545092.290 7  98606565.243 4        44.000 7
        28.000 4
 10  1  6  5 59 42.0000000  0  9G02G04G05G07G10G12G13G17G23
  21067720.020 8  21067716.100 7 110711616.859 8  86268792.742 7        52.000 8
        45.000 7
  20687514.382 8  20687512.742 7 108713621.495 8  84711912.747 7        52.000 8
        47.000 7
  22545990.170 8  22545987.850 6 118479979.166 8  92322061.771 6        48.000 8
        37.000 6
  24611223.836 6  24611223.036 4 129332855.210 6 100778848.558 4        40.000 6
        25.000 4
  21209039.160 8  21209037.820 7 111454252.793 8  86847469.699 7        51.000 8
        43.000 7
  24847960.756 6  24847959.736 3 130576914.981 6 101748244.562 3        37.000 6
        23.000 3
  21572270.638 8  21572268.238 6 113363046.725 8  88334841.031 6        48.000 8
        40.000 6
  22593833.690 7  22593832.950 6 118731396.942 7  92517971.536 6        46.000 7
        37.000 6
  24081311.040 7  24081307.680 4 126548144.888 7  98608943.880 4        44.000 7
        28.000 4
 10  1  6  5 59 43.0000000  0  9G02G04G05G07G10G12G13G17G23
  21067336.700 8  21067332.600 7 110709601.989 8  86267222.710 7        52.000 8
        44.000 7
  20687623.982 8  20687622.462 7 108714198.035 8  84712362.003 7        52.000 8
        47.000 7
  22545580.830 8  22545579.270 6 118477830.815 8  92320387.728 6        48.000 8
        37.000 6
  24610806.056 6  24610804.576 4 129330656.480 6 100777135.282 4        41.000 6
        24.000 4
  21208743.720 8  21208742.100 7 111452699.229 8  86846259.133 7        51.000 8
        43.000 7
  24848254.056 6  24848252.856 3 130578455.004 6 101749444.585 3        37.000 6
        22.000 3
  21572585.278 8  21572582.938 6 113364700.015 8  88336129.308 6        49.000 8
        40.000 6
  22594488.910 7  22594487.690 6 118734837.356 7  92520652.374 6        46.000 7
        37.000 6
  24081892.440 7  24081888.920 4 126551198.308 7  98611323.150 4        43.000 7
        29.000 4
 10  1  6  5 59 44.0000000  0  9G02G04G05G07G10G12G13G17G23
  21066953.540 8  21066949.480 7 110707588.832 8  86265654.024 7        52.000 8
        45.000 7
  20687733.882 8  20687732.422 7 108714776.399 8  84712812.676 7        52.000 8
        47.000 7
  22545172.290 8  22545170.590 6 118475684.230 8  92318715.063 6        48.000 8
        37.000 6
  24610387.596 6  24610386.536 4 129328459.444 6 100775423.296 4        41.000 6
        24.000 4
  21208448.320 8  21208446.880 7 111451147.535 8  86845050.025 7        51.000 8
        43.000 7
  24848547.236 6  24848545.836 3 130579996.889 6 101750646.083 3        38.000 6
        23.000 3
  21572900.178 8  21572897.678 6 113366355.427 8  88337419.244 6        49.000 8
        40.000 6
  22595143.970 7  22595142.770 6 118738279.559 7  92523334.606 6        47.000 7
        37.000 6
  24082473.620 7  24082470.420 4 126554253.496 7  98613703.806 4        43.000 7
        29.000 4
 10  1  6  5 59 45.0000000  0  9G02G04G05G07G10G12G13G17G23
  21066570.360 8  21066566.540 7 110705575.412 8  86264085.122 7        52.000 8
        44.000 7
  20687844.022 8  20687842.522 7 108715354.635 8  84713263.253 7        52.000 8
        47.000 7
  22544763.910 8  22544762.130 6 118473537.441 8  92317042.241 6        48.000 8
        37.000 6
  24609969.396 6  24609968.356 4 129326262.143 6 100773711.088 4        41.000 6
        25.000 4
  21208152.780 8  21208151.560 7 111449595.736 8  86843840.829 7        52.000 8
        43.000 7
  24848840.896 6  24848839.476 3 130581538.659 6 101751847.480 3        38.000 6
        23.000 3
  21573215.218 8  21573212.498 6 113368010.960 8  88338709.272 6        48.000 8
        40.000 6
  22595798.830 7  22595797.950 6 118741721.531 7  92526016.665 6        47.000 7
        37.000 6
  24083055.160 7  24083051.580 4 126557308.545 7  98616084.351 4        43.000 7
        29.000 4
 10  1  6  5 59 46.0000000  0  9G02G04G05G07G10G12G13G17G23
  21066187.240 8  21066183.720 7 110703562.760 8  86262516.821 7        52.000 8
        44.000 7
  20687954.562 8  20687952.842 7 108715933.779 8  84713714.520 7        52.000 8
        47.000 7
  22544355.210 8  22544354.410 6 118471391.429 8  92315370.030 6        48.000 8
        37.000 6
  24609552.136 6  24609550.296 4 129324065.528 6 100771999.463 4        41.000 6
        24.000 4
  21207857.680 8  21207856.400 7 111448044.815 8  86842632.321 7        52.000 8
        43.000 7
  24849133.876 6  24849132.936 3 130583081.319 6 101753049.535 3        38.000 6
        23.000 3
  21573530.398 8  21573528.058 6 113369667.666 8  88340000.211 6        49.000 8
        40.000 6
  22596453.830 7  22596452.970 6 118745164.338 7  92528699.376 6        47.000 7
        37.000 6
  24083637.060 7  24083633.020 4 126560364.393 7  98618465.539 4        43.000 7
        29.000 4
 10  1  6  5 59 47.0000000  0  9G02G04G05G07G10G12G13G17G23
  21065804.080 8  21065800.300 7 110701548.240 8  86260947.073 7        52.000 8
        45.000 7
  20688064.222 8  20688062.642 7 108716511.186 8  84714164.461 7        53.000 8
        47.000 7
  22543946.670 8  22543945.050 6 118469243.588 8  92313696.390 6        48.000 8
        37.000 6
  24609133.696 7  24609132.196 4 129321867.002 7 100770286.310 4        42.000 7
        24.000 4
  21207562.020 8  21207560.560 7 111446492.159 8  86841422.462 7        52.000 8
        43.000 7
  24849427.076 6  24849425.996 4 130584622.195 6 101754250.168 4        39.000 6
        24.000 4
  21573845.558 8  21573842.918 6 113371322.883 8  88341289.995 6        49.000 8
        39.000 6
  22597108.470 7  22597107.730 6 118748605.307 7  92531380.640 6        47.000 7
        37.000 6
  24084217.980 7  24084214.400 4 126563418.472 7  98620845.333 4        43.000 7
        29.000 4
 10  1  6  5 59 48.0000000  0  9G02G04G05G07G10G12G13G17G23
  21065421.320 8  21065417.300 7 110699535.635 8  86259378.802 7        52.000 8
        45.000 7
  20688174.182 8  20688172.902 7 108717090.641 8  84714615.971 7        53.000 8
        47.000 7
  22543538.810 8  22543537.370 6 118467097.710 8  92312024.282 6        48.000 8
        37.000 6
  24608714.976 7  24608713.956 4 129319670.413 7 100768574.714 4        42.000 7
        25.000 4
  21207267.220 8  21207266.020 7 111444941.590 8  86840214.230 7        52.000 8
        43.000 7
  24849720.456 6  24849719.656 4 130586165.163 6 101755452.461 4        39.000 6
        24.000 4
  21574160.918 8  21574158.218 6 113372980.419 8  88342581.569 6        49.000 8
        39.000 6
  22597763.570 7  22597762.650 6 118752048.254 7  92534063.455 6        47.000 7
        37.000 6
  24084799.300 7  24084795.940 4 126566474.530 7  98623226.681 4        43.000 7
        28.000 4
 10  1  6  5 59 49.0000000  0  9G02G04G05G07G10G12G13G17G23
  21065038.040 8  21065034.140 7 110697521.768 8  86257809.557 7        52.000 8
        45.000 7
  20688284.342 8  20688282.742 7 108717668.936 8  84715066.599 7        53.000 8
        47.000 7
  22543129.630 7  22543128.710 6 118464950.594 7  92310351.213 6        47.000 7
        37.000 6
  24608297.316 7  24608295.956 4 129317472.458 7 100766862.018 4        42.000 7
        25.000 4
  21206972.100 8  21206970.540 7 111443389.862 8  86839005.092 7        52.000 8
        43.000 7
  24850014.456 6  24850013.236 4 130587706.948 6 101756653.913 4        39.000 6
        25.000 4
  21574476.398 8  21574473.598 6 113374637.071 8  88343872.471 6        49.000 8
        39.000 6
  22598418.590 7  22598417.970 6 118755489.981 7  92536745.313 6        47.000 7
        36.000 6
  24085380.880 7  24085377.280 4 126569529.406 7  98625607.106 4        43.000 7
        28.000 4
 10  1  6  5 59 50.0000000  0  9G02G04G05G07G10G12G13G17G23
  21064654.960 8  21064650.900 7 110695508.635 8  86256240.876 7        52.000 8
        45.000 7
  20688394.562 8  20688392.942 7 108718248.104 8  84715517.907 7        53.000 8
        47.000 7
  22542721.430 8  22542719.950 6 118462804.236 8  92308678.723 6        48.000 8
        37.000 6
  24607879.236 7  24607877.376 4 129315275.209 7 100765149.831 4        42.000 7
        25.000 4
  21206676.880 8  21206675.920 7 111441839.020 8  86837796.641 7        52.000 8
        43.000 7
  24850307.676 6  24850306.776 3 130589249.593 6 101757855.933 3        39.000 6
        23.000 3
  21574791.918 8  21574789.058 6 113376294.841 8  88345164.244 6        50.000 8
        39.000 6
  22599074.050 7  22599073.050 6 118758932.455 7  92539427.768 6        46.000 7
        36.000 6
  24085962.060 7  24085958.820 4 126572585.083 7  98627988.172 4        44.000 7
        28.000 4
 10  1  6  5 59 51.0000000  0  9G02G04G05G07G10G12G13G17G23
  21064272.200 8  21064268.500 7 110693498.718 8  86254674.709 7        52.000 8
        45.000 7
  20688505.442 8  20688503.962 7 108718830.623 8  84715971.799 7        53.000 8
        47.000 7
  22542313.590 8  22542312.510 6 118460661.164 8  92307008.799 6        48.000 8
        37.000 6
  24607461.656 7  24607459.976 3 129313081.158 7 100763440.220 3        42.000 7
        23.000 3
  21206382.260 8  21206381.420 7 111440291.543 8  86836590.819 7        52.000 8
        43.000 7
  24850602.696 6  24850600.436 3 130590795.556 6 101759060.555 3        39.000 6
        23.000 3
  21575107.758 8  21575105.278 6 113377956.233 8  88346458.833 6        50.000 8
        39.000 6
  22599729.390 7  22599728.670 6 118762378.232 7  92542112.791 6        46.000 7
        37.000 6
  24086544.280 7  24086540.860 4 126575644.036 7  98630371.794 4        44.000 7
        28.000 4
 10  1  6  5 59 52.0000000  0  9G02G04G05G07G10G12G13G17G23
  21063888.900 8  21063885.040 7 110691483.638 8  86253104.516 7        52.000 8
        45.000 7
  20688615.402 8  20688613.662 7 108719408.093 8  84716421.780 7        53.000 8
        47.000 7
  22541905.070 7  22541903.890 6 118458512.929 7  92305334.852 6        47.000 7
        37.000 6
  24607042.776 7  24607041.636 4 129310881.884 7 100761726.518 4        42.000 7
        24.000 4
  21206086.860 8  21206085.240 7 111438739.011 8  86835381.052 7        51.000 8
        43.000 7
  24850895.536 6  24850894.196 3 130592336.498 6 101760261.330 3        39.000 6
        23.000 3
  21575423.178 8  21575420.538 6 113379612.862 8  88347749.715 6        50.000 8
        40.000 6
  22600384.530 7  22600383.550 6 118765818.882 7  92544793.813 6        46.000 7
        36.000 6
  24087125.240 7  24087121.920 4 126578697.893 7  98632751.373 4        44.000 7
        28.000 4
 10  1  6  5 59 53.0000000  0  9G02G04G05G07G10G12G13G17G23
  21063506.160 8  21063502.400 7 110689473.784 8  86251538.396 7        52.000 8
        45.000 7
  20688726.222 8  20688724.662 7 108719990.913 8  84716875.928 7        53.000 8
        47.000 7
  22541496.750 7  22541495.570 6 118456369.981 7  92303665.014 6        47.000 7
        37.000 6
  24606625.156 7  24606623.976 3 129308687.791 7 100760016.800 3        42.000 7
        23.000 3
  21205792.440 8  21205791.260 7 111437191.853 8  86834175.474 7        52.000 8
        43.000 7
  24851190.176 6  24851188.696 3 130593882.797 6 101761466.230 3        38.000 6
        23.000 3
  21575739.398 8  21575736.918 6 113381275.069 8  88349044.937 6        50.000 8
        40.000 6
  22601039.850 7  22601039.070 6 118769264.780 7  92547478.924 6        46.000 7
        36.000 6
  24087707.860 7  24087703.840 4 126581757.075 7  98635135.156 4        44.000 7
        27.000 4
 10  1  6  5 59 54.0000000  0  9G02G04G05G07G10G12G13G17G23
  21063123.520 8  21063119.900 7 110687461.471 8  86249970.364 7        52.000 8
        45.000 7
  20688836.862 8  20688835.102 7 108720571.434 8  84717328.282 7        53.000 8
        47.000 7
  22541088.590 7  22541087.730 6 118454224.626 7  92301993.309 6        46.000 7
        37.000 6
  24606207.296 6  24606205.956 3 129306491.223 6 100758305.212 3        41.000 6
        23.000 3
  21205497.840 8  21205496.280 7 111435642.385 8  86832968.098 7        52.000 8
        43.000 7
  24851483.716 6  24851482.696 3 130595426.779 6 101762669.362 3        37.000 6
        23.000 3
  21576055.158 8  21576052.818 6 113382935.259 8  88350338.589 6        50.000 8
        40.000 6
  22601694.970 7  22601694.490 6 118772708.299 7  92550162.186 6        47.000 7
        37.000 6
  24088289.240 7  24088285.680 4 126584813.860 7  98637517.073 4        44.000 7
        28.000 4
 10  1  6  5 59 55.0000000  0  9G02G04G05G07G10G12G13G17G23
  21062740.480 8  21062736.640 7 110685448.621 8  86248401.910 7        52.000 8
        45.000 7
  20688947.262 8  20688945.902 7 108721151.509 8  84717780.294 7        53.000 8
        47.000 7
  22540680.470 7  22540679.170 6 118452078.763 7  92300321.215 6        47.000 7
        37.000 6
  24605789.616 6  24605787.816 3 129304294.087 6 100756593.168 3        41.000 6
        23.000 3
  21205202.880 8  21205201.400 7 111434092.499 8  86831760.391 7        52.000 8
        43.000 7
  24851777.356 6  24851776.056 3 130596970.273 6 101763872.082 3        37.000 6
        23.000 3
  21576371.218 8  21576368.498 6 113384595.269 8  88351632.110 6        50.000 8
        40.000 6
  22602350.430 7  22602349.730 6 118776151.322 7  92552845.053 6        47.000 7
        37.000 6
  24088871.180 7  24088867.060 4 126587870.179 7  98639898.625 4        44.000 7
        27.000 4
 10  1  6  5 59 56.0000000  0  9G02G04G05G07G10G12G13G17G23
  21062357.560 8  21062353.880 7 110683438.310 8  86246835.432 7        52.000 8
        45.000 7
  20689057.982 8  20689056.742 7 108721734.248 8  84718234.368 7        53.000 8
        47.000 7
  22540272.710 7  22540271.310 6 118449935.481 7  92298651.125 6        47.000 7
        37.000 6
  24605371.536 6  24605369.936 3 129302099.401 6 100754883.031 3        41.000 6
        22.000 3
  21204908.520 8  21204907.020 7 111432545.311 8  86830554.800 7        52.000 8
        43.000 7
  24852071.976 6  24852070.156 3 130598516.443 6 101765076.880 3        36.000 6
        23.000 3
  21576687.958 8  21576685.218 6 113386258.243 8  88352927.938 6        51.000 8
        40.000 6
  22603005.910 7  22603005.390 6 118779596.920 7  92555529.931 6        46.000 7
        37.000 6
  24089452.920 7  24089449.580 4 126590929.101 7  98642282.187 4        44.000 7
        27.000 4
 10  1  6  5 59 57.0000000  0  9G02G04G05G07G10G12G13G17G23
  21061975.340 8  21061971.500 7 110681427.389 8  86245268.476 7        52.000 8
        45.000 7
  20689168.822 8  20689167.442 7 108722316.485 8  84718688.065 7        53.000 8
        47.000 7
  22539864.650 7  22539863.470 6 118447791.598 7  92296980.570 6        47.000 7
        37.000 6
  24604953.596 6  24604952.256 3 129299904.128 6 100753172.427 3        40.000 6
        22.000 3
  21204613.860 8  21204612.580 7 111430997.629 8  86829348.814 7        52.000 8
        43.000 7
  24852365.896 6  24852364.456 3 130600062.109 6 101766281.273 3        37.000 6
        23.000 3
  21577004.038 8  21577001.758 6 113387920.963 8  88354223.556 6        50.000 8
        40.000 6
  22603661.470 7  22603660.730 6 118783041.943 7  92558214.362 6        47.000 7
        37.000 6
  24090035.060 7  24090030.980 4 126593987.476 7  98644665.351 4        45.000 7
        28.000 4
 10  1  6  5 59 58.0000000  0  9G02G04G05G07G10G12G13G17G23
  21061592.500 8  21061588.800 7 110679416.900 8  86243701.863 7        52.000 8
        44.000 7
  20689279.682 8  20689278.122 7 108722899.292 8  84719142.199 7        51.000 8
        47.000 7
  22539456.730 7  22539455.730 6 118445648.198 7  92295310.394 6        47.000 7
        38.000 6
  24604535.576 6  24604534.496 3 129297709.221 6 100751462.101 3        40.000 6
        23.000 3
  21204319.400 8  21204318.160 7 111429450.513 8  86828143.273 7        51.000 8
        43.000 7
  24852660.556 6  24852658.776 3 130601608.385 6 101767486.214 3        38.000 6
        23.000 3
  21577320.538 7  21577317.858 6 113389584.521 7  88355519.841 6        46.000 7
        40.000 6
  22604317.170 7  22604316.750 6 118786487.439 7  92560899.172 6        47.000 7
        37.000 6
  24090616.660 7  24090613.320 4 126597046.343 7  98647048.885 4        45.000 7
        27.000 4
 10  1  6  5 59 59.0000000  0  9G02G04G05G07G10G12G13G17G23
  21061209.860 8  21061205.940 7 110677404.465 8  86242133.726 7        52.000 8
        44.000 7
  20689390.502 8  20689388.922 7 108723480.323 8  84719594.950 7        50.000 8
        47.000 7
  22539048.570 7  22539047.090 6 118443502.895 7  92293638.736 6        47.000 7
        38.000 6
  24604117.556 6  24604116.316 3 129295512.345 6 100749750.223 3        40.000 6
        23.000 3
  21204024.680 8  21204023.620 7 111427901.612 8  86826936.333 7        51.000 8
        43.000 7
  24852954.256 6  24852952.716 3 130603152.780 6 101768689.585 3        38.000 6
        23.000 3
  21577636.798 7  21577634.378 6 113391246.523 7  88356814.907 6        46.000 7
        40.000 6
  22604972.770 7  22604971.570 6 118789931.082 7  92563582.522 6        47.000 7
        37.000 6
  24091198.640 7  24091195.220 4 126600103.376 7  98649431.003 4        45.000 7
        27.000 4
 10  1  6  6  0  0.0000000  0  9G02G04G05G07G10G12G13G17G23
  21060827.120 8  21060823.320 7 110675393.920 8  86240567.072 7        52.000 8
        44.000 7
  20689501.262 8  20689499.422 7 108724063.327 8  84720049.239 7        50.000 8
        47.000 7
  22538640.590 7  22538639.330 6 118441359.490 7  92291968.552 6        47.000 7
        37.000 6
  24603699.956 6  24603698.536 3 129293317.333 6 100748039.853 3        41.000 6
        23.000 3
  21203730.160 8  21203728.820 7 111426354.711 8  86825730.962 7        51.000 8
        43.000 7
  24853249.016 6  24853247.056 3 130604699.190 6 101769894.578 3        36.000 6
        23.000 3
  21577953.358 7  21577950.778 6 113392910.821 7  88358111.761 6        47.000 7
        40.000 6
  22605628.230 7  22605627.290 6 118793376.611 7  92566267.342 6        47.000 7
        37.000 6
  24091781.160 7  24091777.340 4 126603162.327 7  98651814.583 4        44.000 7
        28.000 4
 10  1  6  6  0  1.0000000  0  9G02G04G05G07G10G12G13G17G23
  21060444.700 8  21060440.960 7 110673384.008 8  86239000.913 7        52.000 8
        44.000 7
  20689612.482 8  20689610.882 7 108724647.088 8  84720504.114 7        51.000 8
        47.000 7
  22538233.550 7  22538231.770 6 118439216.799 7  92290298.927 6        47.000 7
        37.000 6
  24603282.356 6  24603280.756 3 129291122.882 6 100746329.904 3        41.000 6
        23.000 3
  21203436.160 8  21203434.940 7 111424808.601 8  86824526.187 7        52.000 8
        43.000 7
  24853542.856 6  24853541.616 4 130606246.437 6 101771100.207 4        36.000 6
        24.000 4
  21578270.378 8  21578268.238 6 113394576.134 8  88359409.414 6        48.000 8
        40.000 6
  22606283.970 7  22606283.290 6 118796822.843 7  92568952.719 6        46.000 7
        37.000 6
  24092363.160 7  24092359.560 4 126606222.013 7  98654198.717 4        43.000 7
        28.000 4
 10  1  6  6  0  2.0000000  0  9G02G04G05G07G10G12G13G17G23
  21060062.240 8  21060058.220 7 110671374.199 8  86237434.824 7        52.000 8
        44.000 7
  20689723.342 8  20689722.082 7 108725231.093 8  84720959.180 7        51.000 8
        47.000 7
  22537825.090 8  22537823.910 6 118437074.208 8  92288629.365 6        48.000 8
        37.000 6
  24602865.376 6  24602863.636 3 129288928.519 6 100744620.020 3        41.000 6
        23.000 3
  21203142.000 8  21203140.720 7 111423262.703 8  86823321.593 7        51.000 8
        43.000 7
  24853837.456 5  24853836.416 4 130607793.806 5 101772305.984 4        35.000 5
        24.000 4
  21578587.478 8  21578585.078 6 113396241.925 8  88360707.427 6        48.000 8
        40.000 6
  22606939.910 7  22606938.610 6 118800269.205 7  92571638.192 6        46.000 7
        37.000 6
  24092945.580 7  24092941.580 4 126609281.857 7  98656583.057 4        43.000 7
        26.000 4
 10  1  6  6  0  3.0000000  0  9G02G04G05G07G10G12G13G17G23
  21059679.820 8  21059675.840 7 110669363.736 8  86235868.233 7        52.000 8
        44.000 7
  20689834.522 8  20689832.822 7 108725814.554 8  84721413.822 7        51.000 8
        47.000 7
  22537417.550 8  22537416.030 6 118434931.018 8  92286959.355 6        48.000 8
        37.000 6
  24602447.456 6  24602445.576 3 129286733.456 6 100742909.559 3        41.000 6
        23.000 3
  21202847.480 8  21202846.300 7 111421716.343 8  86822116.646 7        51.000 8
        42.000 7
  24854132.096 5  24854130.316 3 130609340.689 5 101773511.314 3        35.000 5
        23.000 3
  21578904.178 8  21578902.018 6 113397907.469 8  88362005.251 6        48.000 8
        40.000 6
  22607595.490 7  22607594.370 6 118803714.961 7  92574323.184 6        46.000 7
        37.000 6
  24093527.620 7  24093523.780 4 126612341.126 7  98658966.855 4        43.000 7
        27.000 4
 10  1  6  6  0  4.0000000  0  9G02G04G05G07G10G12G13G17G23
  21059297.080 8  21059293.040 7 110667353.561 8  86234301.857 7        52.000 8
        44.000 7
  20689945.602 8  20689944.142 7 108726398.417 8  84721868.778 7        51.000 8
        47.000 7
  22537009.650 8  22537008.030 6 118432788.164 8  92285289.599 6        48.000 8
        37.000 6
  24602030.076 6  24602028.276 4 129284538.641 6 100741199.332 4        41.000 6
        24.000 4
  21202553.680 8  21202551.900 7 111420170.351 8  86820911.970 7        51.000 8
        43.000 7
  24854426.276 5  24854424.996 3 130610887.945 5 101774717.011 3        35.000 5
        23.000 3
  21579221.378 8  21579219.238 6 113399573.691 8  88363303.606 6        49.000 8
        40.000 6
  22608251.370 7  22608250.450 6 118807161.050 7  92577008.451 6        46.000 7
        37.000 6
  24094110.000 7  24094106.160 4 126615400.758 7  98661351.027 4        43.000 7
        26.000 4
 10  1  6  6  0  5.0000000  0  9G02G04G05G07G10G12G13G17G23
  21058915.200 8  21058911.200 7 110665346.487 8  86232737.905 7        52.000 8
        44.000 7
  20690057.362 8  20690056.002 7 108726985.502 8  84722326.255 7        52.000 8
        47.000 7
  22536602.170 7  22536601.110 6 118430648.419 7  92283622.263 6        47.000 7
        37.000 6
  24601612.716 6  24601611.196 4 129282346.915 6 100739491.482 4        41.000 6
        24.000 4
  21202259.780 8  21202258.400 7 111418627.623 8  86819709.850 7        51.000 8
        43.000 7
  24854721.136 5  24854720.316 3 130612438.459 5 101775925.183 3        35.000 5
        22.000 3
  21579538.838 8  21579536.878 6 113401243.397 8  88364604.676 6        49.000 8
        39.000 6
  22608907.890 7  22608906.950 6 118810610.264 7  92579696.150 6        47.000 7
        37.000 6
  24094692.260 7  24094689.080 4 126618463.534 7  98663737.555 4        43.000 7
        27.000 4
 10  1  6  6  0  6.0000000  0  9G02G04G05G07G10G12G13G17G23
  21058532.520 8  21058528.720 7 110663336.236 8  86231171.476 7        52.000 8
        44.000 7
  20690168.382 8  20690166.902 7 108727569.576 8  84722781.381 7        52.000 8
        47.000 7
  22536194.270 7  22536192.950 6 118428505.565 7  92281952.515 6        47.000 7
        37.000 6
  24601195.256 6  24601193.416 4 129280151.955 6 100737781.142 4        40.000 6
        25.000 4
  21201965.700 8  21201964.200 7 111417081.852 8  86818505.351 7        51.000 8
        43.000 7
  24855015.496 5  24855014.716 3 130613985.878 5 101777130.954 3        35.000 5
        23.000 3
  21579856.378 8  21579853.998 6 113402910.324 8  88365903.589 6        49.000 8
        40.000 6
  22609563.670 7  22609562.690 6 118814056.395 7  92582381.439 6        46.000 7
        37.000 6
  24095275.140 7  24095271.360 4 126621523.247 7  98666121.792 4        44.000 7
        26.000 4
 10  1  6  6  0  7.0000000  0  9G02G04G05G07G10G12G13G17G23
  21058149.940 8  21058146.060 7 110661325.725 8  86229604.846 7        53.000 8
        45.000 7
  20690279.642 8  20690278.062 7 108728153.481 8  84723236.370 7        52.000 8
        47.000 7
  22535786.850 8  22535785.370 6 118426362.459 8  92280282.565 6        48.000 8
        37.000 6
  24600777.516 6  24600775.676 4 129277956.709 6 100736070.578 4        40.000 6
        25.000 4
  21201671.720 8  21201669.860 7 111415535.941 8  86817300.752 7        51.000 8
        43.000 7
  24855309.736 6  24855308.836 3 130615533.128 6 101778336.600 3        36.000 6
        23.000 3
  21580173.578 8  21580171.218 6 113404577.365 8  88367202.575 6        49.000 8
        39.000 6
  22610219.590 7  22610218.450 6 118817502.282 7  92585066.556 6        46.000 7
        37.000 6
  24095857.140 7  24095853.820 4 126624582.734 7  98668505.791 4        44.000 7
        26.000 4
 10  1  6  6  0  8.0000000  0  9G02G04G05G07G10G12G13G17G23
  21057767.840 8  21057764.120 7 110659317.645 8  86228040.106 7        52.000 8
        45.000 7
  20690391.462 8  20690389.622 7 108728739.943 8  84723693.350 7        52.000 8
        47.000 7
  22535379.570 7  22535378.050 6 118424221.839 7  92278614.545 6        47.000 7
        37.000 6
  24600359.976 6  24600358.316 4 129275763.856 6 100734361.825 4        41.000 6
        24.000 4
  21201378.080 8  21201376.620 7 111413992.605 8  86816098.144 7        51.000 8
        43.000 7
  24855604.156 6  24855603.876 3 130617082.980 6 101779544.283 3        36.000 6
        23.000 3
  21580491.418 8  21580489.138 6 113406247.250 8  88368503.786 6        49.000 8
        39.000 6
  22610875.190 7  22610874.410 6 118820950.663 7  92587753.608 6        47.000 7
        37.000 6
  24096439.620 7  24096436.520 4 126627644.754 7  98670891.813 4        44.000 7
        26.000 4
 10  1  6  6  0  9.0000000  0  9G02G04G05G07G10G12G13G17G23
  21057385.640 8  21057381.620 7 110657309.759 8  86226475.522 7        52.000 8
        44.000 7
  20690503.062 8  20690501.342 7 108729326.720 8  84724150.579 7        52.000 8
        47.000 7
  22534971.890 8  22534970.530 6 118422081.429 8  92276946.695 6        48.000 8
        37.000 6
  24599942.376 6  24599940.956 4 129273571.122 6 100732653.275 4        41.000 6
        25.000 4
  21201084.300 8  21201083.120 7 111412449.590 8  86814895.803 7        51.000 8
        43.000 7
  24855899.676 6  24855898.656 3 130618633.071 6 101780752.135 3        37.000 6
        23.000 3
  21580809.158 8  21580806.658 6 113407917.684 8  88369805.427 6        49.000 8
        39.000 6
  22611531.610 7  22611530.830 6 118824399.235 7  92590440.792 6        47.000 7
        37.000 6
  24097021.620 7  24097018.720 4 126630706.944 7  98673277.862 4        43.000 7
        27.000 4
 10  1  6  6  0 10.0000000  0  9G02G04G05G07G10G12G13G17G23
  21057003.640 8  21056999.520 7 110655301.489 8  86224910.634 7        52.000 8
        45.000 7
  20690614.602 8  20690612.942 7 108729913.256 8  84724607.621 7        52.000 8
        47.000 7
  22534564.170 8  22534563.310 6 118419940.698 8  92275278.597 6        48.000 8
        37.000 6
  24599525.476 6  24599523.416 4 129271378.017 6 100730944.319 4        41.000 6
        24.000 4
  21200790.620 8  21200789.180 7 111410906.347 8  86813693.267 7        51.000 8
        43.000 7
  24856194.076 6  24856194.136 3 130620183.007 6 101781959.837 3        38.000 6
        23.000 3
  21581126.858 8  21581124.478 6 113409588.155 8  88371107.088 6        49.000 8
        40.000 6
  22612187.950 7  22612187.030 6 118827847.513 7  92593127.760 6        46.000 7
        37.000 6
  24097604.880 7  24097601.200 4 126633768.920 7  98675663.866 4        43.000 7
        26.000 4
 10  1  6  6  0 11.0000000  0  9G02G04G05G07G10G12G13G17G23
  21056621.420 8  21056617.860 7 110653293.590 8  86223346.033 7        52.000 8
        45.000 7
  20690726.182 8  20690724.642 7 108730500.264 8  84725065.028 7        53.000 8
        47.000 7
  22534157.250 8  22534156.190 6 118417800.330 8  92273610.784 6        48.000 8
        37.000 6
  24599108.276 6  24599106.056 4 129269185.235 6 100729235.668 4        41.000 6
        25.000 4
  21200497.100 8  21200495.340 7 111409363.586 8  86812491.117 7        51.000 8
        43.000 7
  24856489.116 6  24856488.936 3 130621733.337 6 101783167.952 3        38.000 6
        23.000 3
  21581445.058 8  21581442.778 6 113411259.377 8  88372409.335 6        50.000 8
        39.000 6
  22612844.250 7  22612843.010 6 118831296.185 7  92595815.039 6        46.000 7
        37.000 6
  24098187.800 7  24098183.660 4 126636831.281 7  98678050.122 4        44.000 7
        26.000 4
 10  1  6  6  0 12.0000000  0  9G02G04G05G07G10G12G13G17G23
  21056239.780 8  21056235.820 7 110651286.353 8  86221781.965 7        52.000 8
        45.000 7
  20690837.902 8  20690836.502 7 108731088.100 8  84725523.087 7        52.000 8
        47.000 7
  22533750.230 8  22533749.250 6 118415660.706 8  92271943.554 6        48.000 8
        37.000 6
  24598691.156 6  24598688.956 4 129266993.063 6 100727527.475 4        41.000 6
        25.000 4
  21200203.380 8  21200202.000 7 111407821.630 8  86811289.607 7        51.000 8
        43.000 7
  24856784.736 6  24856783.976 3 130623284.521 6 101784376.630 3        37.000 6
        23.000 3
  21581763.138 8  21581761.158 6 113412931.639 8  88373712.405 6        49.000 8
        39.000 6
  22613500.830 7  22613499.750 6 118834745.580 7  92598502.877 6        46.000 7
        36.000 6
  24098770.860 7  24098766.760 4 126639894.402 7  98680436.965 4        44.000 7
        26.000 4
 10  1  6  6  0 13.0000000  0  9G02G04G05G07G10G12G13G17G23
  21055857.680 8  21055853.900 7 110649279.295 8  86220218.019 7        52.000 8
        45.000 7
  20690949.822 8  20690948.382 7 108731676.236 8  84725981.376 7        51.000 8
        47.000 7
  22533342.890 8  22533341.910 6 118413521.291 8  92270276.470 6        48.000 8
        37.000 6
  24598274.176 7  24598271.976 4 129264801.048 7 100725819.390 4        42.000 7
        25.000 4
  21199910.080 8  21199908.660 7 111406280.000 8  86810088.336 7        51.000 8
        43.000 7
  24857080.136 6  24857079.476 3 130624835.963 6 101785585.557 3        37.000 6
        23.000 3
  21582081.558 7  21582079.338 6 113414604.485 7  88375015.921 6        47.000 7
        39.000 6
  22614156.750 7  22614156.010 6 118838195.182 7  92601190.871 6        46.000 7
        37.000 6
  24099353.860 7  24099350.080 4 126642957.780 7  98682824.029 4        44.000 7
        26.000 4
 10  1  6  6  0 14.0000000  0  9G02G04G05G07G10G12G13G17G23
  21055475.840 8  21055472.140 7 110647273.224 8  86218654.850 7        52.000 8
        45.000 7
  20691062.182 8  20691060.762 7 108732265.481 8  84726440.528 7        51.000 8
        47.000 7
  22532935.610 7  22532935.110 6 118411382.881 7  92268610.180 6        47.000 7
        37.000 6
  24597857.296 7  24597854.936 4 129262609.977 7 100724112.115 4        42.000 7
        26.000 4
  21199616.860 8  21199615.740 7 111404739.489 8  86808887.932 7        51.000 8
        42.000 7
  24857374.776 6  24857374.936 3 130626388.531 6 101786795.363 3        38.000 6
        23.000 3
  21582400.198 7  21582397.978 6 113416278.679 7  88376320.490 6        46.000 7
        39.000 6
  22614813.390 7  22614812.930 6 118841645.820 7  92603879.688 6        47.000 7
        36.000 6
  24099936.920 7  24099933.280 4 126646022.151 7  98685211.863 4        44.000 7
        26.000 4
 10  1  6  6  0 15.0000000  0  9G02G04G05G07G10G12G13G17G23
  21055093.660 8  21055089.340 7 110645262.706 8  86217088.203 7        52.000 8
        45.000 7
  20691173.462 8  20691171.922 7 108732850.416 8  84726896.313 7        51.000 8
        47.000 7
  22532528.210 7  22532527.030 6 118409240.087 7  92266940.477 6        47.000 7
        37.000 6
  24597438.996 7  24597437.236 4 129260414.473 7 100722401.314 4        42.000 7
        24.000 4
  21199323.140 8  21199321.580 7 111403194.692 8  86807684.192 7        51.000 8
        42.000 7
  24857669.316 6  24857669.536 3 130627936.788 6 101788001.779 3        38.000 6
        23.000 3
  21582718.038 7  21582715.958 6 113417948.869 7  88377621.930 6        47.000 7
        40.000 6
  22615469.210 7  22615468.430 6 118845092.096 7  92606565.087 6        46.000 7
        36.000 6
  24100519.820 7  24100515.740 4 126649082.214 7  98687596.276 4        44.000 7
        26.000 4
 10  1  6  6  0 16.0000000  0  9G02G04G05G07G10G12G13G17G23
  21054711.580 8  21054707.680 7 110643257.111 8  86215525.408 7        52.000 8
        45.000 7
  20691285.482 8  20691283.942 7 108733440.359 8  84727356.016 7        51.000 8
        47.000 7
  22532121.310 7  22532120.370 6 118407102.210 7  92265274.597 6        47.000 7
        37.000 6
  24597021.876 6  24597020.356 4 129258223.804 6 100720694.313 4        41.000 6
        24.000 4
  21199030.100 8  21199028.680 7 111401654.909 8  86806484.365 7        51.000 8
        42.000 7
  24857965.316 6  24857965.156 3 130629490.053 6 101789212.099 3        39.000 6
        23.000 3
  21583036.978 8  21583034.598 6 113419624.321 8  88378927.479 6        48.000 8
        40.000 6
  22616125.930 7  22616124.850 6 118848543.277 7  92609254.318 6        46.000 7
        36.000 6
  24101102.680 7  24101098.900 4 126652147.234 7  98689984.659 4        44.000 7
        26.000 4
 10  1  6  6  0 17.0000000  0  9G02G04G05G07G10G12G13G17G23
  21054329.900 8  21054325.940 7 110641250.016 8  86213961.434 7        52.000 8
        45.000 7
  20691397.562 8  20691396.202 7 108734028.942 8  84727814.653 7        51.000 8
        47.000 7
  22531714.190 7  22531713.290 6 118404962.922 7  92263607.623 6        47.000 7
        37.000 6
  24596605.296 6  24596603.436 4 129256031.616 6 100718986.117 4        41.000 6
        25.000 4
  21198736.840 8  21198735.320 7 111400113.810 8  86805283.517 7        50.000 8
        42.000 7
  24858260.916 6  24858260.576 3 130631041.955 6 101790421.403 3        39.000 6
        23.000 3
  21583355.738 7  21583353.458 6 113421298.699 7  88380232.189 6        47.000 7
        40.000 6
  22616782.610 7  22616781.590 6 118851993.027 7  92611942.432 6        46.000 7
        36.000 6
  24101685.500 7  24101681.960 4 126655210.838 7  98692371.838 4        44.000 7
        26.000 4
 10  1  6  6  0 18.0000000  0  9G02G04G05G07G10G12G13G17G23
  21053948.240 8  21053944.280 7 110639245.101 8  86212399.169 7        52.000 8
        45.000 7
  20691510.022 8  20691508.782 7 108734619.815 8  84728275.070 7        51.000 8
        47.000 7
  22531307.350 8  22531306.610 6 118402825.796 8  92261942.335 6        48.000 8
        37.000 6
  24596187.976 6  24596186.896 4 129253841.556 6 100717279.587 4        41.000 6
        25.000 4
  21198443.960 8  21198442.500 7 111398574.975 8  86804084.417 7        50.000 8
        43.000 7
  24858556.656 6  24858556.476 3 130632596.108 6 101791632.405 3        39.000 6
        23.000 3
  21583674.558 8  21583672.438 6 113422975.618 8  88381538.877 6        48.000 8
        40.000 6
  22617439.310 7  22617438.650 6 118855444.991 7  92614632.277 6        46.000 7
        36.000 6
  24102268.900 7  24102265.100 4 126658276.666 7  98694760.805 4        43.000 7
        26.000 4
 10  1  6  6  0 19.0000000  0  9G02G04G05G07G10G12G13G17G23
  21053566.360 8  21053562.660 7 110637239.199 8  86210836.127 7        52.000 8
        45.000 7
  20691622.082 8  20691621.002 7 108735209.853 8  84728734.838 7        51.000 8
        47.000 7
  22530900.410 8  22530899.670 6 118400687.754 8  92260276.333 6        48.000 8
        37.000 6
  24595771.476 6  24595769.736 4 129251650.485 6 100715572.285 4        41.000 6
        24.000 4
  21198150.760 8  21198149.400 7 111397035.321 8  86802884.686 7        51.000 8
        42.000 7
  24858851.536 6  24858851.776 3 130634149.457 6 101792842.830 3        38.000 6
        23.000 3
  21583993.658 8  21583991.058 6 113424651.937 8  88382845.094 6        48.000 8
        40.000 6
  22618096.330 7  22618095.470 6 118858896.007 7  92617321.378 6        46.000 7
        37.000 6
  24102852.320 7  24102847.820 4 126661341.599 7  98697149.087 4        44.000 7
        26.000 4
 10  1  6  6  0 20.0000000  0  9G02G04G05G07G10G12G13G17G23
  21053184.460 8  21053180.260 7 110635231.479 8  86209271.663 7        52.000 8
        45.000 7
  20691734.342 8  20691732.922 7 108735798.168 8  84729193.265 7        52.000 8
        47.000 7
  22530493.510 8  22530492.710 6 118398547.908 8  92258608.915 6        48.000 8
        38.000 6
  24595353.696 6  24595352.236 4 129249457.558 6 100713863.483 4        41.000 6
        24.000 4
  21197857.580 8  21197855.980 7 111395493.969 8  86801683.637 7        50.000 8
        42.000 7
  24859147.296 6  24859147.136 3 130635701.066 6 101794051.827 3        36.000 6
        23.000 3
  21584312.098 8  21584309.758 6 113426326.827 8  88384150.209 6        49.000 8
        40.000 6
  22618752.370 7  22618751.510 6 118862345.226 7  92620009.066 6        46.000 7
        37.000 6
  24103434.660 7  24103430.880 4 126664404.728 7  98699535.928 4        44.000 7
        25.000 4
 10  1  6  6  0 21.0000000  0  9G02G04G05G07G10G12G13G17G23
  21052802.540 8  21052798.760 7 110633225.640 8  86207708.674 7        52.000 8
        45.000 7
  20691846.662 8  20691844.982 7 108736388.503 8  84729653.262 7        52.000 8
        47.000 7
  22530086.830 7  22530085.630 6 118396409.992 7  92256943.015 6        47.000 7
        38.000 6
  24594937.556 6  24594935.316 4 129247266.464 6 100712156.118 4        41.000 6
        24.000 4
  21197564.380 8  21197563.040 7 111393954.622 8  86800484.145 7        51.000 8
        42.000 7
  24859442.916 6  24859442.716 4 130637254.681 6 101795262.464 4        36.000 6
        24.000 4
  21584631.598 8  21584629.158 6 113428003.988 8  88385457.084 6        49.000 8
        40.000 6
  22619409.290 7  22619408.470 6 118865796.389 7  92622698.286 6        47.000 7
        37.000 6
  24104017.820 7  24104014.240 4 126667469.843 7  98701924.358 4        43.000 7
        25.000 4
 10  1  6  6  0 22.0000000  0  9G02G04G05G07G10G12G13G17G23
  21052421.120 8  21052416.660 7 110631218.277 8  86206144.497 7        52.000 8
        45.000 7
  20691958.762 8  20691957.522 7 108736977.442 8  84730112.182 7        52.000 8
        47.000 7
  22529680.010 7  22529678.490 6 118394270.570 7  92255275.926 6        47.000 7
        37.000 6
  24594519.916 6  24594518.376 4 129245073.818 6 100710447.576 4        41.000 6
        24.000 4
  21197271.480 8  21197269.820 7 111392413.900 8  86799283.581 7        51.000 8
        43.000 7
  24859738.456 6  24859737.936 4 130638806.863 6 101796471.961 4        36.000 6
        24.000 4
  21584950.438 8  21584948.158 6 113429680.010 8  88386763.075 6        49.000 8
        40.000 6
  22620065.670 7  22620064.810 6 118869246.070 7  92625386.354 6        47.000 7
        36.000 6
  24104600.960 7  24104597.200 4 126670533.473 7  98704311.583 4        44.000 7
        25.000 4
 10  1  6  6  0 23.0000000  0  9G02G04G05G07G10G12G13G17G23
  21052039.380 8  21052035.640 7 110629215.275 8  86204583.724 7        52.000 8
        45.000 7
  20692071.502 8  20692070.342 7 108737570.859 8  84730574.587 7        52.000 8
        47.000 7
  22529273.470 7  22529272.270 6 118392135.562 7  92253612.296 6        47.000 7
        38.000 6
  24594103.356 6  24594101.896 4 129242885.522 6 100708742.413 4        41.000 6
        25.000 4
  21196979.120 8  21196977.600 7 111390877.696 8  86798086.543 7        51.000 8
        42.000 7
  24860034.476 6  24860034.236 3 130640363.528 6 101797684.937 3        37.000 6
        23.000 3
  21585270.296 8  21585268.116 6 113431360.799 8  88388072.787 6        50.000 8
        40.000 6
  22620723.230 7  22620722.070 6 118872700.147 7  92628077.842 6        47.000 7
        36.000 6
  24105185.140 7  24105180.720 4 126673601.576 7  98706702.283 4        44.000 7
        25.000 4
 10  1  6  6  0 24.0000000  0  9G02G04G05G07G10G12G13G17G23
  21051657.900 8  21051654.260 7 110627209.856 8  86203021.054 7        52.000 8
        45.000 7
  20692184.102 8  20692182.702 7 108738161.977 8  84731035.198 7        52.000 8
        47.000 7
  22528866.510 7  22528865.370 6 118389998.160 7  92251946.803 6        47.000 7
        38.000 6
  24593686.076 6  24593684.836 4 129240694.755 6 100707035.325 4        41.000 6
        25.000 4
  21196686.200 8  21196685.000 7 111389339.192 8  86796887.705 7        51.000 8
        42.000 7
  24860330.516 6  24860330.036 3 130641917.878 6 101798896.133 3        37.000 6
        23.000 3
  21585589.836 8  21585587.516 6 113433039.547 8  88389380.896 6        49.000 8
        40.000 6
  22621380.210 7  22621378.890 6 118876151.852 7  92630767.490 6        47.000 7
        37.000 6
  24105768.820 7  24105764.300 4 126676667.311 7  98709091.188 4        44.000 7
        25.000 4
 10  1  6  6  0 25.0000000  0  9G02G04G05G07G10G12G13G17G23
  21051276.300 8  21051272.820 7 110625205.328 8  86201459.095 7        52.000 8
        45.000 7
  20692296.782 8  20692295.462 7 108738754.141 8  84731496.623 7        52.000 8
        47.000 7
  22528459.990 7  22528458.790 6 118387861.670 7  92250281.999 6        46.000 7
        38.000 6
  24593269.696 6  24593268.056 4 129238504.803 6 100705328.887 4        41.000 6
        25.000 4
  21196393.680 8  21196392.460 7 111387801.671 8  86795689.645 7        51.000 8
        42.000 7
  24860626.536 6  24860626.216 3 130643473.274 6 101800108.109 3        37.000 6
        23.000 3
  21585909.436 8  21585906.976 6 113434719.553 8  88390689.989 6        49.000 8
        40.000 6
  22622037.130 7  22622035.890 6 118879604.484 7  92633457.839 6        46.000 7
        37.000 6
  24106352.120 7  24106347.840 4 126679733.987 7  98711480.806 4        43.000 7
        25.000 4
 10  1  6  6  0 26.0000000  0  9G02G04G05G07G10G12G13G17G23
  21050894.900 8  21050891.080 7 110623200.062 8  86199896.539 7        52.000 8
        45.000 7
  20692409.182 8  20692407.622 7 108739345.679 8  84731957.555 7        52.000 8
        47.000 7
  22528053.210 7  22528052.250 6 118385724.508 7  92248616.678 6        46.000 7
        37.000 6
  24592852.836 6  24592851.356 4 129236314.137 6 100703621.888 4        41.000 6
        26.000 4
  21196100.980 8  21196099.400 7 111386263.625 8  86794491.169 7        51.000 8
        42.000 7
  24860922.556 6  24860922.036 3 130645028.042 6 101801319.625 3        37.000 6
        23.000 3
  21586228.996 8  21586226.756 6 113436399.243 8  88391998.847 6        49.000 8
        40.000 6
  22622693.970 7  22622693.090 6 118883056.440 7  92636147.677 6        46.000 7
        36.000 6
  24106935.220 7  24106931.220 4 126682800.019 7  98713869.907 4        44.000 7
        26.000 4
